time,x_pos,y_pos,z_pos,x_rot,y_rot,z_rot,delta_time,z_filtered,x_pos_est,y_pos_est,z_pos_est,z_rot_est,x_error,y_error,z_error,yaw_error,x_setpoint,y_setpoint,z_setpoint,yaw_setpoint,vicon_available,thrust_cal,pitch_cal,roll_cal,yaw_cal,thrust_lim,pitch_lim,roll_lim,yaw_lim,gyro_x,gyro_y,acc_x,acc_y,acc_z,stateEstimate_az,stateEstimate_vz,stateEstimate_yaw,range_zrange,motion_deltaX,motion_deltaY
1.4191811084747314,19.0005436463709,-1253.6715171010674,1483.0190648940102,0.09393027784341451,-0.03005107297813435,0.05716931782606357,0.0011241436004638672,0.052383100362198155,19.0005436463709,-1253.6715171010674,463.6534324573879,0.05716931782606357,-0.0190005436463709,1.2536715171010673,0.01698093510598983,3.275560629075465,0.0,0.0,1.5,0.0,1,-146380.14078563685,10779.307248510513,400.4171772593154,1659.0111981370626,10000,40,40,360,-21.9375,-5.2109375,0.08331298828125,-0.01316070556640625,1.015625,0.020538330078125,-0.0192718505859375,1.2939453125,1416.0,0.0,0.0
1.4227626323699951,19.27798626667235,-1253.6421902759917,1482.0914682160048,0.09340481889229585,-0.0376471917349194,0.05390778309434201,0.00037980079650878906,0.052712649314150026,19.27798626667235,-1253.6421902759917,560.780715065785,0.05390778309434201,-0.01927798626667235,1.2536421902759916,0.01790853178399516,3.088688454212486,0.0,0.0,1.5,0.0,1,50059.62990583143,49.94248746355758,2.648599749434554,-16.017770221056644,50059.62990583143,40,2.648599749434554,-16.017770221056644,-17.921875,0.9248046875,0.09173583984375,0.003498077392578125,0.9931640625,-0.0022411346435546875,-0.0183868408203125,1.291015625,1416.0,0.0,0.0
1.427436351776123,19.784643543506625,-1253.5478526031025,1480.937959950546,0.09670543599365737,-0.02808526529675679,0.05879657038163388,0.0002951622009277344,0.05288451989400719,19.27798626667235,-1253.6421902759917,560.780715065785,0.05390778309434201,-0.019784643543506626,1.2535478526031025,0.019062040049454027,3.368795332711521,0.0,0.0,1.5,0.0,1,55184.43187190464,49.287894422706415,-1.3752949725076644,227.44992029024348,55184.43187190464,40,-1.3752949725076644,227.44992029024348,,,,,,,,,,,
1.42991042137146,20.31816161575936,-1253.8502378754833,1480.0843571397222,0.09737672645391417,-0.019294999522589694,0.06534721953773809,0.000461578369140625,0.05314331806228227,20.31816161575936,-1253.8502378754833,647.7785350769902,0.06534721953773809,-0.02031816161575936,1.2538502378754834,0.019915642860277784,3.744119882427227,0.0,0.0,1.5,0.0,1,51198.625547989854,52.41651788731187,0.46762945570157566,211.94342445729347,51198.625547989854,40,0.46762945570157566,211.94342445729347,-13.4296875,6.8203125,0.09832763671875,0.0034160614013671875,0.99072265625,-0.00852203369140625,-0.019317626953125,1.275390625,1416.0,0.0,0.0
1.4333562850952148,20.935878062412794,-1254.005078551551,1479.258879192449,0.0860857940141177,-0.01866406433183748,0.06459902591366436,0.00010395050048828125,0.05331543890993517,20.31816161575936,-1253.8502378754833,647.7785350769902,0.06534721953773809,-0.020935878062412795,1.2540050785515509,0.02074112080755094,3.7012515455092045,0.0,0.0,1.5,0.0,1,53468.44176344909,52.15192001605367,-2.5811959054797806,27.714210758626447,53468.44176344909,40,-2.5811959054797806,27.714210758626447,,,,,,,,,,,
1.434948205947876,21.493991198546457,-1254.2714663004383,1478.5241742745663,0.06236037189407729,-0.017238240792444324,0.05039874884031105,7.867813110351562e-05,0.05343791896956328,20.31816161575936,-1253.8502378754833,647.7785350769902,0.06534721953773809,-0.021493991198546458,1.2542714663004384,0.02147582572543365,2.8876356012896753,0.0,0.0,1.5,0.0,1,56315.61006470157,54.946425553774844,-4.628511447241511,-734.0323018129437,56315.61006470157,40,-4.628511447241511,-360,,,,,,,,,,,
1.4440839290618896,22.07269792221639,-1254.5269065190002,1477.7808422486428,0.07182618122310429,-0.01528508031370137,0.05348849199586059,9.417533874511719e-05,0.05412288735717072,20.31816161575936,-1253.8502378754833,647.7785350769902,0.06534721953773809,-0.02207269792221639,1.2545269065190003,0.022219157751357216,3.0646648438820967,0.0,0.0,1.5,0.0,1,48041.08943391524,50.879883101049955,2.670439245773062,74.9986343159552,48041.08943391524,40,2.670439245773062,74.9986343159552,,,,,,,,,,,
1.4471745491027832,22.7387397101617,-1255.047666207929,1477.2551248651916,0.07761233232469766,-0.020946193137905633,0.05304979617424001,8.630752563476562e-05,0.05433425327126725,22.7387397101617,-1255.047666207929,727.2601048404083,0.05304979617424001,-0.022738739710161698,1.255047666207929,0.022744875134808353,3.0395294248132134,0.0,0.0,1.5,0.0,1,50338.86659535852,54.530755615288555,-1.1435909739997732,34.04156203593523,50338.86659535852,40,-1.1435909739997732,34.04156203593523,-11.765625,9.203125,0.096435546875,9.381771087646484e-05,1.01171875,0.01197052001953125,-0.0194854736328125,1.25,1416.0,0.0,0.0
1.4522223472595215,23.2834043061969,-1255.3445996070573,1476.568717200872,0.08162565243728447,-0.017909172923879158,0.05395606134320765,0.00010657310485839844,0.05457982893342609,22.7387397101617,-1255.047666207929,727.2601048404083,0.05304979617424001,-0.0232834043061969,1.2553445996070574,0.023431282799127984,3.09145459411477,0.0,0.0,1.5,0.0,1,49387.062618837306,51.86592340726088,0.6409430735887245,62.31000098486854,49387.062618837306,40,0.6409430735887245,62.31000098486854,,,,,,,,,,,
1.4554259777069092,23.843161423971004,-1255.8312414955074,1476.2842058529486,0.11237706830130709,-0.0015260517784810158,0.05577465949054476,9.202957153320312e-05,0.05470320678236928,23.843161423971004,-1255.8312414955074,796.5482598783441,0.05577465949054476,-0.023843161423971006,1.2558312414955073,0.023715794147051383,3.1956525925874972,0.0,0.0,1.5,0.0,1,48826.223927588646,54.157389275856985,-1.1225430441779785,94.38537506320704,48826.223927588646,40,-1.1225430441779785,94.38537506320704,-9.4609375,6.88671875,0.0931396484375,-0.00670623779296875,1.0322265625,0.03271484375,-0.0177154541015625,1.2177734375,1408.0,0.0,0.0
1.458390474319458,24.341405218496273,-1256.398776786367,1476.109296989668,0.10744947717432787,-0.001209411528692201,0.05684063960010169,9.799003601074219e-05,0.054782473832213706,23.843161423971004,-1255.8312414955074,796.5482598783441,0.05577465949054476,-0.024341405218496273,1.2563987767863671,0.02389070301033189,3.2567287539100023,0.0,0.0,1.5,0.0,1,48758.312079542506,55.719970113860995,-1.629303138387045,81.58996015839378,48758.312079542506,40,-1.629303138387045,81.58996015839378,,,,,,,,,,,
1.4638903141021729,24.9040226529063,-1256.9776947473597,1475.984687823096,0.10703430684228576,-0.0018386504252342086,0.05760432858938535,9.5367431640625e-05,0.05490781062165228,24.9040226529063,-1256.9776947473597,858.7942467311822,0.05760432858938535,-0.0249040226529063,1.2569776947473597,0.02401531217690399,3.3004849098565674,0.0,0.0,1.5,0.0,1,47401.57680570965,53.0237757579957,0.056716702419479015,61.078939468233244,47401.57680570965,40,0.056716702419479015,61.078939468233244,-7.359375,0.408935546875,0.09124755859375,-0.0255889892578125,1.02734375,0.03143310546875,-0.0364990234375,1.2509765625,1408.0,0.0,0.0
1.466780424118042,25.54763680968558,-1257.8049729498305,1476.0886495698076,0.1003528319162335,0.00022221776499004066,0.05704222657232164,9.226799011230469e-05,0.05495867314197258,24.9040226529063,-1256.9776947473597,858.7942467311822,0.05760432858938535,-0.02554763680968558,1.2578049729498304,0.023911350430192442,3.2682788366230264,0.0,0.0,1.5,0.0,1,47465.68161700109,58.54414282533395,-3.3814967667919555,31.160910691671,47465.68161700109,40,-3.3814967667919555,31.160910691671,,,,,,,,,,,
1.47501540184021,26.10327278114073,-1258.3640859722716,1475.8719007152197,0.07619197949622673,-0.014916196472892107,0.06063001522363662,8.988380432128906e-05,0.0551404514468668,26.10327278114073,-1258.3640859722716,915.0138863359588,0.06063001522363662,-0.026103272781140732,1.2583640859722716,0.024128099284780317,3.473843984128308,0.0,0.0,1.5,0.0,1,47293.5591208619,52.11366813917895,0.8171008405511666,88.81483998112225,47293.5591208619,40,0.8171008405511666,88.81483998112225,-4.17578125,-3.7421875,0.083740234375,-0.034393310546875,0.9970703125,0.0024280548095703125,-0.03460693359375,1.2314453125,1408.0,0.0,0.0
1.477752685546875,26.838756746537296,-1259.405710401577,1476.1431873529812,0.1052301809725708,0.0014144450338163868,0.05905197568159791,9.131431579589844e-05,0.05520886566992438,26.10327278114073,-1258.3640859722716,915.0138863359588,0.06063001522363662,-0.026838756746537296,1.259405710401577,0.023856812647018843,3.383428978464733,0.0,0.0,1.5,0.0,1,46801.994818366315,61.25639580658671,-4.266237931338403,-1.9972698734864807,46801.994818366315,40,-4.266237931338403,-1.9972698734864807,,,,,,,,,,,
1.4822745323181152,27.583785849131182,-1260.4607511982974,1476.2624367707815,0.10586401822011016,0.008397813829491209,0.06179303040467515,8.606910705566406e-05,0.05535670501268798,26.10327278114073,-1258.3640859722716,915.0138863359588,0.06063001522363662,-0.02758378584913118,1.2604607511982975,0.023737563229218495,3.54047984551146,0.0,0.0,1.5,0.0,1,47248.55281476897,56.66455937258479,-1.185934685000956,105.24579827294846,47248.55281476897,40,-1.185934685000956,105.24579827294846,,,,,,,,,,,
1.486234188079834,28.241999118985838,-1261.1822820283835,1476.0441947931404,0.11884659841453507,0.01126787451158372,0.05971681194066053,8.606910705566406e-05,0.05552576522701875,28.241999118985838,-1261.1822820283835,965.4246142998411,0.05971681194066053,-0.02824199911898584,1.2611822820283836,0.023955805206859623,3.4215212901762873,0.0,0.0,1.5,0.0,1,48447.18198550677,55.15836191370598,-0.8754313771299664,8.066402943281005,48447.18198550677,40,-0.8754313771299664,8.066402943281005,-4.98046875,0.76025390625,0.07427978515625,-0.040924072265625,0.9814453125,-0.01526641845703125,-0.035430908203125,1.19921875,1408.0,0.0,0.0
1.4889442920684814,28.81120440578459,-1262.1616236265977,1476.1542495178987,0.1159858092277733,0.006129122311241661,0.05560565436154059,9.417533874511719e-05,0.0556458615380417,28.241999118985838,-1261.1822820283835,965.4246142998411,0.05971681194066053,-0.02881120440578459,1.2621616236265978,0.023845750482101268,3.185969311979494,0.0,0.0,1.5,0.0,1,47874.574980772784,60.711500783075834,-2.0376729566685867,-90.77660398913275,47874.574980772784,40,-2.0376729566685867,-90.77660398913275,,,,,,,,,,,
1.4941556453704834,29.412361244064932,-1263.0124092581489,1476.0185422970646,0.11425699162230205,0.009700954483408622,0.05500080181653945,8.511543273925781e-05,0.055911400068099394,29.412361244064932,-1263.0124092581489,1010.3520980602657,0.05500080181653945,-0.029412361244064933,1.263012409258149,0.023981457702935357,3.1513138139231818,0.0,0.0,1.5,0.0,1,47825.788666508815,54.73424705958707,0.5936739055772744,37.578466157226565,47825.788666508815,40,0.5936739055772744,37.578466157226565,-0.87548828125,0.57275390625,0.0731201171875,-0.048980712890625,0.97705078125,-0.0203094482421875,-0.037353515625,1.1494140625,1408.0,0.0,0.0
1.4970412254333496,30.031776833108164,-1263.909783172706,1475.8797972604775,0.12165611503196862,0.016759181946599568,0.062304594211564354,9.179115295410156e-05,0.05604396586285116,29.412361244064932,-1263.0124092581489,1010.3520980602657,0.05500080181653945,-0.030031776833108165,1.263909783172706,0.024120202739522482,3.5697902925978564,0.0,0.0,1.5,0.0,1,49396.92148115073,59.35210602640468,-2.1820090283778333,283.34753105970657,49396.92148115073,40,-2.1820090283778333,283.34753105970657,,,,,,,,,,,
1.5053119659423828,30.529655788592706,-1264.561028525635,1475.596931847894,0.10969954708498918,0.00973496901194568,0.05367310409595073,9.298324584960938e-05,0.056417113642779966,30.529655788592706,-1264.561028525635,1051.3090590821403,0.05367310409595073,-0.030529655788592704,1.264561028525635,0.024403068152106015,3.075242338064309,0.0,0.0,1.5,0.0,1,47554.09908769375,52.612842234812405,1.667286170100929,-41.747397799310036,47554.09908769375,40,1.667286170100929,-41.747397799310036,4.86328125,-2.640625,0.07470703125,-0.038665771484375,0.9814453125,-0.0168609619140625,-0.039703369140625,1.0947265625,1412.0,0.0,0.0
1.508025884628296,30.95083065940779,-1265.447841188805,1475.3927685695764,0.11308871121831683,0.006973449079941901,0.0513311728847825,9.226799011230469e-05,0.05651691958337785,30.529655788592706,-1264.561028525635,1051.3090590821403,0.05367310409595073,-0.030950830659407787,1.2654478411888048,0.024607231430423555,2.941059563754408,0.0,0.0,1.5,0.0,1,50106.9323920957,59.85153551472356,-0.8712838411789454,-34.96654406393403,50106.9323920957,40,-0.8712838411789454,-34.96654406393403,,,,,,,,,,,
1.512840986251831,31.26655527252464,-1266.1552460062776,1475.0984507077371,0.10527240910849439,0.010985482179479542,0.051454002018255375,0.00011801719665527344,0.05666366550531936,30.529655788592706,-1264.561028525635,1051.3090590821403,0.05367310409595073,-0.03126655527252464,1.2661552460062775,0.024901549292262872,2.9480971547036527,0.0,0.0,1.5,0.0,1,48497.91603480806,54.51639312781359,1.1359993069212144,46.415653950871985,48497.91603480806,40,1.1359993069212144,46.415653950871985,,,,,,,,,,,
1.5161731243133545,31.631552670123828,-1267.0168577517102,1474.8864978684824,0.1086480350433739,0.009978424038725951,0.05002832296978177,8.416175842285156e-05,0.05672123924667369,31.631552670123828,-1267.0168577517102,1088.0239400041726,0.05002832296978177,-0.031631552670123825,1.2670168577517102,0.025113502131517633,2.866411762285888,0.0,0.0,1.5,0.0,1,49095.994995290115,57.198890074868885,-0.1928917601029494,7.987998488845513,49095.994995290115,40,-0.1928917601029494,7.987998488845513,8.4453125,-3.23046875,0.07342529296875,-0.0236663818359375,0.98779296875,-0.01088714599609375,-0.039703369140625,1.0947265625,1412.0,0.0,0.0
1.5188994407653809,31.847186379802974,-1267.9203057264397,1474.7768097954595,0.11234757217713981,0.012873087881708767,0.04969827865039844,9.441375732421875e-05,0.05673040886056821,31.631552670123828,-1267.0168577517102,1088.0239400041726,0.05002832296978177,-0.03184718637980297,1.2679203057264397,0.025223190204540516,2.8475016157329556,0.0,0.0,1.5,0.0,1,49422.93458599631,59.97531056403908,0.057629356890003036,31.65047356269577,49422.93458599631,40,0.057629356890003036,31.65047356269577,,,,,,,,,,,
1.523979902267456,32.05564862473162,-1268.6908792186573,1474.6753054513053,0.10616866366948864,0.010539026342637845,0.048824762885434074,8.988380432128906e-05,0.05665384546498273,32.05564862473162,-1268.6908792186573,1120.8080388067717,0.048824762885434074,-0.03205564862473162,1.2686908792186573,0.02532469454869465,2.797452849062356,0.0,0.0,1.5,0.0,1,47735.47477973504,54.63225410999317,0.29477967754573253,27.626276534599356,47735.47477973504,40,0.29477967754573253,27.626276534599356,12.5546875,-2.2421875,0.0802001953125,-0.0177764892578125,0.9931640625,-0.004695892333984375,-0.041229248046875,1.0283203125,1412.0,0.0,0.0
1.5269405841827393,32.28620980140546,-1269.463456634202,1474.5522854998806,0.10597400668474583,0.019960546682661364,0.05269443461753912,9.012222290039062e-05,0.056560656861080076,32.05564862473162,-1268.6908792186573,1120.8080388067717,0.048824762885434074,-0.03228620980140546,1.269463456634202,0.025447714500119446,3.019168707413054,0.0,0.0,1.5,0.0,1,48997.37231221724,58.08703543681418,-1.2489346425590875,164.08463223916806,48997.37231221724,40,-1.2489346425590875,164.08463223916806,,,,,,,,,,,
1.5306029319763184,32.46431988181955,-1270.1955467814003,1474.3713843923886,0.10667161825194135,0.020224760136545457,0.05030319013709751,0.00010991096496582031,0.05638304937566371,32.46431988181955,-1270.1955467814003,1150.196473586795,0.05030319013709751,-0.032464319881819546,1.2701955467814003,0.025628615607611437,2.882160490899796,0.0,0.0,1.5,0.0,1,48558.08325783197,55.884848861614806,-0.8938725634184501,-10.49701767119948,48558.08325783197,40,-0.8938725634184501,-10.49701767119948,13.1484375,-1.2353515625,0.08551025390625,-0.041107177734375,1.0009765625,0.0011005401611328125,-0.042022705078125,0.9482421875,1412.0,0.0,0.0
1.5350861549377441,32.56495045668639,-1270.7885354051264,1474.3294532269022,0.09602010564563959,0.017954078372296567,0.04633353369628093,9.059906005859375e-05,0.05612425735772239,32.46431988181955,-1270.1955467814003,1150.196473586795,0.05030319013709751,-0.03256495045668639,1.2707885354051263,0.025670546773097838,2.6547159307240826,0.0,0.0,1.5,0.0,1,47530.64291036251,54.48085204754942,-0.8308891097365112,-39.12863719278588,47530.64291036251,40,-0.8308891097365112,-39.12863719278588,,,,,,,,,,,
1.5372223854064941,32.71310726186689,-1271.4774297257306,1474.2466304315428,0.11239521440668244,0.018584122130565806,0.04790367748719228,8.749961853027344e-05,0.0559753559936467,32.46431988181955,-1270.1955467814003,1150.196473586795,0.05030319013709751,-0.03271310726186689,1.2714774297257307,0.025753369568457175,2.744678543171974,0.0,0.0,1.5,0.0,1,49236.462357193974,59.42082332581066,-2.1052869628644126,104.5090118383765,49236.462357193974,40,-2.1052869628644126,104.5090118383765,,,,,,,,,,,
1.5396161079406738,32.70923428431827,-1272.371454563231,1474.4648979847507,0.1056704526383912,0.011767084611608485,0.04366030353107682,7.677078247070312e-05,0.055791079340368435,32.46431988181955,-1270.1955467814003,1150.196473586795,0.05030319013709751,-0.032709234284318274,1.272371454563231,0.025535102015249323,2.501551124590827,0.0,0.0,1.5,0.0,1,46967.652789284984,60.68104437890516,-0.4345597591050925,-115.25594371812005,46967.652789284984,40,-0.4345597591050925,-115.25594371812005,,,,,,,,,,,
1.5448379516601562,32.63306228565385,-1272.9773233540009,1474.4289762118995,0.11026292269506083,0.0172543072040825,0.048775366469094375,7.82012939453125e-05,0.05530823108881965,32.63306228565385,-1272.9773233540009,1176.3456925311075,0.048775366469094375,-0.03263306228565385,1.272977323354001,0.02557102378810055,2.79462264288302,0.0,0.0,1.5,0.0,1,47348.00532470456,53.90590018069037,-0.9280530733796228,123.63201689511888,47348.00532470456,40,-0.9280530733796228,123.63201689511888,15.6796875,-1.607421875,0.09478759765625,-0.010772705078125,1.0068359375,0.00830078125,-0.050872802734375,0.8759765625,1407.0,0.0,0.0
1.547743558883667,32.48296664629951,-1273.628434899622,1474.5693291725895,0.11244873359019274,0.013529928343065732,0.04457365111296648,8.96453857421875e-05,0.055026186454032316,32.63306228565385,-1272.9773233540009,1176.3456925311075,0.048775366469094375,-0.03248296664629951,1.273628434899622,0.025430670827410493,2.553882086261584,0.0,0.0,1.5,0.0,1,46924.76207236074,57.08351607380822,-0.12750091656265705,-92.47569232228162,46924.76207236074,40,-0.12750091656265705,-92.47569232228162,,,,,,,,,,,
1.552924394607544,32.24064946457505,-1274.1727434425165,1474.6430096609029,0.11348557394440735,0.013511814074418293,0.04179117518570315,8.96453857421875e-05,0.054420081164206234,32.24064946457505,-1274.1727434425165,1199.6291324786994,0.04179117518570315,-0.03224064946457505,1.2741727434425165,0.02535699033909714,2.394457959032645,0.0,0.0,1.5,0.0,1,46898.28020006168,53.655675676537236,-0.9527933338496519,-8.8903623232113,46898.28020006168,40,-0.9527933338496519,-8.8903623232113,18.21875,-3.185546875,0.092529296875,-0.0023345947265625,1.021484375,0.02215576171875,-0.0504150390625,0.77001953125,1407.0,0.0,0.0
1.5556867122650146,31.922438969779222,-1274.7921573104381,1474.8369698148206,0.11114377417967039,0.015250745506822079,0.041908668945779305,9.131431579589844e-05,0.05409443439586437,32.24064946457505,-1274.1727434425165,1199.6291324786994,0.04179117518570315,-0.03192243896977922,1.2747921573104382,0.025163030185179423,2.401189855604131,0.0,0.0,1.5,0.0,1,46464.02168921342,57.098716378821976,0.8473662170335372,39.890692665449706,46464.02168921342,40,0.8473662170335372,39.890692665449706,,,,,,,,,,,
1.5576937198638916,31.679159400241648,-1275.353675231597,1475.0971899240158,0.10403931322401816,0.01604810629339189,0.04706718723852565,7.581710815429688e-05,0.053831641682083015,32.24064946457505,-1274.1727434425165,1199.6291324786994,0.04179117518570315,-0.03167915940024165,1.275353675231597,0.024902810075984234,2.6967511823195274,0.0,0.0,1.5,0.0,1,45622.24662747544,58.28866493514765,0.6712254676859041,263.3073418397234,45622.24662747544,40,0.6712254676859041,263.3073418397234,,,,,,,,,,,
1.5631539821624756,31.31430629701928,-1275.6121513450269,1475.1330768051146,0.10318904535565533,0.018006428610613766,0.04858998877499443,8.702278137207031e-05,0.05305310274290185,31.31430629701928,-1275.6121513450269,1220.5919554113923,0.04858998877499443,-0.03131430629701928,1.275612151345027,0.02486692319488543,2.784001283395226,0.0,0.0,1.5,0.0,1,46738.85625586746,52.248170634301175,-1.3721536712144125,64.9079559934986,46738.85625586746,40,-1.3721536712144125,64.9079559934986,20.484375,-5.7421875,0.0784912109375,-0.022796630859375,1.0283203125,0.030364990234375,-0.04913330078125,0.6669921875,1407.0,0.0,0.0
1.5664818286895752,30.92683412922863,-1275.9324415374485,1475.2989187223343,0.10597486188360666,0.013085087459451316,0.04635302750053003,6.985664367675781e-05,0.0526146837217861,31.31430629701928,-1275.6121513450269,1220.5919554113923,0.04858998877499443,-0.03092683412922863,1.2759324415374484,0.024701081277665706,2.65583284343421,0.0,0.0,1.5,0.0,1,46122.50069939343,53.65741680558179,0.15265456155748502,-21.900973055811853,46122.50069939343,40,0.15265456155748502,-21.900973055811853,,,,,,,,,,,
1.5692200660705566,30.43370372008616,-1276.1787086078405,1475.515442428925,0.10598985187788323,0.009476217081484089,0.04451534188928854,7.319450378417969e-05,0.05222127658033789,30.43370372008616,-1276.1787086078405,1239.3364702036715,0.04451534188928854,-0.03043370372008616,1.2761787086078404,0.024484557571074903,2.550541213838154,0.0,0.0,1.5,0.0,1,45595.774565179345,53.17053378557266,1.4797741081538656,-16.91743191502362,45595.774565179345,40,1.4797741081538656,-16.91743191502362,18.578125,-9.875,0.07244873046875,-0.0379638671875,1.0263671875,0.0292205810546875,-0.046417236328125,0.56494140625,1407.0,0.0,0.0
1.573474407196045,29.86463294952436,-1276.3016605796802,1475.69288484033,0.10279977653900821,0.006179843287646711,0.042941502712015,6.914138793945312e-05,0.05166866045826294,30.43370372008616,-1276.1787086078405,1239.3364702036715,0.04451534188928854,-0.02986463294952436,1.2763016605796802,0.02430711515967005,2.460366871348038,0.0,0.0,1.5,0.0,1,45928.549033591225,51.75791871618112,0.6225913854984902,4.168751304179459,45928.549033591225,40,0.6225913854984902,4.168751304179459,,,,,,,,,,,
1.5756378173828125,29.291792521115795,-1276.4862193493025,1475.9044575647408,0.10042618028326843,0.002332870075397169,0.0417093873800327,8.273124694824219e-05,0.051383933277255656,30.43370372008616,-1276.1787086078405,1239.3364702036715,0.04451534188928854,-0.029291792521115793,1.2764862193493025,0.024095542435259177,2.389771862952092,0.0,0.0,1.5,0.0,1,45163.87659568804,53.03139491782299,4.067900688493964,-12.965971692241936,45163.87659568804,40,4.067900688493964,-12.965971692241936,,,,,,,,,,,
1.5787124633789062,28.63691499561146,-1276.4487549181028,1476.004903449824,0.0886279649403964,0.00591934833221315,0.046076031462171776,7.843971252441406e-05,0.05098378477365065,30.43370372008616,-1276.1787086078405,1239.3364702036715,0.04451534188928854,-0.02863691499561146,1.276448754918103,0.023995096550175957,2.6399621394944384,0.0,0.0,1.5,0.0,1,45896.1237407459,50.57314235291938,2.6542119661278845,161.7143363976147,45896.1237407459,40,2.6542119661278845,161.7143363976147,,,,,,,,,,,
1.5835881233215332,28.141509597255006,-1276.307177183365,1475.9673367234482,0.10471239894935816,0.004746609947286813,0.052552784878196396,7.939338684082031e-05,0.05035472636081238,28.141509597255006,-1276.307177183365,1256.6135027857651,0.052552784878196396,-0.028141509597255004,1.276307177183365,0.02403266327655183,3.0110527751795875,0.0,0.0,1.5,0.0,1,46587.88751404686,50.29936735816822,-0.18864445695040222,156.1517398319696,46587.88751404686,40,-0.18864445695040222,156.1517398319696,13.828125,-10.2890625,0.0718994140625,-0.03289794921875,1.025390625,0.0281219482421875,-0.0435791015625,0.48095703125,1410.0,0.0,0.0
1.5860304832458496,27.745518062717235,-1276.077657220525,1475.721478785546,0.10945273758945581,0.0033546619514903627,0.051186291708976255,7.295608520507812e-05,0.05008494631080561,28.141509597255006,-1276.307177183365,1256.6135027857651,0.052552784878196396,-0.027745518062717234,1.276077657220525,0.024278521214454032,2.9327584838498173,0.0,0.0,1.5,0.0,1,48090.08842252541,48.327253323802935,1.8966338409578707,-7.122567844715178,48090.08842252541,40,1.8966338409578707,-7.122567844715178,,,,,,,,,,,
1.5879874229431152,27.337099141506698,-1275.9424598299413,1475.5609379689738,0.1093898893894377,0.0045559005652073175,0.05296755208929835,5.364418029785156e-05,0.04987206874266024,28.141509597255006,-1276.307177183365,1256.6135027857651,0.052552784878196396,-0.0273370991415067,1.2759424598299414,0.024439062031026196,3.034817185856141,0.0,0.0,1.5,0.0,1,47792.05415898977,49.05074501422023,3.188205788553188,124.42344150495902,47792.05415898977,40,3.188205788553188,124.42344150495902,,,,,,,,,,,
1.5935158729553223,27.01668632110729,-1275.8294161375263,1475.3771757256452,0.10435421699862005,0.005957364190383011,0.052033147060269444,6.628036499023438e-05,0.04935978715706209,27.01668632110729,-1275.8294161375263,1272.070887839836,0.052033147060269444,-0.02701668632110729,1.2758294161375263,0.024622824274354797,2.9812797213369855,0.0,0.0,1.5,0.0,1,47117.92921383321,50.51827197855944,-0.11704896527579733,30.549467900580286,47117.92921383321,40,-0.11704896527579733,30.549467900580286,16.671875,-14.5859375,0.06915283203125,-0.0241851806640625,1.0185546875,0.0209197998046875,-0.032440185546875,0.421142578125,1410.0,0.0,0.0
1.595869779586792,26.73482436285152,-1275.7573357815854,1475.1533987042608,0.10336069747165279,0.007558723719480196,0.05107409022846936,7.176399230957031e-05,0.04920452829323089,27.01668632110729,-1275.8294161375263,1272.070887839836,0.052033147060269444,-0.02673482436285152,1.2757573357815855,0.02484660129573922,2.9263298125616526,0.0,0.0,1.5,0.0,1,48322.004890530865,50.08740394675966,2.371322388903293,7.030484268396975,48322.004890530865,40,2.371322388903293,7.030484268396975,,,,,,,,,,,
1.5978193283081055,26.51510878015356,-1275.7151124328802,1474.9822626353243,0.10200690813655798,0.008013637577454212,0.05075011192160126,8.034706115722656e-05,0.049091251563081674,27.01668632110729,-1275.8294161375263,1272.070887839836,0.052033147060269444,-0.026515108780153562,1.2757151124328803,0.025017737364675666,2.9077672229243166,0.0,0.0,1.5,0.0,1,48151.95915938621,50.367696836010076,2.416355349751748,29.3412710929962,48151.95915938621,40,2.416355349751748,29.3412710929962,,,,,,,,,,,
1.6044180393218994,26.308353661100455,-1275.7714370922295,1474.8707517086552,0.10895640157691186,0.015645875964074286,0.05774802603661018,8.797645568847656e-05,0.0488565915083222,26.308353661100455,-1275.7714370922295,1285.961656087755,0.05774802603661018,-0.026308353661100455,1.2757714370922295,0.025129248291344764,3.308718167109354,0.0,0.0,1.5,0.0,1,46978.49241408751,51.23265290552291,1.0926856607314563,139.14692664072902,46978.49241408751,40,1.0926856607314563,139.14692664072902,14.6484375,-12.84375,0.07537841796875,0.0005102157592773438,1.0078125,0.0110931396484375,-0.03021240234375,0.38720703125,1410.0,0.0,0.0
1.6075518131256104,26.143320769914105,-1275.8155784697105,1474.8038456944198,0.10853005125536658,0.015212288187525791,0.056527537063638764,6.699562072753906e-05,0.04883115945778474,26.308353661100455,-1275.7714370922295,1285.961656087755,0.05774802603661018,-0.026143320769914106,1.2758155784697105,0.025196154305580195,3.2387893000158354,0.0,0.0,1.5,0.0,1,47119.504109262365,51.342627092241344,2.61094328999772,13.670365889007478,47119.504109262365,40,2.61094328999772,13.670365889007478,,,,,,,,,,,
1.6140468120574951,25.982988510110083,-1275.8964826380866,1474.817602556077,0.10673517017579054,0.016476320168641197,0.05406316967740446,6.651878356933594e-05,0.048943557737791916,26.308353661100455,-1275.7714370922295,1285.961656087755,0.05774802603661018,-0.02598298851011008,1.2758964826380865,0.025182397443923036,3.097591449614924,0.0,0.0,1.5,0.0,1,46651.568360709934,51.30146720758101,2.6902649426399856,13.836697869323324,46651.568360709934,40,2.6902649426399856,13.836697869323324,,,,,,,,,,,
1.6159017086029053,25.805791737106283,-1275.9886408915609,1474.8343097028703,0.10483440241108713,0.019370501295528003,0.05179690175936238,5.6743621826171875e-05,0.04901478393117907,26.308353661100455,-1275.7714370922295,1285.961656087755,0.05774802603661018,-0.025805791737106284,1.2759886408915608,0.025165690297129686,2.9677438626652126,0.0,0.0,1.5,0.0,1,46727.912567112406,52.16572290784428,5.303592419186807,-60.94864712073483,46727.912567112406,40,5.303592419186807,-60.94864712073483,,,,,,,,,,,
1.618431806564331,25.60809449049864,-1276.1336968599046,1474.9101301482465,0.10671641318229858,0.020826033387967957,0.04978261689253291,5.459785461425781e-05,0.04913850768087973,25.60809449049864,-1276.1336968599046,1298.4326881785778,0.04978261689253291,-0.02560809449049864,1.2761336968599046,0.02508986985175352,2.852333841058813,0.0,0.0,1.5,0.0,1,46379.92820965842,52.31358034488463,5.033918584115919,-22.435245046986054,46379.92820965842,40,5.033918584115919,-22.435245046986054,13.453125,-6.984375,0.091064453125,0.0198974609375,0.9912109375,-0.006595611572265625,-0.0284881591796875,0.397216796875,1410.0,0.0,0.0
1.623155117034912,25.342372833734515,-1276.2671412094141,1475.0610227726659,0.10321737728314713,0.01988148558803891,0.048339113963111684,7.462501525878906e-05,0.04938411214051341,25.60809449049864,-1276.1336968599046,1298.4326881785778,0.04978261689253291,-0.025342372833734514,1.2762671412094142,0.024938977227334135,2.7696272154882062,0.0,0.0,1.5,0.0,1,46164.77877652702,51.66409717918291,4.806265325072243,14.657357352048837,46164.77877652702,40,4.806265325072243,14.657357352048837,,,,,,,,,,,
1.6250598430633545,25.061408929087754,-1276.408798218802,1475.2519039433341,0.1006247407945106,0.019012240562903817,0.04787250848178156,6.246566772460938e-05,0.04948901526137658,25.60809449049864,-1276.1336968599046,1298.4326881785778,0.04978261689253291,-0.025061408929087755,1.2764087982188022,0.02474809605666587,2.7428926907103195,0.0,0.0,1.5,0.0,1,45131.81326808845,52.73878051401005,7.305998658254783,19.986272584430367,45131.81326808845,40,7.305998658254783,19.986272584430367,,,,,,,,,,,
1.6269810199737549,24.785965684031762,-1276.540075223647,1475.4811525821187,0.10004476963034767,0.01787511648052508,0.04761681760822799,6.198883056640625e-05,0.04959166132649197,25.60809449049864,-1276.1336968599046,1298.4326881785778,0.04978261689253291,-0.024785965684031762,1.2765400752236469,0.02451884741788126,2.728242682795687,0.0,0.0,1.5,0.0,1,44731.90232380388,52.58649998684965,7.13243575497561,29.466849664612432,44731.90232380388,40,7.13243575497561,29.466849664612432,,,,,,,,,,,
1.6295323371887207,24.563621849209376,-1276.6966369587215,1475.8292200680169,0.10441830966282643,0.014891902470305158,0.048137973276388336,5.412101745605469e-05,0.049723670321383785,24.563621849209376,-1276.6966369587215,1309.3115069572348,0.048137973276388336,-0.024563621849209377,1.2766966369587214,0.024170779931983133,2.758102703050595,0.0,0.0,1.5,0.0,1,44444.07151884029,52.421197337306154,5.441849553289393,58.16901940778179,44444.07151884029,40,5.441849553289393,58.16901940778179,8.7421875,-2.384765625,0.09521484375,0.02325439453125,1.001953125,0.0044097900390625,-0.03009033203125,0.413818359375,1407.0,0.0,0.0
1.6328091621398926,24.339499409836357,-1276.8937839625364,1476.2756175090738,0.10494334361433073,0.008493923745362317,0.04577921366627049,8.702278137207031e-05,0.04985855289759292,24.563621849209376,-1276.6966369587215,1309.3115069572348,0.048137973276388336,-0.024339499409836356,1.2768937839625365,0.023724382490926246,2.622955732504919,0.0,0.0,1.5,0.0,1,44245.85557862305,52.54222177769384,4.903409767587361,-24.643564277433498,44245.85557862305,40,4.903409767587361,-24.643564277433498,,,,,,,,,,,
1.6368849277496338,24.190617066463044,-1277.1737377405063,1476.6894974772329,0.10791338347962964,0.009853914224435933,0.0493358697561224,6.914138793945312e-05,0.04998946667399111,24.563621849209376,-1276.6966369587215,1309.3115069572348,0.048137973276388336,-0.024190617066463044,1.2771737377405064,0.02331050252276714,2.8267371156329353,0.0,0.0,1.5,0.0,1,45007.02507524113,52.7736570060686,3.688820761367134,117.35905518918628,45007.02507524113,40,3.688820761367134,117.35905518918628,,,,,,,,,,,
1.6390655040740967,24.18114184148708,-1277.5216692387824,1476.8894203326158,0.11176542413970612,0.00853777894950135,0.0517178429309199,5.817413330078125e-05,0.050038992519792345,24.563621849209376,-1276.6966369587215,1309.3115069572348,0.048137973276388336,-0.024181141841487078,1.2775216692387823,0.02311057966738417,2.9632141254622097,0.0,0.0,1.5,0.0,1,45661.07711613677,55.212634859274296,2.6680108722155946,138.65921718722694,45661.07711613677,40,2.6680108722155946,138.65921718722694,,,,,,,,,,,
1.6455461978912354,24.188111779686576,-1277.8244684140577,1477.0261894939995,0.10815707617825382,0.0036673560145498467,0.04586101620379196,6.008148193359375e-05,0.05012042819674947,24.563621849209376,-1276.6966369587215,1309.3115069572348,0.048137973276388336,-0.024188111779686577,1.2778244684140576,0.022973810506000517,2.62764267265836,0.0,0.0,1.5,0.0,1,46410.24476971462,52.29951724271188,2.044826497384888,-38.28992487779106,46410.24476971462,40,2.044826497384888,-38.28992487779106,,,,,,,,,,,
1.647411584854126,24.348529731697457,-1278.0619995523953,1476.80367574165,0.10942627161444789,0.0058514743176532,0.04576425002457458,4.9591064453125e-05,0.05012694114680216,24.563621849209376,-1276.6966369587215,1309.3115069572348,0.048137973276388336,-0.024348529731697457,1.2780619995523952,0.023196324258349933,2.6220983789895973,0.0,0.0,1.5,0.0,1,49560.0673819999,54.531690122153506,-0.3681967323360438,34.860038732132935,49560.0673819999,40,-0.3681967323360438,34.860038732132935,,,,,,,,,,,
1.6548097133636475,24.58413299585991,-1278.429088449264,1476.630366373462,0.10501048480010984,0.007674126458643911,0.043693349790122946,5.555152893066406e-05,0.05005812272540164,24.58413299585991,-1278.429088449264,1319.11965941152,0.043693349790122946,-0.02458413299585991,1.2784290884492642,0.02336963362653796,2.503444535762866,0.0,0.0,1.5,0.0,1,47266.99829314795,52.41326939590886,0.5441626445520278,14.370429211119962,47266.99829314795,40,0.5441626445520278,14.370429211119962,3.271484375,-2.841796875,0.0985107421875,0.0183258056640625,1.0078125,0.0120849609375,-0.0296173095703125,0.431640625,1407.0,0.0,0.0
1.657170057296753,24.765883549954342,-1278.658531698671,1476.3300616638205,0.09245190561785382,0.012484939397395515,0.04028166133222088,7.62939453125e-05,0.05000943534497232,24.58413299585991,-1278.429088449264,1319.11965941152,0.043693349790122946,-0.02476588354995434,1.278658531698671,0.023669938336179485,2.3079691861115816,0.0,0.0,1.5,0.0,1,49923.68378820546,54.100950773498376,-1.3042741095579113,-104.80054625953038,49923.68378820546,40,-1.3042741095579113,-104.80054625953038,,,,,,,,,,,
1.6589860916137695,25.006644248197066,-1278.8973822696757,1476.0094313348477,0.09157047122407246,0.015500712327684815,0.03849732010087566,4.7206878662109375e-05,0.04995469676535739,24.58413299585991,-1278.429088449264,1319.11965941152,0.043693349790122946,-0.025006644248197065,1.2788973822696756,0.023990568665152295,2.205733964344324,0.0,0.0,1.5,0.0,1,50803.80367046883,54.80878332171472,-2.7780212795230685,-52.583729399904975,50803.80367046883,40,-2.7780212795230685,-52.583729399904975,,,,,,,,,,,
1.6634883880615234,25.197121201134756,-1279.0963278467248,1475.7862982087902,0.09503384437451338,0.018361678045791325,0.03970577330651689,6.341934204101562e-05,0.0497461739579152,25.197121201134756,-1279.0963278467248,1327.8992210917866,0.03970577330651689,-0.025197121201134758,1.2790963278467247,0.024213701791209814,2.2749732327666212,0.0,0.0,1.5,0.0,1,47769.173724924294,52.36277866212923,-0.9670523948799121,56.50518885067899,47769.173724924294,40,-0.9670523948799121,56.50518885067899,0.37060546875,-1.3935546875,0.09710693359375,0.007221221923828125,0.998046875,0.00275421142578125,-0.0285186767578125,0.422119140625,1407.0,0.0,0.0
1.6661334037780762,25.3362079101848,-1279.2622797105578,1475.6729296731914,0.09748635549860633,0.01810568708196651,0.04072566830052981,6.818771362304688e-05,0.04958867586213928,25.197121201134756,-1279.0963278467248,1327.8992210917866,0.03970577330651689,-0.025336207910184802,1.2792622797105577,0.02432707032680855,2.333408911470082,0.0,0.0,1.5,0.0,1,47847.703496610746,52.99589746837261,-1.8919940903342922,69.68139981609053,47847.703496610746,40,-1.8919940903342922,69.68139981609053,,,,,,,,,,,
1.6686177253723145,25.409085002052052,-1279.4527672360746,1475.6165750736336,0.09860343299148441,0.01788286490272108,0.04046981714345193,5.6743621826171875e-05,0.04939522750469203,25.409085002052052,-1279.4527672360746,1336.3978877083396,0.04046981714345193,-0.02540908500205205,1.2794527672360745,0.024383424926366387,2.318749719985981,0.0,0.0,1.5,0.0,1,47448.39059402271,53.18588327372578,-1.6096396310786711,26.28726364674163,47448.39059402271,40,-1.6096396310786711,26.28726364674163,-3.05078125,1.783203125,0.09423828125,-0.00023055076599121094,0.994140625,-0.0027923583984375,-0.0136260986328125,0.445556640625,1413.0,0.0,0.0
1.6728270053863525,29.41034099902728,-1260.4514887656012,1468.0094515874223,0.13113067263431044,-0.004564772772662385,0.05154939600555236,9.34600830078125e-05,0.04903990454037191,25.409085002052052,-1279.4527672360746,1336.3978877083396,0.04046981714345193,-0.02941034099902728,1.260451488765601,0.03199054841257771,2.9535628275666945,0.0,0.0,1.5,0.0,1,93005.82287746952,-68.44603739300373,-32.785573695353946,276.2102322501817,65535,-40,-32.785573695353946,276.2102322501817,,,,,,,,,,,
1.674665927886963,29.55259662296247,-1260.097950734885,1467.809878629616,0.13427406568512099,-0.007290035091480724,0.04944870871218576,5.316734313964844e-05,0.04886886696141491,25.409085002052052,-1279.4527672360746,1336.3978877083396,0.04046981714345193,-0.02955259662296247,1.260097950734885,0.03219012137038408,2.8332023115800284,0.0,0.0,1.5,0.0,1,47912.999422770954,45.546861723985785,-4.062452465259563,-56.50090511809017,47912.999422770954,40,-4.062452465259563,-56.50090511809017,,,,,,,,,,,
1.6765000820159912,29.702008166244248,-1259.7484760430318,1467.5166855941884,0.12954001448976082,-0.006633929747893932,0.0480554254428212,5.5789947509765625e-05,0.048697142368034234,25.409085002052052,-1279.4527672360746,1336.3978877083396,0.04046981714345193,-0.02970200816624425,1.2597484760430318,0.0324833144058116,2.75337306057925,0.0,0.0,1.5,0.0,1,48864.533016270994,45.6238612009002,-4.154880402158667,-23.942612740876612,48864.533016270994,40,-4.154880402158667,-23.942612740876612,,,,,,,,,,,
1.6783676147460938,29.83899123637351,-1259.5220888556992,1467.2189878828478,0.13470816633165675,-0.0025614816565466218,0.04849448772926281,4.887580871582031e-05,0.04852590086890811,25.409085002052052,-1279.4527672360746,1336.3978877083396,0.04046981714345193,-0.02983899123637351,1.2595220888556993,0.03278101211715216,2.7785294765357182,0.0,0.0,1.5,0.0,1,49184.92544117189,47.40291300018609,-3.801514952994899,61.85520937238795,49184.92544117189,40,-3.801514952994899,61.85520937238795,,,,,,,,,,,
1.6832785606384277,29.92302278240376,-1259.2809892039747,1466.905555755663,0.14137773684578486,0.006116739186988537,0.05271274862631158,0.00014019012451171875,0.04810662886715767,29.92302278240376,-1259.2809892039747,1344.0248737018796,0.05271274862631158,-0.02992302278240376,1.2592809892039747,0.033094444244336954,3.0202180228216817,0.0,0.0,1.5,0.0,1,47713.87835284682,49.215040205763,-1.9933483947160389,117.2966823333343,47713.87835284682,40,-1.9933483947160389,117.2966823333343,-5.54296875,4.4765625,0.09027099609375,-0.004547119140625,1.0068359375,0.00843048095703125,-0.0139312744140625,0.40576171875,1413.0,0.0,0.0
1.685971736907959,30.10690255042724,-1258.9123468113248,1466.4256405845333,0.14853245614405103,-0.006399583936147444,0.04510028747421572,7.486343383789062e-05,0.04792334421944937,29.92302278240376,-1259.2809892039747,1344.0248737018796,0.05271274862631158,-0.03010690255042724,1.2589123468113248,0.03357435941546669,2.5840561270992923,0.0,0.0,1.5,0.0,1,49585.3304950881,46.79040754460871,-3.1451099186566434,-214.82878713093794,49585.3304950881,40,-3.1451099186566434,-214.82878713093794,,,,,,,,,,,
1.6878061294555664,30.09680128201614,-1258.7577269145622,1466.3825871577608,0.1264777800545122,0.002974242903997012,0.041844657493746766,5.2928924560546875e-05,0.04780846141888236,29.92302278240376,-1259.2809892039747,1344.0248737018796,0.05271274862631158,-0.030096801282016142,1.2587577269145622,0.03361741284223922,2.3975222695621627,0.0,0.0,1.5,0.0,1,46813.6402381167,48.18555725597516,-0.8260641704927836,-117.96811522271645,46813.6402381167,40,-0.8260641704927836,-117.96811522271645,,,,,,,,,,,
1.6951839923858643,30.185197059520227,-1258.4477483822898,1466.1274615445159,0.12599486576334984,0.00291804723996987,0.03927013910411783,6.341934204101562e-05,0.047378514894381975,30.185197059520227,-1258.4477483822898,1350.9036630406724,0.03927013910411783,-0.030185197059520226,1.2584477483822898,0.033872538455484116,2.2500132315576074,0.0,0.0,1.5,0.0,1,47217.31051488131,49.34579506127066,-1.0073178687567539,4.883153706559913,47217.31051488131,40,-1.0073178687567539,4.883153706559913,-7.51171875,3.134765625,0.088134765625,-0.00626373291015625,1.015625,0.0181427001953125,-0.0138702392578125,0.3544921875,1413.0,0.0,0.0
1.6973018646240234,30.365615637062266,-1258.3543251454348,1466.086338798752,0.1330952265066942,-0.00014566210752628447,0.036152215783986925,6.937980651855469e-05,0.047279000739469126,30.185197059520227,-1258.4477483822898,1350.9036630406724,0.03927013910411783,-0.030365615637062266,1.2583543251454348,0.03391366120124803,2.0713693844686896,0.0,0.0,1.5,0.0,1,46998.40785728991,49.18350477859425,-3.1951791927434616,-113.99010761069997,46998.40785728991,40,-3.1951791927434616,-113.99010761069997,,,,,,,,,,,
1.6991643905639648,30.455568296706396,-1258.1069752021635,1465.9546238822456,0.13312223196760756,0.001953329359839352,0.03496533488834356,5.078315734863281e-05,0.04717288746974288,30.185197059520227,-1258.4477483822898,1350.9036630406724,0.03927013910411783,-0.030455568296706394,1.2581069752021636,0.03404537611775436,2.0033661183636173,0.0,0.0,1.5,0.0,1,47496.90592680536,46.95001936968957,-2.154631837895276,-25.225936720198625,47496.90592680536,40,-2.154631837895276,-25.225936720198625,,,,,,,,,,,
1.7040369510650635,30.580793382455557,-1257.7564780987848,1465.6163719374615,0.13757369745658893,0.007401916491118458,0.0375177288809205,6.4849853515625e-05,0.04683298134245784,30.580793382455557,-1257.7564780987848,1357.0967346325983,0.0375177288809205,-0.030580793382455555,1.2577564780987849,0.034383628062538495,2.149607521792822,0.0,0.0,1.5,0.0,1,47733.21609039867,48.57425565414325,-1.8231187170315215,76.06538140438755,47733.21609039867,40,-1.8231187170315215,76.06538140438755,-9.1640625,0.5771484375,0.09136962890625,-0.007049560546875,1.0048828125,0.009429931640625,-0.012542724609375,0.29248046875,1413.0,0.0,0.0
1.7065768241882324,30.68912154762099,-1257.544763369739,1465.4039711409343,0.13893029609861549,0.008435482106130536,0.037150931400594084,6.961822509765625e-05,0.04663654273019936,30.580793382455557,-1257.7564780987848,1357.0967346325983,0.0375177288809205,-0.03068912154762099,1.257544763369739,0.03459602885906565,2.1285915742340853,0.0,0.0,1.5,0.0,1,48042.72396655626,48.14933022956543,-2.7979436993608733,18.921405894465664,48042.72396655626,40,-2.7979436993608733,18.921405894465664,,,,,,,,,,,
1.709057331085205,30.808891601615464,-1257.4520313928745,1465.311315971954,0.13859472130911665,0.008476309302353331,0.03733321621965838,5.364418029785156e-05,0.04640241722383242,30.808891601615464,-1257.4520313928745,1362.675370739032,0.03733321621965838,-0.030808891601615464,1.2574520313928745,0.034688684028046056,2.139035725035775,0.0,0.0,1.5,0.0,1,47335.34291231566,49.4911584414237,-3.105337375169613,38.144449220506374,47335.34291231566,40,-3.105337375169613,38.144449220506374,-11.5703125,1.9296875,0.0965576171875,-0.00724029541015625,0.9814453125,-0.01296234130859375,-0.0014410018920898438,0.25146484375,1413.0,0.0,0.0
1.7132232189178467,30.798570534432546,-1257.2599858623657,1465.1747875202714,0.1361576901136079,0.011950167293600166,0.038100112612875436,6.937980651855469e-05,0.04599252822702581,30.808891601615464,-1257.4520313928745,1362.675370739032,0.03733321621965838,-0.030798570534432548,1.2572599858623656,0.03482521247972863,2.182975651690918,0.0,0.0,1.5,0.0,1,47221.892559510125,49.13419874651465,-2.208519487970154,48.9718075385745,47221.892559510125,40,-2.208519487970154,48.9718075385745,,,,,,,,,,,
1.7150437831878662,30.806756514720185,-1257.1377114447364,1465.0113671520664,0.13525132216158856,0.0128808562477948,0.038225389929354384,5.173683166503906e-05,0.04579458824726071,30.808891601615464,-1257.4520313928745,1362.675370739032,0.03733321621965838,-0.030806756514720184,1.2571377114447364,0.03498863284793356,2.190153513193886,0.0,0.0,1.5,0.0,1,48197.84120947232,48.61261566514846,-2.7142288467134392,38.8202159819069,48197.84120947232,40,-2.7142288467134392,38.8202159819069,,,,,,,,,,,
1.7168622016906738,30.70507825592828,-1257.0493898539955,1464.9651084079476,0.1299187013271038,0.014287421707245476,0.03648062699123244,5.340576171875e-05,0.045588322643682976,30.808891601615464,-1257.4520313928745,1362.675370739032,0.03733321621965838,-0.030705078255928282,1.2570493898539956,0.03503489159205242,2.0901859605886535,0.0,0.0,1.5,0.0,1,47051.16714023159,49.038477163521215,-1.244614127068607,-50.98016760694533,47051.16714023159,40,-1.244614127068607,-50.98016760694533,,,,,,,,,,,
1.718794345855713,30.691451266435116,-1256.8868791093582,1464.8223585667745,0.12937625903906363,0.014750245232936743,0.036179382622141626,0.0001442432403564453,0.045362786990407765,30.808891601615464,-1257.4520313928745,1362.675370739032,0.03733321621965838,-0.030691451266435115,1.2568868791093581,0.03517764143322552,2.0729259296376688,0.0,0.0,1.5,0.0,1,47810.03080817789,48.1629499292866,-2.6852583752923618,17.667735966479164,47810.03080817789,40,-2.6852583752923618,17.667735966479164,,,,,,,,,,,
1.7241308689117432,30.64315617430715,-1256.7968872503095,1464.7139646497878,0.13490671954482655,0.01777325678908361,0.03858345855046221,6.29425048828125e-05,0.04467631908087937,30.64315617430715,-1256.7968872503095,1367.6108491074938,0.03858345855046221,-0.03064315617430715,1.2567968872503095,0.03528603535021216,2.2106693339594337,0.0,0.0,1.5,0.0,1,47124.650060049506,49.93360118895528,-2.7573790389405017,69.8309340336211,47124.650060049506,40,-2.7573790389405017,69.8309340336211,-12.171875,4.1484375,0.105224609375,-0.00528717041015625,0.9599609375,-0.034820556640625,-0.001766204833984375,0.17822265625,1413.0,0.0,0.0
1.7262465953826904,30.549725949561488,-1256.648990050968,1464.59320750431,0.13026501787564065,0.013605753015200788,0.03498484237642677,7.271766662597656e-05,0.04444443314329031,30.64315617430715,-1256.7968872503095,1367.6108491074938,0.03858345855046221,-0.030549725949561488,1.256648990050968,0.03540679249569007,2.004483815099687,0.0,0.0,1.5,0.0,1,47664.29629413653,48.204221489338764,-1.8845883407473805,-138.3355883847298,47664.29629413653,40,-1.8845883407473805,-138.3355883847298,,,,,,,,,,,
1.7288589477539062,30.442049474624575,-1256.600929615383,1464.5929501662604,0.12419200103290431,0.014605062838859482,0.03306644723170562,0.000125885009765625,0.044112523004026336,30.64315617430715,-1256.7968872503095,1367.6108491074938,0.03858345855046221,-0.030442049474624575,1.2566009296153828,0.03540704983373962,1.8945678698687765,0.0,0.0,1.5,0.0,1,46743.39832255714,49.824289892316834,-2.1193939948014675,-35.04801399296346,46743.39832255714,40,-2.1193939948014675,-35.04801399296346,,,,,,,,,,,
1.7342274188995361,30.430940889771325,-1256.4490583620761,1464.4597828028882,0.13038115681304147,0.0115513484127485,0.03333268274453598,7.104873657226562e-05,0.043389139519409405,30.430940889771325,-1256.4490583620761,1372.052514404925,0.03333268274453598,-0.030430940889771326,1.2564490583620762,0.03554021719711181,1.9098220411104572,0.0,0.0,1.5,0.0,1,47173.58140826126,49.6280089213755,-3.3098867453200933,32.8044365329481,47173.58140826126,40,-3.3098867453200933,32.8044365329481,-12.4921875,9.0859375,0.11273193359375,-0.004749298095703125,0.95751953125,-0.03912353515625,-0.0084075927734375,0.0219879150390625,1413.0,0.0,0.0
1.736989974975586,30.332282844789155,-1256.40556494513,1464.4625615503223,0.12528180982612003,0.012959685064518375,0.031529375014442244,7.414817810058594e-05,0.04302868042385899,30.430940889771325,-1256.4490583620761,1372.052514404925,0.03333268274453598,-0.030332282844789154,1.25640556494513,0.03553743844967767,1.8065001190127696,0.0,0.0,1.5,0.0,1,46739.824747295,49.87734516841702,-2.5560749558256086,-31.570849001182896,46739.824747295,40,-2.5560749558256086,-31.570849001182896,,,,,,,,,,,
1.7388825416564941,30.304336842733022,-1256.2794817493402,1464.2985175876415,0.13194544832927563,0.009876074743829441,0.03217918393021259,5.173683166503906e-05,0.04276606219812418,30.430940889771325,-1256.4490583620761,1372.052514404925,0.03333268274453598,-0.030304336842733023,1.2562794817493401,0.03570148241235847,1.8437314273763823,0.0,0.0,1.5,0.0,1,48165.006959312675,48.57952015442642,-3.329048855670983,57.46118052021451,48165.006959312675,40,-3.329048855670983,57.46118052021451,,,,,,,,,,,
1.7437758445739746,30.240763677141107,-1256.183781976427,1464.186380408196,0.13941019496870716,0.011848273139516396,0.03229136363745352,6.437301635742188e-05,0.04204024338241568,30.240763677141107,-1256.183781976427,1376.0410170893517,0.03229136363745352,-0.030240763677141107,1.256183781976427,0.0358136195918039,1.8501588511483007,0.0,0.0,1.5,0.0,1,47188.27275292714,49.83190591215576,-3.502517019811076,29.668868731887006,47188.27275292714,40,-3.502517019811076,29.668868731887006,-13.078125,12.4140625,0.10711669921875,-0.0031414031982421875,0.97509765625,-0.0234222412109375,-0.0084075927734375,0.0219879150390625,1413.0,0.0,0.0
1.7463164329528809,30.230511592630602,-1256.0399123397383,1464.0002310965479,0.13767671779268895,0.010052776134535233,0.03263099433291556,7.605552673339844e-05,0.041679809760636594,30.240763677141107,-1256.183781976427,1376.0410170893517,0.03229136363745352,-0.030230511592630602,1.2560399123397383,0.03599976890345215,1.8696182565913686,0.0,0.0,1.5,0.0,1,48022.10994875566,48.78765539800259,-3.9281289009475016,40.09190159254522,48022.10994875566,40,-3.9281289009475016,40.09190159254522,,,,,,,,,,,
1.7488017082214355,30.09084139006329,-1255.965448560607,1463.9596787723624,0.12597427101113337,0.009291652226929684,0.030154377963149667,5.245208740234375e-05,0.04128771178550633,30.09084139006329,-1255.965448560607,1379.6785782825366,0.030154377963149667,-0.03009084139006329,1.255965448560607,0.0360403212276376,1.7277185911307718,0.0,0.0,1.5,0.0,1,47004.57609328053,49.527195694684515,-2.7029409874655546,-56.25223785278668,47004.57609328053,40,-2.7029409874655546,-56.25223785278668,-14.234375,12.1640625,0.1041259765625,-0.00925445556640625,0.99853515625,9.21487808227539e-05,-0.0130767822265625,-0.1630859375,1413.0,0.0,0.0
1.7556207180023193,30.019838826551936,-1255.7767001944674,1463.74586433142,0.13292042947943897,0.004762664938558966,0.030980913503464998,0.002744436264038086,0.04025456224081628,30.09084139006329,-1255.965448560607,1379.6785782825366,0.030154377963149667,-0.030019838826551935,1.2557767001944673,0.03625413566857992,1.7750755892084054,0.0,0.0,1.5,0.0,1,47340.31337823618,49.58181169545208,-3.958636451479644,37.20617253339672,47340.31337823618,40,-3.958636451479644,37.20617253339672,,,,,,,,,,,
1.7654247283935547,29.894341951358257,-1255.5435993043416,1463.5012014968404,0.13432814140349872,0.0009279383637973245,0.03175500894631085,0.008382081985473633,0.0386232376134509,29.894341951358257,-1255.5435993043416,1381.9471952440272,0.03175500894631085,-0.029894341951358257,1.2555435993043416,0.0364987985031596,1.8194279910237832,0.0,0.0,1.5,0.0,1,47213.009379091476,49.72412666827933,-4.006734783447206,33.58179823586553,47213.009379091476,40,-4.006734783447206,33.58179823586553,-12.3828125,6.66796875,0.108642578125,-0.01306915283203125,1.0029296875,0.007335662841796875,-0.025360107421875,-0.1802978515625,1404.0,0.0,0.0
1.7760264873504639,29.77514164238997,-1255.1769216536657,1463.193210288444,0.129842901242725,-0.0008829522808576885,0.0265943030498189,0.008363008499145508,0.03713780263040897,29.77514164238997,-1255.1769216536657,1384.0260824610514,0.0265943030498189,-0.02977514164238997,1.2551769216536657,0.03680678971155589,1.5237413238465165,0.0,0.0,1.5,0.0,1,47290.735692164344,49.31659303107028,-3.9229568615710697,-21.704090363927655,47290.735692164344,40,-3.9229568615710697,-21.704090363927655,-10.59375,5.828125,0.10394287109375,-0.0138397216796875,0.98779296875,-0.0075836181640625,-0.0250244140625,-0.369384765625,1404.0,0.0,0.0
1.7853388786315918,29.721148076892742,-1255.0477945103196,1462.9646333799037,0.13809763221358973,-0.0023359047635966032,0.03123956327970543,0.007673740386962891,0.0358182784407598,29.721148076892742,-1255.0477945103196,1385.9244428358352,0.03123956327970543,-0.02972114807689274,1.2550477945103196,0.03703536662009628,1.7898951297589851,0.0,0.0,1.5,0.0,1,47290.121941829595,49.90564376455143,-3.8776808572218258,69.71824156826997,47290.121941829595,40,-3.8776808572218258,69.71824156826997,-8.609375,8.7734375,0.09808349609375,-0.0102081298828125,0.97705078125,-0.0187835693359375,-0.0250244140625,-0.369384765625,1404.0,0.0,0.0
1.7953569889068604,29.600789839597397,-1254.7991700475575,1462.6617430872634,0.13563229417093894,0.0018146495927217276,0.029971106173052483,0.008448600769042969,0.034517484681205884,29.600789839597397,-1254.7991700475575,1387.4591105568452,0.029971106173052483,-0.029600789839597397,1.2547991700475576,0.037338256912736595,1.7172178910543956,0.0,0.0,1.5,0.0,1,47341.22564990834,49.596066491227155,-3.3984869713402177,14.878202465862998,47341.22564990834,40,-3.3984869713402177,14.878202465862998,-4.51953125,7.91015625,0.0968017578125,0.0018138885498046875,0.9716796875,-0.0256500244140625,-0.0289459228515625,-0.50830078125,1404.0,0.0,0.0
1.8055970668792725,29.411571110297025,-1254.5717650437812,1462.448995761066,0.13352517848266376,0.003043679785385615,0.02877139806322061,0.008013725280761719,0.03337599534817105,29.411571110297025,-1254.5717650437812,1389.7161351027146,0.02877139806322061,-0.029411571110297026,1.254571765043781,0.037551004238933955,1.6484796797134118,0.0,0.0,1.5,0.0,1,47167.76703868125,49.64509797952906,-2.6415660062219053,14.7731503545075,47167.76703868125,40,-2.6415660062219053,14.7731503545075,-0.5205078125,8.5390625,0.09136962890625,0.0011997222900390625,0.9775390625,-0.0208740234375,-0.0157623291015625,-0.525390625,1412.0,0.0,0.0
1.8161849975585938,29.28665921659823,-1254.3681955072198,1462.2179839104676,0.1283509580475323,0.003496578142502008,0.02607414879697456,0.008255481719970703,0.032405024910726804,29.28665921659823,-1254.3681955072198,1391.6958232978873,0.02607414879697456,-0.029286659216598232,1.2543681955072197,0.03778201608953236,1.4939386804627552,0.0,0.0,1.5,0.0,1,47211.34192447125,49.6994292440173,-2.2785549591365624,0.25826467448726476,47211.34192447125,40,-2.2785549591365624,0.25826467448726476,3.353515625,6.15234375,0.08673095703125,-0.0129852294921875,0.9794921875,-0.0181732177734375,-0.0185089111328125,-0.58251953125,1412.0,0.0,0.0
1.8259027004241943,29.126647109246043,-1254.1861821582156,1462.03572884737,0.12294603495653618,0.0022976627461979756,0.0239547485830037,0.007539033889770508,0.03155755212531643,29.126647109246043,-1254.1861821582156,1393.5079960303783,0.0239547485830037,-0.029126647109246045,1.2541861821582156,0.03796427115263009,1.3725059931031012,0.0,0.0,1.5,0.0,1,47153.878444637674,49.70366086888427,-2.0133230555078963,1.8472261345571717,47153.878444637674,40,-2.0133230555078963,1.8472261345571717,5.93359375,2.857421875,0.090087890625,-0.02154541015625,0.97265625,-0.0241851806640625,-0.0204925537109375,-0.62353515625,1412.0,0.0,0.0
1.8364741802215576,28.99654735251585,-1253.9821488040009,1461.783633325202,0.11990437182060758,0.003229713971992802,0.02430529580578974,0.008362531661987305,0.030492807279586132,28.99654735251585,-1253.9821488040009,1395.238970951215,0.02430529580578974,-0.02899654735251585,1.2539821488040008,0.03821636667479811,1.3925908694887736,0.0,0.0,1.5,0.0,1,47228.21335703831,49.725056203415434,-2.368537011003177,23.507028052399093,47228.21335703831,40,-2.368537011003177,23.507028052399093,6.8515625,3.537109375,0.100341796875,-0.0203857421875,0.96142578125,-0.0352783203125,-0.0226593017578125,-0.6572265625,1412.0,0.0,0.0
1.8455173969268799,28.879671400457767,-1253.7539469476965,1461.3669522082678,0.11824006153963319,0.006480099377011326,0.02356030592767564,0.00652766227722168,0.029687511262181103,28.879671400457767,-1253.7539469476965,1395.8113327545268,0.02356030592767564,-0.028879671400457767,1.2537539469476964,0.038633047791732225,1.34990609369287,0.0,0.0,1.5,0.0,1,47741.963067573866,49.442318293318294,-2.5525454653582793,12.350079970399138,47741.963067573866,40,-2.5525454653582793,12.350079970399138,5.60546875,5.41015625,0.11004638671875,-0.01885986328125,0.958984375,-0.03857421875,-0.028533935546875,-0.6748046875,1406.0,0.0,0.0
1.8556396961212158,28.731352998185596,-1253.3787410807972,1460.919255759985,0.11654544497381401,0.006980202828564353,0.023971946926581313,0.007884025573730469,0.028672828989945123,28.731352998185596,-1253.3787410807972,1396.600895069369,0.023971946926581313,-0.028731352998185595,1.2533787410807973,0.039080744240015064,1.3734913856047144,0.0,0.0,1.5,0.0,1,47575.58910900302,49.193518059694725,-2.6261244322615274,24.096761946243973,47575.58910900302,40,-2.6261244322615274,24.096761946243973,1.314453125,7.203125,0.11474609375,-0.0202178955078125,0.966796875,-0.031341552734375,-0.032379150390625,-0.69482421875,1406.0,0.0,0.0
1.8657011985778809,28.514010448914444,-1252.922748940065,1460.4455610543998,0.1153163797514436,0.005512541920079627,0.021791300459439465,0.00809335708618164,0.027702626275613613,28.514010448914444,-1252.922748940065,1397.1684950670572,0.021791300459439465,-0.028514010448914443,1.252922748940065,0.039554438945600165,1.248549546427373,0.0,0.0,1.5,0.0,1,47596.520371698214,48.95236795152813,-2.3664712825504775,0.10152620526537603,47596.520371698214,40,-2.3664712825504775,0.10152620526537603,-2.400390625,7.140625,0.11993408203125,-0.022613525390625,0.974609375,-0.02301025390625,-0.035919189453125,-0.73583984375,1406.0,0.0,0.0
1.8757636547088623,28.371476175965842,-1252.516326031294,1460.041561290222,0.12377018244570256,0.0038623429853839055,0.024705128809736313,0.008086442947387695,0.026789261549330173,28.371476175965842,-1252.516326031294,1397.7446611643818,0.024705128809736313,-0.028371476175965842,1.2525163260312941,0.039958438709777964,1.4154996131249498,0.0,0.0,1.5,0.0,1,47459.27160678124,49.144612122951195,-2.2143865464734716,44.25708918634945,47459.27160678124,40,-2.2143865464734716,44.25708918634945,-5.1953125,6.59765625,0.1173095703125,-0.0172119140625,0.9755859375,-0.021331787109375,-0.038543701171875,-0.80078125,1406.0,0.0,0.0
1.885920524597168,28.30411820279894,-1252.0166222495457,1459.5015008030173,0.1276061435754932,0.00027780142172504507,0.022614001131904628,0.0077741146087646484,0.026008539177638654,28.30411820279894,-1252.0166222495457,1398.2507824887966,0.022614001131904628,-0.02830411820279894,1.2520166222495457,0.04049849919698272,1.2956868227622016,0.0,0.0,1.5,0.0,1,47782.57150697257,48.70879495036958,-2.400326179304211,0.19450037077538695,47782.57150697257,40,-2.400326179304211,0.19450037077538695,-6.5859375,8.1484375,0.1151123046875,-0.0128173828125,0.97265625,-0.0242919921875,-0.040740966796875,-0.88818359375,1405.0,0.0,0.0
