time,x_pos,y_pos,z_pos,x_rot,y_rot,z_rot,delta_time,z_filtered,x_pos_est,y_pos_est,z_pos_est,z_rot_est,x_error,y_error,z_error,yaw_error,x_setpoint,y_setpoint,z_setpoint,yaw_setpoint,vicon_available,thrust_cal,pitch_cal,roll_cal,yaw_cal,thrust_lim,pitch_lim,roll_lim,yaw_lim,gyro_x,gyro_y,acc_x,acc_y,acc_z,stateEstimate_az,stateEstimate_vz,stateEstimate_yaw,range_zrange,motion_deltaX,motion_deltaY
1.4163708686828613,22.271172502842738,-1636.8194301302462,851.6297873302462,-0.0876611027915159,-0.12360374027315664,0.156503565613808,0.0001392364501953125,0.14337518360007626,22.271172502842738,-1636.8194301302462,-68.57787766251099,0.156503565613808,-0.02227117250284274,1.6368194301302463,0.6483702126697538,8.966993788419956,0.0,0.0,1.5,0.0,1,-10380800.670129444,22073.35755071563,2871.7403910306944,7103.676849027344,10000,40,40,360,-22.3125,-4.328125,-0.1485595703125,0.06512451171875,0.984375,-0.00931549072265625,-0.0374755859375,14.0,832.0,5.0,-3.0
1.4193191528320312,22.339547213231896,-1636.7464360543945,851.7018525437546,-0.08216613445568792,-0.12526358014545824,0.15755159474011604,0.0001995563507080078,0.14371815252247924,22.271172502842738,-1636.8194301302462,-68.57787766251099,0.156503565613808,-0.022339547213231895,1.6367464360543944,0.6482981474562454,9.02704143416419,0.0,0.0,1.5,0.0,1,71027.04952472528,62.81002215312851,15.97588539142054,189.65420294604064,65535,40,15.97588539142054,189.65420294604064,,,,,,,,,,,
1.4211091995239258,22.42844829011432,-1636.782494774798,852.0280326430163,-0.08178982720711206,-0.12826342447565287,0.15571997577656427,5.53131103515625e-05,0.14408040761138305,22.271172502842738,-1636.8194301302462,-68.57787766251099,0.156503565613808,-0.02242844829011432,1.636782494774798,0.6479719673569837,8.922097397876547,0.0,0.0,1.5,0.0,1,68816.34107661637,64.50355116981781,15.91095552871904,45.17149228732262,65535,40,15.91095552871904,45.17149228732262,,,,,,,,,,,
1.4276316165924072,22.271911436405457,-1636.709497907922,851.9110246201711,-0.07999465249953422,-0.12570005026755218,0.15621790556191867,6.985664367675781e-05,0.14540589920003225,22.271172502842738,-1636.8194301302462,-68.57787766251099,0.156503565613808,-0.022271911436405455,1.636709497907922,0.6480889753798289,8.95062667307121,0.0,0.0,1.5,0.0,1,72646.70251639874,63.40014273943556,17.741389345349056,140.81087214042006,65535,40,17.741389345349056,140.81087214042006,,,,,,,,,,,
1.4295027256011963,22.243793485203508,-1636.7106308775212,851.9457392996839,-0.07687664652844431,-0.1256107756118401,0.15697195974683728,5.3882598876953125e-05,0.14578180904084387,22.271172502842738,-1636.8194301302462,-68.57787766251099,0.156503565613808,-0.022243793485203507,1.6367106308775212,0.6480542607003161,8.993830795391222,0.0,0.0,1.5,0.0,1,72012.13176178109,63.73009651089425,17.549134810302743,169.76918241246122,65535,40,17.549134810302743,169.76918241246122,,,,,,,,,,,
1.43202543258667,22.242817736542143,-1636.7070501734995,851.961291905539,-0.06976071250433945,-0.12744782880791264,0.15904411528065265,5.030632019042969e-05,0.1463105895528031,22.242817736542143,-1636.7070501734995,19.137464048711102,0.15904411528065265,-0.022242817736542145,1.6367070501734995,0.648038708094461,9.112556561973522,0.0,0.0,1.5,0.0,1,72235.22653953556,63.73935979680902,17.09696659222817,203.96367370374557,65535,40,17.09696659222817,203.96367370374557,-15.875,-10.40625,-0.1412353515625,0.0950927734375,0.95458984375,-0.0343017578125,-0.038330078125,13.96875,829.0,2.0,10.0
1.4370510578155518,22.139431673373892,-1636.757314882426,851.9511753744956,-0.07426853142514059,-0.12557659677448554,0.15750257080393068,6.461143493652344e-05,0.14727914328276548,22.242817736542143,-1636.7070501734995,19.137464048711102,0.15904411528065265,-0.022139431673373892,1.6367573148824262,0.6480488246255044,9.02423256952565,0.0,0.0,1.5,0.0,1,72534.08703176322,63.96016479395739,17.624744752811516,108.40411962040653,65535,40,17.624744752811516,108.40411962040653,,,,,,,,,,,
1.4406390190124512,21.994149101210496,-1636.8057969647218,852.0296341895549,-0.07788038914437252,-0.12564437763634145,0.15560166041197332,6.628036499023438e-05,0.14797697168067261,22.242817736542143,-1636.7070501734995,19.137464048711102,0.15904411528065265,-0.021994149101210496,1.6368057969647218,0.6479703658104451,8.915318426833934,0.0,0.0,1.5,0.0,1,72094.7817424389,63.97699356370541,18.02755164794766,88.45235228974005,65535,40,18.02755164794766,88.45235228974005,,,,,,,,,,,
1.4425673484802246,21.86853462363626,-1636.8484296409479,852.2225910202369,-0.07659129756598267,-0.12611478299505308,0.15469079475758135,7.05718994140625e-05,0.14833851397747003,22.242817736542143,-1636.7070501734995,19.137464048711102,0.15904411528065265,-0.021868534623636263,1.6368484296409478,0.6477774089797631,8.863129669133851,0.0,0.0,1.5,0.0,1,70580.35097723624,64.11885553000998,18.63573334601837,91.6874234531004,65535,40,18.63573334601837,91.6874234531004,,,,,,,,,,,
1.4479777812957764,21.76286664998242,-1636.9329189168443,852.3153357890887,-0.08508240464488619,-0.1238307271275876,0.15219385655698547,5.745887756347656e-05,0.14933640882990315,21.76286664998242,-1636.9329189168443,98.40772315081568,0.15219385655698547,-0.02176286664998242,1.6369329189168442,0.6476846642109112,8.720065648534717,0.0,0.0,1.5,0.0,1,72159.78998116653,64.16030010193319,16.997445402749744,92.20899438447387,65535,40,16.997445402749744,92.20899438447387,-13.4140625,-8.6171875,-0.129150390625,0.092041015625,0.921875,-0.06829833984375,-0.042572021484375,13.8671875,829.0,0.0,-10.0
1.4509553909301758,22.006238986130196,-1636.9806594506358,852.5046732759673,-0.06737279459362348,-0.13263887325511184,0.15571984830801042,6.604194641113281e-05,0.14981459648869214,21.76286664998242,-1636.9329189168443,98.40772315081568,0.15219385655698547,-0.022006238986130196,1.6369806594506358,0.6474953267240326,8.922090094466391,0.0,0.0,1.5,0.0,1,71075.8930518007,64.6701997460422,13.857994519152275,240.38969418221242,65535,40,13.857994519152275,240.38969418221242,,,,,,,,,,,
1.4552085399627686,21.944997269901837,-1637.0768621072702,852.4409656141594,-0.048835892021777225,-0.13362843716854547,0.15947846906887533,8.058547973632812e-05,0.15046794182903445,21.76286664998242,-1636.9329189168443,98.40772315081568,0.15219385655698547,-0.021944997269901838,1.6370768621072702,0.6475590343858406,9.1374432008542,0.0,0.0,1.5,0.0,1,72835.965853226,64.50850067956614,15.8953377788573,213.14456542645968,65535,40,15.8953377788573,213.14456542645968,,,,,,,,,,,
1.458616018295288,21.605056582392233,-1636.9902125696703,852.670990995519,-0.0483685127826606,-0.13551270118936506,0.15689194652776406,6.198883056640625e-05,0.15114412319740655,21.605056582392233,-1636.9902125696703,170.31832031699793,0.15689194652776406,-0.021605056582392233,1.6369902125696703,0.647329009004481,8.989246375633071,0.0,0.0,1.5,0.0,1,71156.70160544557,63.30729889020554,16.65950398427668,88.74546816670764,65535,40,16.65950398427668,88.74546816670764,-14.046875,-1.69921875,-0.10986328125,0.07086181640625,0.9169921875,-0.07904052734375,-0.049774169921875,13.71875,829.0,6.0,-10.0
1.4614894390106201,21.593169692208672,-1636.9872860092007,852.9045419223554,-0.06241081147370585,-0.12737279045030378,0.1540229318403537,6.890296936035156e-05,0.15133831156862756,21.605056582392233,-1636.9902125696703,170.31832031699793,0.15689194652776406,-0.02159316969220867,1.6369872860092007,0.6470954580776446,8.824863942683413,0.0,0.0,1.5,0.0,1,68964.30595880187,63.99446300758464,14.862885979830907,-37.64263252105482,65535,40,14.862885979830907,-37.64263252105482,,,,,,,,,,,
1.465500831604004,21.54755494291122,-1636.8838353025483,853.0795910238502,-0.0652708924959026,-0.1256195377236277,0.15177471605200163,0.0002124309539794922,0.15184373176818308,21.605056582392233,-1636.9902125696703,170.31832031699793,0.15689194652776406,-0.021547554942911218,1.6368838353025483,0.6469204089761498,8.696050666576161,0.0,0.0,1.5,0.0,1,71087.05491642262,63.41153864994847,14.528780909277012,82.50091623380209,65535,40,14.528780909277012,82.50091623380209,,,,,,,,,,,
1.4686813354492188,21.868784814645732,-1636.8798529877026,852.6852333679507,0.0017982841738849644,-0.14776662970422466,0.15975509215135184,6.389617919921875e-05,0.15228003472231844,21.868784814645732,-1636.8798529877026,235.11624764262575,0.15975509215135184,-0.02186878481464573,1.6368798529877027,0.6473147666320493,9.153292535996004,0.0,0.0,1.5,0.0,1,74238.53389354948,64.48457105569128,11.697745106430757,313.5904226528022,65535,40,11.697745106430757,313.5904226528022,-14.5859375,3.654296875,-0.09130859375,0.056182861328125,0.94677734375,-0.053863525390625,-0.056976318359375,13.5546875,829.0,2.0,0.0
1.4708900451660156,21.35115998731659,-1636.5423415304876,853.6317946050282,-0.012461537323175164,-0.08680041265903098,0.1485782332866065,6.961822509765625e-05,0.15244179763179141,21.868784814645732,-1636.8798529877026,235.11624764262575,0.15975509215135184,-0.021351159987316588,1.6365423415304876,0.6463682053949719,8.512905694832714,0.0,0.0,1.5,0.0,1,57851.23737960811,57.233300636614494,21.336761159307244,-515.9111484685357,57851.23737960811,40,21.336761159307244,-360,,,,,,,,,,,
1.475351095199585,21.445362114439483,-1636.5236163865682,853.7442698040671,-0.05150863178157168,-0.1283539663856773,0.1482041580831516,0.0001068115234375,0.15285646881130133,21.868784814645732,-1636.8798529877026,235.11624764262575,0.15975509215135184,-0.021445362114439485,1.6365236163865682,0.6462557301959329,8.491472764454251,0.0,0.0,1.5,0.0,1,71621.95389244321,64.27147148212326,12.37101367496161,120.39401558049812,65535,40,12.37101367496161,120.39401558049812,,,,,,,,,,,
1.4786443710327148,21.377214910045826,-1636.473181216232,853.847656870147,-0.04246705674642728,-0.12895181004544626,0.14958499642731582,6.413459777832031e-05,0.1531106021051211,21.377214910045826,-1636.473181216232,293.48910273690086,0.14958499642731582,-0.021377214910045825,1.636473181216232,0.6461523431298529,8.570588973764695,0.0,0.0,1.5,0.0,1,71364.36592038898,63.89345836889336,12.85095318178617,164.5030972988048,65535,40,12.85095318178617,164.5030972988048,-13.609375,4.65234375,-0.08819580078125,0.057159423828125,0.9990234375,-0.00266265869140625,-0.060577392578125,13.390625,829.0,1.0,1.0
1.4815928936004639,21.142754730945335,-1636.3075705550573,854.3647473801843,-0.0678846535281607,-0.12071612320633876,0.14140180889872384,6.651878356933594e-05,0.15326518202894657,21.377214910045826,-1636.473181216232,293.48910273690086,0.14958499642731582,-0.021142754730945335,1.6363075705550574,0.6456352526198157,8.101726865412283,0.0,0.0,1.5,0.0,1,67821.49828670622,62.62869006415627,13.409312496817616,-130.2086357426959,65535,40,13.409312496817616,-130.2086357426959,,,,,,,,,,,
1.4858124256134033,21.031984664114326,-1636.080928924811,854.8239876711058,-0.10921454550086807,-0.10837644201355477,0.13374755187481055,9.989738464355469e-05,0.15338833360085039,21.377214910045826,-1636.473181216232,293.48910273690086,0.14958499642731582,-0.021031984664114326,1.6360809289248108,0.6451760123288942,7.663170242633686,0.0,0.0,1.5,0.0,1,69360.91179834705,63.14577395234,10.857672706070815,-40.90195470438002,65535,40,10.857672706070815,-40.90195470438002,,,,,,,,,,,
1.4892194271087646,20.61122785141591,-1635.71220467035,855.6767594807618,-0.08571952028536832,-0.0680742224136915,0.12044063968173521,6.389617919921875e-05,0.15335038998223222,20.61122785141591,-1635.71220467035,345.35690683995807,0.12044063968173521,-0.020611227851415913,1.63571220467035,0.6443232405192382,6.900740335619294,0.0,0.0,1.5,0.0,1,66504.1948358701,61.860914667298914,11.254525960830817,-202.6998246219593,65535,40,11.254525960830817,-202.6998246219593,-9.9765625,3.98828125,-0.0802001953125,0.056365966796875,1.0576171875,0.05517578125,-0.06805419921875,13.2265625,822.0,0.0,-5.0
1.4920895099639893,20.560051067998963,-1635.3674879088683,855.2968187471124,-0.07364943236657188,-0.11609577265919951,0.14043163846223805,6.628036499023438e-05,0.15322325019049693,20.61122785141591,-1635.71220467035,345.35690683995807,0.12044063968173521,-0.020560051067998963,1.6353674879088682,0.6447031812528876,8.046140193993283,0.0,0.0,1.5,0.0,1,73691.1055588492,61.50897367610547,7.042873770868344,797.2066364591092,65535,40,7.042873770868344,360,,,,,,,,,,,
1.4968986511230469,20.23667432204875,-1635.1713469268886,856.2717904296642,-0.043604961552729235,-0.07333882339260878,0.12679314122344676,6.67572021484375e-05,0.15272830160514483,20.23667432204875,-1635.1713469268886,392.3852051322251,0.12679314122344676,-0.02023667432204875,1.6351713469268887,0.6437282095703358,7.2647118633097145,0.0,0.0,1.5,0.0,1,67692.10774611596,64.08715060444173,6.463343634074624,-127.75514830464557,65535,40,6.463343634074624,-127.75514830464557,-6.30859375,1.2666015625,-0.07464599609375,0.061676025390625,1.103515625,0.10284423828125,-0.060821533203125,13.0546875,822.0,3.0,0.0
1.4998209476470947,20.12795678310256,-1634.9868272955966,856.680545878113,-0.04007767931912092,-0.07406284360590011,0.13109385604008678,6.794929504394531e-05,0.15231532423416672,20.23667432204875,-1635.1713469268886,392.3852051322251,0.12679314122344676,-0.02012795678310256,1.6349868272955967,0.6433194541218871,7.511124671192567,0.0,0.0,1.5,0.0,1,68491.83792819016,63.78697475839286,3.6187933244930237,245.59110385262824,65535,40,3.6187933244930237,245.59110385262824,,,,,,,,,,,
1.5017101764678955,20.11584068905501,-1634.7120334546248,856.9955621732481,-0.021354560114218463,-0.08157945864224658,0.13704865326399573,5.0067901611328125e-05,0.15198636380251418,20.23667432204875,-1635.1713469268886,392.3852051322251,0.12679314122344676,-0.02011584068905501,1.6347120334546248,0.6430044378267519,7.85230941997877,0.0,0.0,1.5,0.0,1,67382.67136108859,62.00300992694036,1.2995990078685917,391.05629436899403,65535,40,1.2995990078685917,360,,,,,,,,,,,
1.5069959163665771,19.928751310045303,-1634.4459477613223,857.5108369417704,-0.015153057087200883,-0.08031102306212987,0.13809452788040708,6.389617919921875e-05,0.15087471389551974,19.928751310045303,-1634.4459477613223,434.64768363618924,0.13809452788040708,-0.019928751310045303,1.6344459477613222,0.6424891630582296,7.912233621399003,0.0,0.0,1.5,0.0,1,69770.11035243752,64.56710102040775,1.1014209590675996,135.26413923041127,65535,40,1.1014209590675996,135.26413923041127,-4.421875,-4.6015625,-0.107177734375,0.07452392578125,1.1201171875,0.124267578125,-0.0498046875,12.8828125,822.0,0.0,-4.0
1.509822130203247,19.8406065378488,-1634.1866314881129,858.028992053025,-0.022718504443695803,-0.08085319795727426,0.13812197106284813,6.914138793945312e-05,0.15025021072810246,19.928751310045303,-1634.4459477613223,434.64768363618924,0.13809452788040708,-0.0198406065378488,1.6341866314881128,0.6419710079469749,7.913805999929283,0.0,0.0,1.5,0.0,1,67426.6412262397,63.51432162570351,-0.23844038956191582,119.57752997593913,65535,40,-0.23844038956191582,119.57752997593913,,,,,,,,,,,
1.5121879577636719,19.73783151334862,-1633.9146114868802,858.5070905156232,-0.027585672044405637,-0.08220463963216541,0.13809666883659857,6.0558319091796875e-05,0.14966002406523696,19.73783151334862,-1633.9146114868802,473.06986328823854,0.13809666883659857,-0.01973783151334862,1.63391461148688,0.6414929094843768,7.912356289152899,0.0,0.0,1.5,0.0,1,67238.68366860188,63.14913640714951,-0.43082270584618776,117.80682463373458,65535,40,-0.43082270584618776,117.80682463373458,-3.732421875,-7.921875,-0.1375732421875,0.0679931640625,1.115234375,0.1214599609375,-0.037628173828125,12.703125,822.0,0.0,-2.0
1.5163843631744385,19.600941269541455,-1633.5300053113708,859.1453236408566,-0.02512179481087003,-0.08712131023871221,0.13987519817529306,9.512901306152344e-05,0.14866479467931598,19.73783151334862,-1633.9146114868802,473.06986328823854,0.13809666883659857,-0.019600941269541455,1.6335300053113708,0.6408546763591434,8.014258514000286,0.0,0.0,1.5,0.0,1,68165.12406197248,63.61587822158239,-0.7239209758055907,157.1464984790256,65535,40,-0.7239209758055907,157.1464984790256,,,,,,,,,,,
1.5183947086334229,19.529335834984554,-1633.2827898073772,859.5591682745356,-0.021704797002051614,-0.08342114039634373,0.140888191467088,5.793571472167969e-05,0.1481978955192904,19.73783151334862,-1633.9146114868802,473.06986328823854,0.13809666883659857,-0.019529335834984556,1.6332827898073772,0.6404408317254644,8.0722987542952,0.0,0.0,1.5,0.0,1,66647.75400431915,62.70655458773358,-0.7792387929888136,165.90009472199833,65535,40,-0.7792387929888136,165.90009472199833,,,,,,,,,,,
1.5203516483306885,19.70635957463396,-1632.733035822937,859.4035268923413,-0.020956398852791654,-0.12820383371021998,0.1579494392251806,5.817413330078125e-05,0.1477383346403382,19.73783151334862,-1633.9146114868802,473.06986328823854,0.13809666883659857,-0.01970635957463396,1.6327330358229368,0.6405964731076587,9.049836244060943,0.0,0.0,1.5,0.0,1,71215.20702078269,59.19530391133402,-4.425938359206853,883.6660776766772,65535,40,-4.425938359206853,360,,,,,,,,,,,
1.5222697257995605,18.864105431708705,-1632.4457914344048,860.3656584999225,-0.010643176983484801,-0.08774918579330653,0.14373454443653094,5.602836608886719e-05,0.14730513133693776,19.73783151334862,-1633.9146114868802,473.06986328823854,0.13809666883659857,-0.018864105431708706,1.6324457914344048,0.6396343415000776,8.23538276644881,0.0,0.0,1.5,0.0,1,60285.74944460273,60.46797311830322,10.059588272946254,-513.7949075634322,60285.74944460273,40,10.059588272946254,-360,,,,,,,,,,,
1.5271005630493164,18.629758795638008,-1632.2453052022365,861.1357184540179,-0.038725235923256995,-0.07733810680792202,0.14360414517394626,6.079673767089844e-05,0.14629675828472563,18.629758795638008,-1632.2453052022365,507.0088563114359,0.14360414517394626,-0.018629758795638007,1.6322453052022365,0.6388642815459821,8.22791143905109,0.0,0.0,1.5,0.0,1,68464.70209153624,64.64573001564862,1.2945394397304755,121.1604189994415,65535,40,1.2945394397304755,121.1604189994415,-1.8017578125,-6.4609375,-0.1624755859375,0.037078857421875,1.1083984375,0.11456298828125,-0.03289794921875,12.53125,819.0,0.0,-2.0
1.5298142433166504,18.64638987730924,-1631.9870545302322,861.4093076370445,-0.03168234167070544,-0.08328393870690058,0.1506297721794531,6.961822509765625e-05,0.14583652333019806,18.629758795638008,-1632.2453052022365,507.0088563114359,0.14360414517394626,-0.01864638987730924,1.6319870545302322,0.6385906923629554,8.630450214899765,0.0,0.0,1.5,0.0,1,68898.10657643415,63.17264786188725,0.7587332965031086,361.88654365538036,65535,40,0.7587332965031086,360,,,,,,,,,,,
1.5321550369262695,18.060888699764654,-1631.6305875189598,862.705572625587,-0.19596975653470528,-0.09035823517733488,0.12426868658146807,5.1021575927734375e-05,0.1454469453948924,18.060888699764654,-1631.6305875189598,538.023178137487,0.12426868658146807,-0.018060888699764653,1.6316305875189598,0.637294427374413,7.120071266752126,0.0,0.0,1.5,0.0,1,59798.25819634328,60.931432593988795,7.654561457734546,-819.9087706317541,59798.25819634328,40,7.654561457734546,-360,3.51171875,-3.560546875,-0.1866455078125,0.020416259765625,1.1171875,0.1221923828125,-0.02154541015625,12.3359375,819.0,0.0,0.0
1.5366363525390625,17.951242491058967,-1631.3676218898677,862.745944623658,-0.16164312022107763,-0.09926027160017134,0.1324054297850828,0.0002243518829345703,0.14481426005841042,18.060888699764654,-1631.6305875189598,538.023178137487,0.12426868658146807,-0.017951242491058967,1.6313676218898676,0.6372540553763419,7.586272311301006,0.0,0.0,1.5,0.0,1,71058.77969845581,63.861224552754535,3.0891149561086193,272.416298661907,65535,40,3.0891149561086193,272.416298661907,,,,,,,,,,,
1.5386207103729248,18.150761141269342,-1631.3784071929565,863.0609054174716,-0.1318978456508586,-0.10665987041817092,0.13689287747011783,5.984306335449219e-05,0.14454515087533462,18.060888699764654,-1631.6305875189598,538.023178137487,0.12426868658146807,-0.01815076114126934,1.6313784071929565,0.6369390945825284,7.8433841244392655,0.0,0.0,1.5,0.0,1,68755.8568528624,65.99274866954518,0.20968326032042306,316.83899723656543,65535,40,0.20968326032042306,316.83899723656543,,,,,,,,,,,
1.5411953926086426,18.112759889721822,-1631.2125030745503,863.1629133570016,-0.11177689728707406,-0.11027987906978938,0.1457943704869011,5.626678466796875e-05,0.1441938517213574,18.060888699764654,-1631.6305875189598,538.023178137487,0.12426868658146807,-0.018112759889721823,1.6312125030745503,0.6368370866429984,8.353402105666122,0.0,0.0,1.5,0.0,1,70382.86028624664,63.730815581530976,3.0588758470033524,422.5731909418192,65535,40,3.0588758470033524,360,,,,,,,,,,,
1.5478911399841309,18.250788045100073,-1631.0975535030384,863.4406629675007,-0.09279479571932996,-0.11597534040186919,0.15041177023755217,5.5789947509765625e-05,0.14337057673750606,18.060888699764654,-1631.6305875189598,538.023178137487,0.12426868658146807,-0.018250788045100073,1.6310975535030383,0.6365593370324993,8.617959623703188,0.0,0.0,1.5,0.0,1,70826.29809819361,65.00341427283524,2.8377030508180194,188.51732032284943,65535,40,2.8377030508180194,188.51732032284943,,,,,,,,,,,
1.549738883972168,18.304979868644207,-1631.0419597479518,863.8011910671564,-0.06810322762836876,-0.12392876583349889,0.1551655676348521,5.602836608886719e-05,0.14317889352989413,18.060888699764654,-1631.6305875189598,538.023178137487,0.12426868658146807,-0.018304979868644208,1.6310419597479517,0.6361988089328435,8.890332151228748,0.0,0.0,1.5,0.0,1,67567.64102209457,64.5924990094922,3.354204593299685,354.60995612715936,65535,40,3.354204593299685,354.60995612715936,,,,,,,,,,,
1.5523922443389893,18.16962567163652,-1630.8370060829122,864.0828322846163,-0.07487102276752775,-0.12130095859820006,0.1541141967716979,5.2928924560546875e-05,0.1429424140587302,18.16962567163652,-1630.8370060829122,565.9406239287207,0.1541141967716979,-0.01816962567163652,1.6308370060829123,0.6359171677153836,8.830093038066988,0.0,0.0,1.5,0.0,1,68930.60969272131,63.0630612082851,5.969125133365965,99.85556432165117,65535,40,5.969125133365965,99.85556432165117,19.203125,-5.671875,-0.2021484375,0.054168701171875,1.1376953125,0.1458740234375,0.005046844482421875,11.796875,819.0,-2.0,-1.0
1.5566697120666504,17.907666097103416,-1630.7495946167908,864.1453172951698,-0.08263717335559145,-0.1182017010546981,0.15234392652581552,0.00012373924255371094,0.14271877647247672,18.16962567163652,-1630.8370060829122,565.9406239287207,0.1541141967716979,-0.017907666097103415,1.6307495946167907,0.6358546827048303,8.72866402438034,0.0,0.0,1.5,0.0,1,71166.41373576116,64.19834709371254,7.858101664548079,94.66810238565381,65535,40,7.858101664548079,94.66810238565381,,,,,,,,,,,
1.5587916374206543,18.001699956818605,-1630.4864692808308,864.2233139744881,-0.044556064826028884,-0.08626730082251664,0.16642735720803586,6.437301635742188e-05,0.14267184166997227,18.16962567163652,-1630.8370060829122,565.9406239287207,0.1541141967716979,-0.018001699956818606,1.6304864692808307,0.635776686025512,9.535585163536615,0.0,0.0,1.5,0.0,1,69726.51634390667,61.715848913165686,5.99657169240356,710.8347888020684,65535,40,5.99657169240356,360,,,,,,,,,,,
1.5608041286468506,18.074657362523187,-1630.4754824614738,864.2985697690982,-0.034908158006606474,-0.08614659537068503,0.1645336867196181,0.000125885009765625,0.14267219182570456,18.16962567163652,-1630.8370060829122,565.9406239287207,0.1541141967716979,-0.018074657362523186,1.6304754824614738,0.6357014302309018,9.4270858367618,0.0,0.0,1.5,0.0,1,70855.55911108259,64.6516862914766,7.607634621691613,58.534035465306744,65535,40,7.607634621691613,58.534035465306744,,,,,,,,,,,
1.566021203994751,18.26965517825841,-1630.299835518904,864.3465319796638,-0.02930386661347848,-0.08612823698920734,0.16389290482134133,5.4836273193359375e-05,0.14297572262656943,18.26965517825841,-1630.299835518904,591.2466180292073,0.16389290482134133,-0.01826965517825841,1.630299835518904,0.6356534680203362,9.390371738402159,0.0,0.0,1.5,0.0,1,71210.68833520864,63.73915317565862,9.745601463393841,131.71235736054533,65535,40,9.745601463393841,131.71235736054533,26.953125,-8.0546875,-0.194091796875,0.067138671875,1.115234375,0.1260986328125,0.0187530517578125,11.3828125,818.0,23.0,21.0
1.569183111190796,18.685071237335457,-1629.9555691602254,863.8926630313588,-0.04320249766271619,-0.13673181359011194,0.14697191013457397,0.00022363662719726562,0.1432210189587662,18.26965517825841,-1630.299835518904,591.2466180292073,0.16389290482134133,-0.018685071237335458,1.6299555691602254,0.6361073369686412,8.4208701576871,0.0,0.0,1.5,0.0,1,74053.11996165353,60.972932232206254,7.865487814624662,-487.69706812988625,65535,40,7.865487814624662,-360,,,,,,,,,,,
1.5706145763397217,18.66804958769889,-1629.560986268759,864.1157181352593,-0.05954103198000128,-0.12362199460514808,0.15523456463877436,5.030632019042969e-05,0.14339798212926894,18.26965517825841,-1630.299835518904,591.2466180292073,0.16389290482134133,-0.01866804958769889,1.629560986268759,0.6358842818647408,8.894285388352541,0.0,0.0,1.5,0.0,1,66023.58232861743,56.718806467230614,13.098372242375296,634.924820219374,65535,40,13.098372242375296,360,,,,,,,,,,,
1.5769147872924805,18.688104478150652,-1629.2484541949236,864.1371604127769,-0.06713739827010337,-0.12088387091900167,0.15400262685062668,6.079673767089844e-05,0.1443508142162983,18.26965517825841,-1630.299835518904,591.2466180292073,0.16389290482134133,-0.01868810447815065,1.6292484541949237,0.6358628395872231,8.823700552468997,0.0,0.0,1.5,0.0,1,71164.32368197145,62.49216301452473,14.7103796429688,115.5768258058872,65535,40,14.7103796429688,115.5768258058872,,,,,,,,,,,
1.5788516998291016,19.001825738791254,-1628.9959396363668,864.0174748578262,-0.05520420672371159,-0.12190965854160703,0.1543272117808322,5.936622619628906e-05,0.14468790778095225,18.26965517825841,-1630.299835518904,591.2466180292073,0.16389290482134133,-0.019001825738791254,1.6289959396363667,0.6359825251421738,8.842297899063322,0.0,0.0,1.5,0.0,1,71618.90336056071,60.86076283010194,11.294831276651633,147.0438758523221,65535,40,11.294831276651633,147.0438758523221,,,,,,,,,,,
1.5807173252105713,19.04666750192602,-1628.7091667258412,864.0077392982591,-0.05689516214474313,-0.11977340786720471,0.1520841280024488,5.125999450683594e-05,0.1450245468062773,18.26965517825841,-1630.299835518904,591.2466180292073,0.16389290482134133,-0.01904666750192602,1.6287091667258413,0.6359922607017409,8.713778665467697,0.0,0.0,1.5,0.0,1,70353.98167507493,59.72072115067971,15.012101637865769,27.860953281354227,65535,40,15.012101637865769,27.860953281354227,,,,,,,,,,,
1.582578182220459,18.424964347941952,-1628.393356782797,864.4559909649774,-0.05212852324640173,-0.07341830731241547,0.14162943244137524,4.8160552978515625e-05,0.14535929245539791,18.26965517825841,-1630.299835518904,591.2466180292073,0.16389290482134133,-0.01842496434794195,1.6283933567827968,0.6355440090350225,8.114768733724025,0.0,0.0,1.5,0.0,1,65746.4207174159,57.846893347509294,24.380317001139844,-366.4448717309674,65535,40,24.380317001139844,-360,,,,,,,,,,,
1.5873842239379883,18.43767853316019,-1628.086915444115,864.2530048008974,-0.05211947925170732,-0.07500823679868392,0.14070345562294767,5.435943603515625e-05,0.14621452022452208,18.43767853316019,-1628.086915444115,614.3099903355126,0.14070345562294767,-0.018437678533160192,1.628086915444115,0.6357469951991026,8.061714170101173,0.0,0.0,1.5,0.0,1,71938.56593810425,61.96133569112841,15.735732008184794,104.78419445913504,65535,40,15.735732008184794,104.78419445913504,32.375,-5.4375,-0.1492919921875,0.128662109375,1.0390625,0.0509033203125,0.03173828125,10.671875,818.0,-27.0,21.0
1.5902037620544434,18.47384534483323,-1627.847835228086,864.1043253343706,-0.05478853850920157,-0.07592833401400824,0.13686022874336676,6.4849853515625e-05,0.14663424542480732,18.43767853316019,-1628.086915444115,614.3099903355126,0.14070345562294767,-0.01847384534483323,1.627847835228086,0.6358956746656294,7.8415134901899535,0.0,0.0,1.5,0.0,1,71919.0763105477,61.4260449234868,14.592204437187949,-4.062224202400458,65535,40,14.592204437187949,-4.062224202400458,,,,,,,,,,,
1.5961968898773193,18.690681980496166,-1627.4702702855107,863.916973442934,-0.057803983831079174,-0.07383387304665547,0.14000950481879054,6.461143493652344e-05,0.1473293006311402,18.43767853316019,-1628.086915444115,614.3099903355126,0.14070345562294767,-0.018690681980496164,1.6274702702855106,0.636083026557066,8.02195371783326,0.0,0.0,1.5,0.0,1,71651.59084642897,62.35577812514277,12.512530581637641,165.53244954578363,65535,40,12.512530581637641,165.53244954578363,,,,,,,,,,,
1.5992794036865234,18.790984737942054,-1626.97249420056,863.611202735946,-0.0630394527160521,-0.07720079229984884,0.13462264680476038,5.817413330078125e-05,0.14758731533353656,18.790984737942054,-1626.97249420056,634.9310211434633,0.13462264680476038,-0.018790984737942055,1.6269724942005601,0.636388797264054,7.713309488793107,0.0,0.0,1.5,0.0,1,71933.568332816,60.9002137333431,10.458925994619806,-3.5548922538701646,65535,40,10.458925994619806,-3.5548922538701646,27.390625,-5.29296875,-0.1290283203125,0.161376953125,1.005859375,0.0185699462890625,0.035614013671875,10.3203125,818.0,-4.0,0.0
1.60209321975708,19.03803641005326,-1626.349860352745,863.0497299535625,-0.042131223896274446,-0.08687390923513216,0.13534654134714838,6.318092346191406e-05,0.1476581805796965,18.790984737942054,-1626.97249420056,634.9310211434633,0.13462264680476038,-0.01903803641005326,1.626349860352745,0.6369502700464375,7.754785590884493,0.0,0.0,1.5,0.0,1,74182.65934342345,56.774627544422316,5.954084689920746,147.23578355044486,65535,40,5.954084689920746,147.23578355044486,,,,,,,,,,,
1.605644941329956,19.524345147432143,-1625.7557376151892,862.592027084511,-0.020380236935145943,-0.09601741376422235,0.13656458657679163,5.841255187988281e-05,0.14767782485081768,18.790984737942054,-1626.97249420056,634.9310211434633,0.13462264680476038,-0.019524345147432145,1.6257557376151892,0.637407972915489,7.824574441799095,0.0,0.0,1.5,0.0,1,72622.40690854516,60.62781752071337,4.866740818683003,146.84652765886136,65535,40,4.866740818683003,146.84652765886136,,,,,,,,,,,
1.6093528270721436,19.135466790483164,-1625.196256639167,862.2774496107031,-0.09001432263075464,-0.11388436808745551,0.13719113227958812,6.437301635742188e-05,0.14755881914939595,19.135466790483164,-1625.196256639167,653.4403331942038,0.13719113227958812,-0.019135466790483165,1.625196256639167,0.6377225503892969,7.860472866241392,0.0,0.0,1.5,0.0,1,71829.40980789832,60.44756117722437,9.551666077987985,131.9579426793267,65535,40,9.551666077987985,131.9579426793267,23.28125,-6.1640625,-0.10906982421875,0.15576171875,0.958984375,-0.0268096923828125,0.035980224609375,10.0390625,818.0,0.0,0.0
1.6130039691925049,19.025592327364986,-1624.6226467411257,862.075258482813,-0.09735346910109768,-0.11311913750313603,0.1345858621396314,0.00010514259338378906,0.14731855459081852,19.025592327364986,-1624.6226467411257,670.0644285978594,0.1345858621396314,-0.019025592327364987,1.6246226467411256,0.637924741517187,7.711201882730414,0.0,0.0,1.5,0.0,1,71232.76357455271,60.726497463143204,6.286828471730386,56.371916052798376,65535,40,6.286828471730386,56.371916052798376,21.921875,-4.66796875,-0.0740966796875,0.1368408203125,0.90966796875,-0.0782470703125,0.0275115966796875,9.796875,819.0,0.0,0.0
1.6181926727294922,19.286953363839707,-1623.9183976710015,861.5507644876097,-0.0763062984923127,-0.11995410341375555,0.1372918706443412,0.0003170967102050781,0.14684099348350654,19.025592327364986,-1624.6226467411257,670.0644285978594,0.1345858621396314,-0.019286953363839707,1.6239183976710014,0.6384492355123903,7.866244749376793,0.0,0.0,1.5,0.0,1,72461.46609843319,61.500615593697574,2.882219317799806,164.35073680569127,65535,40,2.882219317799806,164.35073680569127,,,,,,,,,,,
1.6204240322113037,19.336712988561423,-1622.8503818035017,861.206513960581,-0.0779135969283508,-0.12114747783223483,0.13915875620338167,8.988380432128906e-05,0.14658186722332212,19.025592327364986,-1624.6226467411257,670.0644285978594,0.1345858621396314,-0.019336712988561423,1.6228503818035016,0.638793486039419,7.973209412743733,0.0,0.0,1.5,0.0,1,70447.89590890497,52.6449267907583,1.3858651983642174,192.29593455055087,65535,40,1.3858651983642174,192.29593455055087,,,,,,,,,,,
1.6281237602233887,18.90181026306549,-1621.9433909771656,860.8794188815046,-0.08371631372235,-0.12280264131429923,0.14012631443298126,9.34600830078125e-05,0.14554198125287474,18.90181026306549,-1621.9433909771656,685.0277956711216,0.14012631443298126,-0.018901810263065488,1.6219433909771657,0.6391205811184953,8.02864641573294,0.0,0.0,1.5,0.0,1,71402.14939574525,61.89418670276422,4.160968432696297,130.90638558381968,65535,40,4.160968432696297,130.90638558381968,21.59375,2.78125,-0.0279083251953125,0.11785888671875,0.88134765625,-0.11236572265625,0.0184173583984375,9.578125,819.0,0.0,0.0
1.6312508583068848,19.00522756157332,-1620.9378338864344,860.2181362923614,-0.044387257649613,-0.1386565225468386,0.14707656475573885,0.00010395050048828125,0.14513886293794337,18.90181026306549,-1621.9433909771656,685.0277956711216,0.14012631443298126,-0.019005227561573322,1.6209378338864344,0.6397818637076387,8.426866425786388,0.0,0.0,1.5,0.0,1,73014.89990483248,56.280723770681675,0.6139362660185963,331.8802104908577,65535,40,0.6139362660185963,331.8802104908577,,,,,,,,,,,
1.636697769165039,18.974145969667553,-1619.8162057687643,860.1457748979946,-0.06508095143164717,-0.13439584450463085,0.14555609831552024,9.989738464355469e-05,0.14441645595815616,18.974145969667553,-1619.8162057687643,698.405951080156,0.14555609831552024,-0.018974145969667552,1.6198162057687644,0.6398542251020054,8.339750115870581,0.0,0.0,1.5,0.0,1,70079.56020802146,59.796043891427644,2.6071176650272836,101.87610130941687,65535,40,2.6071176650272836,101.87610130941687,19.859375,12.1953125,0.0206146240234375,0.10137939453125,0.9033203125,-0.09759521484375,0.007556915283203125,9.359375,819.0,0.0,0.0
1.6394665241241455,19.09678594536166,-1618.5055443633985,859.1503774050952,-0.038796205284378237,-0.1397743287749175,0.153767354111605,0.00010585784912109375,0.14412711545109835,18.974145969667553,-1619.8162057687643,698.405951080156,0.14555609831552024,-0.01909678594536166,1.6185055443633984,0.6408496225949047,8.810220417488573,0.0,0.0,1.5,0.0,1,74630.0667272568,51.94956969859527,0.7632133600104494,404.9088538052997,65535,40,0.7632133600104494,360,,,,,,,,,,,
1.6417994499206543,18.573696333412382,-1617.4065351320135,858.9322270054714,-0.06253784085531701,-0.13227698363835205,0.14575104327460084,8.535385131835938e-05,0.1439025653768458,18.974145969667553,-1619.8162057687643,698.405951080156,0.14555609831552024,-0.01857369633341238,1.6174065351320135,0.6410677729945286,8.35091963926325,0.0,0.0,1.5,0.0,1,69235.00969239797,51.60545043841108,8.540222203334135,-172.70183100090262,65535,40,8.540222203334135,-172.70183100090262,,,,,,,,,,,
1.646982192993164,18.594134476074043,-1615.811212340219,858.3544537552768,-0.061091877581848295,-0.1384899213290039,0.14402417553402883,0.00010251998901367188,0.14352525113659773,18.974145969667553,-1619.8162057687643,698.405951080156,0.14555609831552024,-0.018594134476074043,1.615811212340219,0.6416455462447231,8.25197740595118,0.0,0.0,1.5,0.0,1,70986.77505625204,56.59238167707213,4.239841420732491,95.23027990120045,65535,40,4.239841420732491,95.23027990120045,,,,,,,,,,,
1.650066614151001,49.64712175406615,-1308.305335843051,875.9882401435993,-0.016813161734743433,0.026560454242426843,0.12215689111792086,0.00022172927856445312,0.14336011854219408,49.64712175406615,-1308.305335843051,710.3926929791585,0.12215689111792086,-0.049647121754066145,1.308305335843051,0.6240117598564007,6.999074299495998,0.0,0.0,1.5,0.0,1,-1394120.094514434,-2333.916300798842,-590.6873759275225,-470.0912012240622,10000,-40,-40,-360,16.375,17.0625,0.052886962890625,0.07379150390625,0.970703125,-0.035491943359375,-9.08970832824707e-05,9.1484375,819.0,0.0,0.0
1.6583161354064941,49.772452524255414,-1304.3645744862545,875.3683246238123,-0.04171860094255158,0.01783185480738854,0.10622120417931605,0.0001049041748046875,0.14277892339462775,49.772452524255414,-1304.3645744862545,721.1207651040894,0.10622120417931605,-0.04977245252425541,1.3043645744862544,0.6246316753761877,6.086026694272191,0.0,0.0,1.5,0.0,1,65276.95986831742,40.05812157842423,0.9553514488137198,-73.07948725247748,65276.95986831742,40,0.9553514488137198,-73.07948725247748,11.171875,12.890625,0.06695556640625,0.03790283203125,1.0380859375,0.02947998046875,-0.00859832763671875,8.9375,818.0,0.0,0.0
1.6611311435699463,50.13620017038335,-1300.4159296589867,874.2508600848331,-0.007274558913062893,0.031950720792507624,0.11700342901166347,0.00010824203491210938,0.1424902321857849,49.772452524255414,-1304.3645744862545,721.1207651040894,0.10622120417931605,-0.050136200170383345,1.3004159296589868,0.6257491399151669,6.70380267092685,0.0,0.0,1.5,0.0,1,68123.20254081131,12.94171027372063,-7.7853085954512204,463.3602114425838,65535,12.94171027372063,-7.7853085954512204,360,,,,,,,,,,,
1.668926477432251,50.26171872578053,-1296.7842737619242,874.6593312591016,-0.07143573640085747,0.02693671695117295,0.10434499364226041,0.00010180473327636719,0.14102148633862618,49.772452524255414,-1304.3645744862545,721.1207651040894,0.10622120417931605,-0.05026171872578053,1.2967842737619242,0.6253406687408984,5.978527749020929,0.0,0.0,1.5,0.0,1,63087.24695307312,40.35946293244808,-3.1600309435246405,-49.92421492403665,63087.24695307312,40,-3.1600309435246405,-49.92421492403665,,,,,,,,,,,
1.6716537475585938,50.61029384301549,-1293.04369702793,873.955047849554,-0.029647695836632595,0.014578852597079903,0.10897405496341435,8.869171142578125e-05,0.14024631224088643,50.61029384301549,-1293.04369702793,730.885827511902,0.10897405496341435,-0.05061029384301549,1.29304369702793,0.626044952150446,6.2437534258303025,0.0,0.0,1.5,0.0,1,65517.64100504778,19.65607887684644,-11.523108286726398,230.7572524774546,65517.64100504778,19.65607887684644,-11.523108286726398,230.7572524774546,-3.619140625,-1.7900390625,0.0692138671875,0.0034503936767578125,1.0888671875,0.08404541015625,0.00360107421875,8.484375,818.0,0.0,0.0
1.6763031482696533,50.580518751012875,-1289.4392307778025,873.9915774221823,-0.0552959698979926,0.018418781883359273,0.0953870054935029,0.00010514259338378906,0.138821853875086,50.61029384301549,-1293.04369702793,730.885827511902,0.10897405496341435,-0.050580518751012875,1.2894392307778026,0.6260084225778176,5.465272835168914,0.0,0.0,1.5,0.0,1,62493.1997670632,31.681312728037025,-8.241444612093924,-178.81837195596657,62493.1997670632,31.681312728037025,-8.241444612093924,-178.81837195596657,,,,,,,,,,,
1.6784803867340088,50.94297772902774,-1285.9005414182263,873.6163426948668,-0.05302058993793084,0.029667991442822058,0.0977752347622804,9.5367431640625e-05,0.13803029083536136,50.61029384301549,-1293.04369702793,730.885827511902,0.10897405496341435,-0.05094297772902774,1.2859005414182263,0.6263836573051331,5.602108292779479,0.0,0.0,1.5,0.0,1,64071.50683539733,11.064916437699054,-17.239325517162573,178.57305430567584,64071.50683539733,11.064916437699054,-17.239325517162573,178.57305430567584,,,,,,,,,,,
1.6807441711425781,51.07687295985753,-1282.6273915296927,873.7716285410493,-0.042218734923083014,0.03564387612803044,0.083994556986708,9.417533874511719e-05,0.13713760558466848,50.61029384301549,-1293.04369702793,730.885827511902,0.10897405496341435,-0.05107687295985753,1.2826273915296926,0.6262283714589507,4.81253361740945,0.0,0.0,1.5,0.0,1,59969.69930981445,15.254456681078317,-14.876863639991145,-452.87005818519833,59969.69930981445,15.254456681078317,-14.876863639991145,-360,,,,,,,,,,,
1.688084602355957,51.608601439205174,-1279.474493339836,873.8969326117095,-0.04731914141227236,0.02183526097330094,0.07649114604324474,0.0001049041748046875,0.1336808719168844,50.61029384301549,-1293.04369702793,730.885827511902,0.10897405496341435,-0.051608601439205176,1.279474493339836,0.6261030673882905,4.38261983839673,0.0,0.0,1.5,0.0,1,64500.82265069257,41.69417317567192,-14.19382682973633,-21.975828395389442,64500.82265069257,40,-14.19382682973633,-21.975828395389442,,,,,,,,,,,
1.6903562545776367,51.72971251347378,-1276.3871414322289,873.9162234845672,-0.036848728643394724,0.03999366729540645,0.07467204693190344,8.845329284667969e-05,0.13243603895486206,50.61029384301549,-1293.04369702793,730.885827511902,0.10897405496341435,-0.05172971251347378,1.276387141432229,0.6260837765154328,4.278393136800875,0.0,0.0,1.5,0.0,1,61574.09243023616,17.556340276221846,-19.650645039088506,-5.038553772923635,61574.09243023616,17.556340276221846,-19.650645039088506,-5.038553772923635,,,,,,,,,,,
1.6930453777313232,51.807764473015396,-1273.5032650996327,874.1368537676904,-0.022809278143629184,0.03680548885026779,0.06813395984815275,8.368492126464844e-05,0.13072489148383454,51.807764473015396,-1273.5032650996327,740.3221174550387,0.06813395984815275,-0.0518077644730154,1.2735032650996327,0.6258631462323097,3.903788340812964,0.0,0.0,1.5,0.0,1,61300.12594226023,26.81446261699184,-19.177521385115295,-136.6564268837401,61300.12594226023,26.81446261699184,-19.177521385115295,-136.6564268837401,-17.46875,-19.546875,0.033294677734375,-0.02044677734375,1.017578125,0.01934814453125,0.0222320556640625,8.0390625,823.0,0.0,0.0
1.697728157043457,51.88680852170995,-1270.6148695294344,874.546611542592,-0.031087992867103963,0.03439631948369813,0.057405524092491424,0.00010180473327636719,0.12774898429271472,51.807764473015396,-1273.5032650996327,740.3221174550387,0.06813395984815275,-0.05188680852170995,1.2706148695294344,0.6254533884574079,3.2890942512363237,0.0,0.0,1.5,0.0,1,62524.759605823434,36.14812588991737,-19.950668912986945,-155.22961733600374,62524.759605823434,36.14812588991737,-19.950668912986945,-155.22961733600374,,,,,,,,,,,
1.700974464416504,51.84962398139849,-1267.7626910333431,874.930455779893,-0.03203902929435195,0.03914416354887904,0.06252556659343235,0.00022554397583007812,0.12538524516211091,51.807764473015396,-1273.5032650996327,740.3221174550387,0.06813395984815275,-0.05184962398139849,1.267762691033343,0.625069544220107,3.5824510774678457,0.0,0.0,1.5,0.0,1,61252.674376974996,29.892950328254642,-22.323952847913617,189.57555062770302,61252.674376974996,29.892950328254642,-22.323952847913617,189.57555062770302,,,,,,,,,,,
1.703977346420288,51.48288411646303,-1265.0114495842738,875.043275635023,-0.04009157028902029,0.07025530394777366,0.053639571936897536,0.0001456737518310547,0.1228589298495591,51.48288411646303,-1265.0114495842738,748.6677929375943,0.053639571936897536,-0.05148288411646303,1.2650114495842737,0.6249567243649771,3.0733210868725993,0.0,0.0,1.5,0.0,1,62673.804740898806,30.21511717936791,-21.11528130881785,-188.20410690007148,62673.804740898806,30.21511717936791,-21.11528130881785,-188.20410690007148,-18.125,-23.375,0.0169219970703125,-0.006805419921875,0.9453125,-0.0496826171875,0.022186279296875,7.84375,823.0,0.0,0.0
1.706838846206665,51.26645222006361,-1262.275398242303,875.2542450528944,-0.02556624807801463,0.05913737780164644,0.04789280758233755,0.0002396106719970703,0.1206560119611128,51.48288411646303,-1265.0114495842738,748.6677929375943,0.053639571936897536,-0.05126645222006361,1.262275398242303,0.6247457549471056,2.7440557435000894,0.0,0.0,1.5,0.0,1,61632.11764760218,25.72691872149365,-24.701878876671348,-147.57444265152907,61632.11764760218,25.72691872149365,-24.701878876671348,-147.57444265152907,,,,,,,,,,,
1.7102973461151123,50.72757657664292,-1259.492831657833,875.4367000333465,-0.03960142577471138,0.05197287554368551,0.039841716360760025,0.000331878662109375,0.11763103861008466,51.48288411646303,-1265.0114495842738,748.6677929375943,0.053639571936897536,-0.05072757657664292,1.259492831657833,0.6245632999666535,2.282762196028871,0.0,0.0,1.5,0.0,1,62712.869492807826,31.222143512757807,-23.251447266763904,-166.4090134781982,62712.869492807826,31.222143512757807,-23.251447266763904,-166.4090134781982,,,,,,,,,,,
1.7155113220214844,50.355490500790204,-1256.3790993569346,875.1366595133525,-0.04814972126889672,0.07604060426778568,0.04577921500160989,8.487701416015625e-05,0.1125975196041644,50.355490500790204,-1256.3790993569346,756.0512705633362,0.04577921500160989,-0.050355490500790204,1.2563790993569346,0.6248633404866475,2.622955809014231,0.0,0.0,1.5,0.0,1,66191.42616186077,37.36980509827484,-26.66946197227997,133.70192420828232,65535,37.36980509827484,-26.66946197227997,133.70192420828232,-14.8984375,-21.203125,0.0083465576171875,0.00354766845703125,0.861328125,-0.1319580078125,0.0149383544921875,7.671875,823.0,0.0,0.0
1.7180109024047852,50.03431389572311,-1253.5559378410956,875.2922508454752,-0.034910435205652145,0.06644505940176516,0.03956122236626071,9.274482727050781e-05,0.1102749120284737,50.355490500790204,-1256.3790993569346,756.0512705633362,0.04577921500160989,-0.05003431389572311,1.2535559378410956,0.6247077491545248,2.2666910739652946,0.0,0.0,1.5,0.0,1,61868.601160790175,20.224909814164164,-29.42995498812951,-199.21406578231546,61868.601160790175,20.224909814164164,-29.42995498812951,-199.21406578231546,,,,,,,,,,,
1.7244229316711426,49.967140680626045,-1250.531578626157,875.2293316194612,-0.01602363139112811,0.04548381534481621,0.03508575787181337,8.440017700195312e-05,0.10368874593861005,50.355490500790204,-1256.3790993569346,756.0512705633362,0.04577921500160989,-0.04996714068062604,1.250531578626157,0.6247706683805389,2.010265847072811,0.0,0.0,1.5,0.0,1,66557.33987812039,39.96644308795941,-31.28651319751879,-29.924514967131582,65535,39.96644308795941,-31.28651319751879,-29.924514967131582,,,,,,,,,,,
1.7272241115570068,49.419920856422976,-1247.178803726717,875.4061259339651,-0.043176628931922895,0.07193263125192778,0.03814346252420463,0.0001800060272216797,0.10054978430296907,49.419920856422976,-1247.178803726717,762.4781681649314,0.03814346252420463,-0.04941992085642297,1.247178803726717,0.624593874066035,2.185459418652347,0.0,0.0,1.5,0.0,1,62230.89714613286,22.14707098451247,-29.61317568630434,121.6636465475459,62230.89714613286,22.14707098451247,-29.61317568630434,121.6636465475459,-7.06640625,-17.3125,0.00800323486328125,0.0179901123046875,0.77978515625,-0.2125244140625,-0.0003597736358642578,7.54296875,823.0,0.0,0.0
1.7302346229553223,49.44493390771454,-1243.9945905807137,875.4080770635221,-0.03801938495010485,0.052817920584853476,0.023471136001313488,8.678436279296875e-05,0.09748458910409717,49.419920856422976,-1247.178803726717,762.4781681649314,0.03814346252420463,-0.049444933907714546,1.2439945905807137,0.6245919229364779,1.3447970332528263,0.0,0.0,1.5,0.0,1,64232.12186105474,23.0140659779005,-34.871438809382674,-420.6507156627451,64232.12186105474,23.0140659779005,-34.871438809382674,-360,,,,,,,,,,,
1.7375075817108154,49.248863943593165,-1240.541662094253,875.9589017926743,-0.025681827039318844,0.04225832101463763,0.024518099428486827,8.511543273925781e-05,0.08943150290177272,49.248863943593165,-1240.541662094253,768.0275414556146,0.024518099428486827,-0.049248863943593166,1.240541662094253,0.6240410982073257,1.404783618934411,0.0,0.0,1.5,0.0,1,65101.70932777566,39.42004735916424,-32.83425510468237,33.13706644533074,65101.70932777566,39.42004735916424,-32.83425510468237,33.13706644533074,-0.1732177734375,-12.2578125,0.03509521484375,0.038726806640625,0.6953125,-0.296142578125,-0.02362060546875,7.4765625,823.0,0.0,0.0
1.7399508953094482,49.14176807075524,-1237.0398637311264,876.2188884923569,-0.02897497844576249,0.05228690107435024,0.021778279768934383,9.775161743164062e-05,0.08692126376189271,49.248863943593165,-1240.541662094253,768.0275414556146,0.024518099428486827,-0.04914176807075524,1.2370398637311264,0.6237811115076431,1.2478035158150858,0.0,0.0,1.5,0.0,1,61295.34060258513,11.160023722623059,-35.57655351275941,-85.04775201699701,61295.34060258513,11.160023722623059,-35.57655351275941,-85.04775201699701,,,,,,,,,,,
1.7427663803100586,49.11918589065824,-1233.2560030872885,876.198796004169,-0.05944450760695097,0.07653962688497412,0.02190645341987147,0.00019121170043945312,0.08385418387255174,49.248863943593165,-1240.541662094253,768.0275414556146,0.024518099428486827,-0.04911918589065824,1.2332560030872886,0.6238012039958309,1.255147325058564,0.0,0.0,1.5,0.0,1,63828.448721790344,15.924292970151015,-35.76597499325345,22.7614105509242,63828.448721790344,15.924292970151015,-35.76597499325345,22.7614105509242,,,,,,,,,,,
1.747342824935913,48.683625778874685,-1229.8160802152404,876.4676812599319,-0.027714784649163573,0.05730898790406353,0.006219760377837147,8.368492126464844e-05,0.07870142840970498,48.683625778874685,-1229.8160802152404,772.6646111380333,0.006219760377837147,-0.04868362577887469,1.2298160802152405,0.6235323187400682,0.3563660192327628,0.0,0.0,1.5,0.0,1,63872.14761828473,31.600805476282968,-32.103525729953496,-279.65239485971546,63872.14761828473,31.600805476282968,-32.103525729953496,-279.65239485971546,5.81640625,-2.3203125,0.0758056640625,0.045318603515625,0.62646484375,-0.368408203125,-0.056060791015625,7.49609375,822.0,0.0,0.0
1.7498512268066406,48.72384286524669,-1226.1867125229398,875.9406091536939,-0.007641136704409847,0.056294992657362666,0.006507741096530072,9.441375732421875e-05,0.07613730483396315,48.683625778874685,-1229.8160802152404,772.6646111380333,0.006219760377837147,-0.04872384286524669,1.2261867125229398,0.6240593908463061,0.3728660989950116,0.0,0.0,1.5,0.0,1,67479.33950418085,10.60990311177676,-36.36779066731496,16.060827102619932,65535,10.60990311177676,-36.36779066731496,16.060827102619932,,,,,,,,,,,
1.7562212944030762,48.63252996259449,-1222.3808002150224,875.6927371103319,-0.03637569273151642,0.07122809072151946,0.012603253015079752,8.726119995117188e-05,0.06926456858010464,48.683625778874685,-1229.8160802152404,772.6646111380333,0.006219760377837147,-0.04863252996259449,1.2223808002150225,0.6243072628896681,0.7221132058995995,0.0,0.0,1.5,0.0,1,66431.52333692141,34.50037710308852,-33.72808026315413,93.22530864112301,65535,34.50037710308852,-33.72808026315413,93.22530864112301,,,,,,,,,,,
1.7591373920440674,48.550472693243506,-1218.3245319430766,874.4660639952991,-0.03608410808586767,0.06646139664625834,0.014624103502880025,0.00018334388732910156,0.06597394123117345,48.550472693243506,-1218.3245319430766,776.3062882442944,0.014624103502880025,-0.04855047269324351,1.2183245319430767,0.6255339360047009,0.8378994098775088,0.0,0.0,1.5,0.0,1,70628.43570962503,15.407847782080367,-34.34142311768434,69.07359568850092,65535,15.407847782080367,-34.34142311768434,69.07359568850092,11.65625,15.359375,0.095947265625,0.0635986328125,0.619140625,-0.38427734375,-0.0933837890625,7.609375,822.0,0.0,0.0
1.762331485748291,48.39245048540558,-1214.249789310067,873.1113173110311,-0.021072116227434923,0.05866281814625841,0.025650021991696786,8.535385131835938e-05,0.06261237565845214,48.39245048540558,-1214.249789310067,780.4473518080163,0.025650021991696786,-0.04839245048540558,1.214249789310067,0.6268886826889688,1.4696380045419717,0.0,0.0,1.5,0.0,1,70952.6199399491,16.21598741900913,-33.04582422011157,318.83038039021017,65535,16.21598741900913,-33.04582422011157,318.83038039021017,15.6640625,41.5,0.11273193359375,0.07073974609375,0.720703125,-0.2958984375,-0.12890625,7.8046875,822.0,0.0,0.0
1.7693986892700195,48.21390285775231,-1210.2163097671657,871.6324569935405,-0.04956744333687357,0.0674235839860171,0.020772203048847387,0.0024738311767578125,0.05570042490005765,48.39245048540558,-1214.249789310067,780.4473518080163,0.025650021991696786,-0.04821390285775231,1.2102163097671657,0.6283675430064595,1.1901595658877364,0.0,0.0,1.5,0.0,1,69170.85025661808,33.97312905560386,-30.758077121235228,-42.343645530575444,65535,33.97312905560386,-30.758077121235228,-42.343645530575444,,,,,,,,,,,
1.786170482635498,48.02494745129563,-1205.8828591306938,870.119274403749,-0.05783927890205283,0.07725465833092117,0.02976796388433079,0.015242576599121094,0.042259686226716706,48.02494745129563,-1205.8828591306938,782.4505351476743,0.02976796388433079,-0.04802494745129563,1.2058828591306938,0.629880725596251,1.7055786952700145,0.0,0.0,1.5,0.0,1,67692.37015920832,41.82579865198032,-24.931333859950037,71.35853925468663,65535,40,-24.931333859950037,71.35853925468663,14.015625,56.5,0.10546875,0.103759765625,1.1884765625,0.16259765625,-0.143798828125,8.4375,821.0,0.0,0.0
1.7883048057556152,47.681699644175154,-1201.3314577310764,869.0017374159057,-0.07710389788240252,0.08456484942859654,0.03415527400720341,0.0004341602325439453,0.04103692921753866,48.02494745129563,-1205.8828591306938,782.4505351476743,0.02976796388433079,-0.04768169964417515,1.2013314577310763,0.6309982625840943,1.9569530487256384,0.0,0.0,1.5,0.0,1,71045.19252917613,-11.807754337207413,-17.28253367747399,220.081585202002,65535,-11.807754337207413,-17.28253367747399,220.081585202002,,,,,,,,,,,
1.798872709274292,47.46944245811034,-1196.7412438479573,868.4187059736084,-0.07376600152998838,0.06743989709411476,0.0381565539131507,0.009097814559936523,0.035877212142354,48.02494745129563,-1205.8828591306938,782.4505351476743,0.02976796388433079,-0.04746944245811034,1.1967412438479572,0.6315812940263915,2.186209499986921,0.0,0.0,1.5,0.0,1,65046.32183447173,36.61281558250276,-15.28558727847261,65.24649673944256,65046.32183447173,36.61281558250276,-15.28558727847261,65.24649673944256,,,,,,,,,,,
1.8092551231384277,47.1039607630073,-1192.0587494473152,867.995458460058,-0.06881066594893621,0.08653860940701137,0.04862393524742893,0.008741140365600586,0.03300341932070572,47.1039607630073,-1192.0587494473152,785.8791832443375,0.04862393524742893,-0.0471039607630073,1.1920587494473152,0.632004541539942,2.78594627299508,0.0,0.0,1.5,0.0,1,64323.085385211336,36.45903714240258,-8.03375888508292,124.50254231191991,64323.085385211336,36.45903714240258,-8.03375888508292,124.50254231191991,9.734375,14.6484375,-0.006397247314453125,0.10955810546875,1.458984375,0.46044921875,-0.07684326171875,9.203125,821.0,0.0,0.0
1.8189313411712646,46.81403272896545,-1187.3741555910053,868.0301228772101,-0.07752015416678298,0.0877369833196394,0.05488514974413617,0.007631063461303711,0.03239033613185844,47.1039607630073,-1192.0587494473152,785.8791832443375,0.04862393524742893,-0.04681403272896545,1.1873741555910053,0.6319698771227898,3.1446874382825327,0.0,0.0,1.5,0.0,1,63010.06300692067,34.18480332189913,-2.019614704816626,105.98935297929211,63010.06300692067,34.18480332189913,-2.019614704816626,105.98935297929211,,,,,,,,,,,
1.8291449546813965,46.495659624990715,-1182.8260781888819,868.1903169032205,-0.05436270632964261,0.08683068916429122,0.056500093766358055,0.00873875617980957,0.033434583850001476,46.495659624990715,-1182.8260781888819,790.1329111988009,0.056500093766358055,-0.046495659624990714,1.182826078188882,0.6318096830967795,3.237216914905728,0.0,0.0,1.5,0.0,1,63124.19984910154,35.97253417028061,3.242010918179612,61.90959381986276,63124.19984910154,35.97253417028061,3.242010918179612,61.90959381986276,20.703125,-23.6875,-0.109375,0.096435546875,1.2958984375,0.318359375,0.007312774658203125,9.859375,817.0,0.0,0.0
1.838639259338379,46.259380782714224,-1178.278114066905,868.4468061158217,-0.046487552027306714,0.08743197165164873,0.061774546214414965,0.00778961181640625,0.03560327804914939,46.495659624990715,-1182.8260781888819,790.1329111988009,0.056500093766358055,-0.04625938078271422,1.178278114066905,0.6315531938841783,3.539420779421834,0.0,0.0,1.5,0.0,1,62740.948842371006,34.494218729931234,7.199935234718148,101.74783530257332,62740.948842371006,34.494218729931234,7.199935234718148,101.74783530257332,,,,,,,,,,,
1.8480215072631836,45.87567987433618,-1173.8768892650419,868.9481478264869,-0.06319413387234533,0.09829873621466884,0.06553695418261239,0.007825374603271484,0.03863621665429201,45.87567987433618,-1173.8768892650419,793.753071725903,0.06553695418261239,-0.045875679874336175,1.173876889265042,0.6310518521735131,3.754990876805938,0.0,0.0,1.5,0.0,1,62490.24624780643,34.97628130655296,10.316053418973471,90.24467564228027,62490.24624780643,34.97628130655296,10.316053418973471,90.24467564228027,27.46875,-24.75,-0.1861572265625,0.1226806640625,0.9873046875,0.0128173828125,0.040252685546875,10.234375,817.0,0.0,0.0
1.8587584495544434,45.56530203284314,-1169.7152912813306,869.0059928922175,-0.05629607806185423,0.09835936516510072,0.0627092567588516,0.009082555770874023,0.04254589257407873,45.87567987433618,-1173.8768892650419,793.753071725903,0.06553695418261239,-0.04556530203284314,1.1697152912813307,0.6309940071077825,3.5929757486844287,0.0,0.0,1.5,0.0,1,63693.587268226445,36.56125892442007,11.777423825901346,30.937697199369875,63693.587268226445,36.56125892442007,11.777423825901346,30.937697199369875,,,,,,,,,,,
1.8688523769378662,45.22213468588125,-1165.4154978971676,868.4967012174593,-0.057332469270109,0.11632162208016159,0.07361122752336417,0.008606195449829102,0.046524629478227324,45.22213468588125,-1165.4154978971676,796.4993192976667,0.07361122752336417,-0.04522213468588125,1.1654154978971676,0.6315032987825407,4.217612661866011,0.0,0.0,1.5,0.0,1,64580.148764551755,35.641077588385805,12.546353224489515,154.73748389144026,64580.148764551755,35.641077588385805,12.546353224489515,154.73748389144026,3.83203125,-7.171875,-0.1572265625,0.09710693359375,0.8466796875,-0.1396484375,0.0253753662109375,10.390625,817.0,0.0,0.0
1.8787951469421387,44.86970617026035,-1161.3848023371454,868.6581728068589,-0.054777543441029516,0.08398894423818112,0.062125771783908414,0.008252620697021484,0.050320123001796786,44.86970617026035,-1161.3848023371454,798.6452013453024,0.062125771783908414,-0.04486970617026035,1.1613848023371454,0.631341827193141,3.5595445222108877,0.0,0.0,1.5,0.0,1,63417.95654225012,35.813160044157314,12.495940810686303,-45.78296270969258,63417.95654225012,35.813160044157314,12.495940810686303,-45.78296270969258,-12.34375,-5.46484375,-0.12176513671875,0.0401611328125,0.826171875,-0.1676025390625,0.0077667236328125,10.453125,817.0,0.0,0.0
1.889082670211792,44.51882531485853,-1157.365348108762,868.4351169327198,-0.0476793321803296,0.0832189442060797,0.0629250440519396,0.007397174835205078,0.05389206664942504,44.51882531485853,-1157.365348108762,800.428299586031,0.0629250440519396,-0.04451882531485853,1.157365348108762,0.6315648830672802,3.605339449850924,0.0,0.0,1.5,0.0,1,64086.54828234976,36.039596269613895,11.493393624531944,60.72531102655326,64086.54828234976,36.039596269613895,11.493393624531944,60.72531102655326,-28.21875,-3.296875,-0.06878662109375,0.0027332305908203125,0.81298828125,-0.186279296875,-0.009552001953125,10.484375,817.0,0.0,0.0
1.8990986347198486,44.18342124412196,-1152.9828583897256,867.7162560294602,-0.06061545422754701,0.07516761886414725,0.06514475058788127,0.008287668228149414,0.05669671125050246,44.18342124412196,-1152.9828583897256,801.7532284028252,0.06514475058788127,-0.04418342124412196,1.1529828583897257,0.6322837439705399,3.7325192661179853,0.0,0.0,1.5,0.0,1,64645.99405206903,34.537072342857876,9.548601674739654,75.13141695866457,64645.99405206903,34.537072342857876,9.548601674739654,75.13141695866457,-42.75,1.44140625,-0.008209228515625,-0.00710296630859375,0.81396484375,-0.1904296875,-0.028167724609375,10.5,817.0,0.0,0.0
1.9089548587799072,43.99540932875377,-1148.7554215062692,867.2829740130855,-0.0527849285110111,0.05275704560454742,0.05695644241895066,0.008145809173583984,0.05876184479416007,43.99540932875377,-1148.7554215062692,802.916324777764,0.05695644241895066,-0.04399540932875377,1.1487554215062692,0.6327170259869145,3.2633637666857664,0.0,0.0,1.5,0.0,1,64082.46910752443,34.69278746522155,7.0660274835353105,-22.437339031090154,64082.46910752443,34.69278746522155,7.0660274835353105,-22.437339031090154,-54.0,5.8515625,0.042633056640625,0.00485992431640625,0.84521484375,-0.1630859375,-0.045867919921875,10.4921875,817.0,0.0,0.0
