time,x_pos,y_pos,z_pos,x_rot,y_rot,z_rot,delta_time,z_filtered,x_pos_est,y_pos_est,z_pos_est,z_rot_est,x_error,y_error,z_error,yaw_error,x_setpoint,y_setpoint,z_setpoint,yaw_setpoint,vicon_available,thrust_cal,pitch_cal,roll_cal,yaw_cal,thrust_lim,pitch_lim,roll_lim,yaw_lim,gyro_x,gyro_y,acc_x,acc_y,acc_z,stateEstimate_az,stateEstimate_vz,stateEstimate_yaw,range_zrange,motion_deltaX,motion_deltaY
1.4158494472503662,-59.85759960358195,-1511.806601692561,884.3592274026114,-0.2669988699551812,-0.13650299369772376,0.0017593801636102927,0.00015354156494140625,0.0016116739877745027,-59.85759960358195,-1511.806601692561,1981.3365127640266,0.0017593801636102927,0.05985759960358195,1.5118066016925609,0.6156407725973886,0.10080505793390604,0.0,0.0,1.5,0.0,1,-18547411.13609085,36982.003363942524,1516.4846019200122,142.2600977439799,10000,40,40,142.2600977439799,0.82421875,-35.09375,-0.267333984375,0.11590576171875,1.076171875,0.1180419921875,0.294189453125,5.578125,842.0,-3.0,-7.0
1.418168306350708,-60.67219264609266,-1512.296165714447,884.0602938169168,-0.277790180534967,-0.12886698048675585,0.004372320251697206,0.00022292137145996094,0.001615935846298478,-59.85759960358195,-1511.806601692561,1981.3365127640266,0.0017593801636102927,0.06067219264609266,1.512296165714447,0.6159397061830832,0.25051549710182774,0.0,0.0,1.5,0.0,1,75990.93265237873,67.5879549952834,14.486950548132807,129.52841489285484,65535,40,14.486950548132807,129.52841489285484,,,,,,,,,,,
1.419611930847168,-60.75120796509284,-1512.8335912959856,883.4740682397305,-0.27956490490517305,-0.13866103130847748,0.0024987885698179897,5.412101745605469e-05,0.0016198122223402688,-59.85759960358195,-1511.806601692561,1981.3365127640266,0.0017593801636102927,0.06075120796509284,1.5128335912959856,0.6165259317602695,0.14317003894610186,0.0,0.0,1.5,0.0,1,81795.44084518717,70.31783022440473,4.095962271563392,-111.11074671357648,65535,40,4.095962271563392,-111.11074671357648,,,,,,,,,,,
1.4209773540496826,-61.04416909201311,-1513.3249025681544,882.8942459532564,-0.2740425818718581,-0.14728943273339762,0.0069683714055652655,5.7697296142578125e-05,0.0016243505747732313,-59.85759960358195,-1511.806601692561,1981.3365127640266,0.0017593801636102927,0.06104416909201311,1.5133249025681543,0.6171057540467436,0.399258271618535,0.0,0.0,1.5,0.0,1,82040.40922964927,69.89107511422203,8.278517123961736,288.0067014813103,65535,40,8.278517123961736,288.0067014813103,,,,,,,,,,,
1.426177740097046,-61.479436272413004,-1513.8054511299804,882.268451926829,-0.2674270057478822,-0.15627348512822564,0.018043094506765656,8.320808410644531e-05,0.0016853505413585886,-61.479436272413004,-1513.8054511299804,1885.8948590234806,0.018043094506765656,0.06147943627241301,1.5138054511299803,0.617731548073171,1.0337931645933518,0.0,0.0,1.5,0.0,1,72459.01345975844,62.797550964390766,5.057918073530553,188.46943633705024,65535,40,5.057918073530553,188.46943633705024,-1.5185546875,-35.78125,-0.25732421875,0.08819580078125,1.0341796875,0.0714111328125,0.2939453125,5.58203125,842.0,1.0,-6.0
1.4284474849700928,-61.77428045372678,-1514.27497950401,881.6563958590538,-0.26396187194348314,-0.15577702205568972,0.0226933717673716,8.344650268554688e-05,0.0017335567062919032,-61.479436272413004,-1513.8054511299804,1885.8948590234806,0.018043094506765656,0.06177428045372678,1.51427497950401,0.6183436041409462,1.3002344251917306,0.0,0.0,1.5,0.0,1,78040.3990786684,66.62701909338249,7.371331101640186,219.5158618783215,65535,40,7.371331101640186,219.5158618783215,,,,,,,,,,,
1.4349119663238525,-62.06704902505222,-1514.739934382156,881.0306794945516,-0.25473216884482336,-0.15693761227712646,0.026502485235987274,6.961822509765625e-05,0.0021158679470454586,-61.479436272413004,-1513.8054511299804,1885.8948590234806,0.018043094506765656,0.06206704902505222,1.514739934382156,0.6189693205054484,1.5184805506298464,0.0,0.0,1.5,0.0,1,72033.6599862286,62.35607305861624,6.128226102564765,73.52885843000348,65535,40,6.128226102564765,73.52885843000348,,,,,,,,,,,
1.4367940425872803,-62.283120203218125,-1515.171809107224,880.8593255080946,-0.2638000081924952,-0.15600043446252138,0.02325969859777378,5.0067901611328125e-05,0.002302293272697071,-61.479436272413004,-1513.8054511299804,1885.8948590234806,0.018043094506765656,0.06228312020321813,1.515171809107224,0.6191406744919055,1.3326825623987966,0.0,0.0,1.5,0.0,1,73718.50485989258,66.43463309824787,9.583897331670538,-129.24247800014317,65535,40,9.583897331670538,-129.24247800014317,,,,,,,,,,,
1.438603401184082,-62.48604283448082,-1515.3542008880522,880.6317398669897,-0.2663796353410901,-0.166241635353081,0.025958537662486722,5.245208740234375e-05,0.0025211870698029553,-61.479436272413004,-1513.8054511299804,1885.8948590234806,0.018043094506765656,0.06248604283448082,1.5153542008880523,0.6193682601330103,1.4873146503918826,0.0,0.0,1.5,0.0,1,73065.1964435757,63.01256584396551,10.335137894507117,150.45263042455963,65535,40,10.335137894507117,150.45263042455963,,,,,,,,,,,
1.441145420074463,-62.71612569924822,-1515.6952096555115,880.0712990438582,-0.2653101377426106,-0.18723748859310096,0.026435450806136237,5.078315734863281e-05,0.00291807287863875,-62.71612569924822,-1515.6952096555115,1799.975184246328,0.026435450806136237,0.06271612569924821,1.5156952096555114,0.6199287009561418,1.514639760717316,0.0,0.0,1.5,0.0,1,74996.0596367082,63.64127404902065,10.696321980004107,37.887650875874485,65535,40,10.696321980004107,37.887650875874485,-10.3984375,-33.6875,-0.2244873046875,0.10577392578125,0.97314453125,0.00504302978515625,0.307861328125,5.3203125,854.0,3.0,-1.0
1.445878267288208,-63.093861797245246,-1516.106861143223,879.5708412455881,-0.25844983996455567,-0.18728203298149693,0.03191200953943016,7.176399230957031e-05,0.0037835075825453416,-62.71612569924822,-1515.6952096555115,1799.975184246328,0.026435450806136237,0.06309386179724524,1.5161068611432231,0.6204291587544118,1.8284234623905702,0.0,0.0,1.5,0.0,1,72727.63470371887,62.6165533213486,12.286271334013772,129.48685716226626,65535,40,12.286271334013772,129.48685716226626,,,,,,,,,,,
1.4477980136871338,-63.35114757101039,-1516.5850174992847,879.2176455991336,-0.25419507879317615,-0.17527505198368043,0.03441057368532053,6.890296936035156e-05,0.0042079780074207535,-62.71612569924822,-1515.6952096555115,1799.975184246328,0.026435450806136237,0.06335114757101039,1.5165850174992848,0.6207823544008665,1.9715806427927978,0.0,0.0,1.5,0.0,1,76274.2549096234,66.8005907999811,15.183096516946232,143.00785341829965,65535,40,15.183096516946232,143.00785341829965,,,,,,,,,,,
1.45041823387146,-63.713083208338595,-1516.9252195329009,878.9226022209048,-0.26041081734002147,-0.17305818325861336,0.03373188170282025,6.031990051269531e-05,0.00490094576101314,-63.713083208338595,-1516.9252195329009,1715.2304760577008,0.03373188170282025,0.0637130832083386,1.5169252195329008,0.6210773977790952,1.932694456606165,0.0,0.0,1.5,0.0,1,73308.21691161711,63.37966239540394,16.104322745979974,7.963280673672816,65535,40,16.104322745979974,7.963280673672816,-17.28125,-27.03125,-0.197021484375,0.1072998046875,0.96533203125,-0.01012420654296875,0.30908203125,5.0078125,854.0,-2.0,-10.0
1.4545361995697021,-63.93660109801771,-1517.3159520610877,878.6621251317545,-0.2720340895896309,-0.17333329340210504,0.03946048418123234,6.985664367675781e-05,0.006034042734316214,-63.713083208338595,-1516.9252195329009,1715.2304760577008,0.03373188170282025,0.06393660109801771,1.5173159520610877,0.6213378748682455,2.260919201127361,0.0,0.0,1.5,0.0,1,72178.70608401357,62.6932148286128,15.597087519268985,157.33068607251315,65535,40,15.597087519268985,157.33068607251315,,,,,,,,,,,
1.4564669132232666,-64.12882418988427,-1517.6258821117501,878.4202061991193,-0.2638808070605553,-0.1805064957188369,0.04749773359536542,7.128715515136719e-05,0.006646034970705958,-63.713083208338595,-1516.9252195329009,1715.2304760577008,0.03373188170282025,0.06412882418988428,1.51762588211175,0.6215797938008807,2.72141967145118,0.0,0.0,1.5,0.0,1,74302.03158349729,64.24166251285969,18.28270065721749,403.42685790300845,65535,40,18.28270065721749,360,,,,,,,,,,,
1.458374261856079,-64.21984592919935,-1517.8368903108499,878.3018075395987,-0.2722966918504396,-0.17855543301840274,0.04530977536045148,6.842613220214844e-05,0.007291403104032641,-63.713083208338595,-1516.9252195329009,1715.2304760577008,0.03373188170282025,0.06421984592919935,1.51783689031085,0.6216981924604013,2.596058898839718,0.0,0.0,1.5,0.0,1,72393.71296070007,62.90400573981876,17.619906045684342,-59.62219887319261,65535,40,17.619906045684342,-59.62219887319261,,,,,,,,,,,
1.4603393077850342,-64.24062387880385,-1517.8495376272679,878.2955677062272,-0.2880089649772743,-0.17358694971417327,0.04438243160290583,0.00012540817260742188,0.007997654806166854,-63.713083208338595,-1516.9252195329009,1715.2304760577008,0.03373188170282025,0.06424062387880385,1.5178495376272678,0.6217044322937728,2.542926015374549,0.0,0.0,1.5,0.0,1,70191.28274746315,60.14519230859996,17.592813839911944,-2.652204286618371,65535,40,17.592813839911944,-2.652204286618371,,,,,,,,,,,
1.4655559062957764,-64.23512610982583,-1517.9409264826197,878.3357601040109,-0.2879313864353855,-0.1737744384005885,0.04134604564538975,6.008148193359375e-05,0.010322805449708618,-64.23512610982583,-1517.9409264826197,1644.0059186688177,0.04134604564538975,0.06423512610982583,1.5179409264826198,0.6216642398959891,2.368953915036089,0.0,0.0,1.5,0.0,1,70173.26564899816,60.2838247782646,18.967432218705227,-9.38823650355809,65535,40,18.967432218705227,-9.38823650355809,-24.375,-21.921875,-0.195556640625,0.10198974609375,0.97216796875,-0.005748748779296875,0.30908203125,5.0078125,854.0,0.0,-1.0
1.4686315059661865,-64.17026698708361,-1517.9188663049988,878.3767560366131,-0.27995778635487495,-0.17794355502769857,0.043336487369314586,7.009506225585938e-05,0.011422386316668283,-64.23512610982583,-1517.9409264826197,1644.0059186688177,0.04134604564538975,0.06417026698708361,1.5179188663049987,0.621623243963387,2.4829978251837255,0.0,0.0,1.5,0.0,1,69822.78089742993,59.537118102923635,19.951380651114665,105.76776775611597,65535,40,19.951380651114665,105.76776775611597,,,,,,,,,,,
1.4700517654418945,-64.04270655054603,-1517.8789385505208,878.4578446388124,-0.27887814366632246,-0.17641583487493087,0.04042614339176566,5.8650970458984375e-05,0.012059831963805409,-64.23512610982583,-1517.9409264826197,1644.0059186688177,0.04134604564538975,0.06404270655054603,1.517878938550521,0.6215421553611876,2.3162473983388554,0.0,0.0,1.5,0.0,1,68698.58871998065,58.99406212140683,18.92066361582537,-144.46759300095385,65535,40,18.92066361582537,-144.46759300095385,,,,,,,,,,,
1.4772586822509766,-63.86136161032908,-1517.69068213353,878.5728435089402,-0.2833412941924379,-0.1763458523072429,0.034305797545826695,0.00010776519775390625,0.015427111520730967,-64.23512610982583,-1517.9409264826197,1644.0059186688177,0.04134604564538975,0.06386136161032907,1.5176906821335299,0.6214271564910598,1.965577412206127,0.0,0.0,1.5,0.0,1,69766.65930777715,58.96545255621907,21.195890239354057,-43.07281555827263,65535,40,21.195890239354057,-43.07281555827263,,,,,,,,,,,
1.4791381359100342,-63.65164922521649,-1517.5095155012214,878.6279390066318,-0.2841080669425615,-0.17468119528625023,0.03007942913614689,5.125999450683594e-05,0.016311682166938655,-64.23512610982583,-1517.9409264826197,1644.0059186688177,0.04134604564538975,0.06365164922521649,1.5175095155012213,0.6213720609933682,1.7234243396640565,0.0,0.0,1.5,0.0,1,68653.42984232625,57.092195319608884,19.27519606937569,-171.00810010251223,65535,40,19.27519606937569,-171.00810010251223,,,,,,,,,,,
1.486504316329956,-63.41635014301909,-1517.3800686599716,878.7753419025123,-0.28352130476134174,-0.17612302625412196,0.02109350201349392,5.555152893066406e-05,0.019938024639855192,-63.41635014301909,-1517.3800686599716,1584.2074394358888,0.02109350201349392,0.06341635014301909,1.5173800686599717,0.6212246580974877,1.2085686405239058,0.0,0.0,1.5,0.0,1,69699.10996381876,59.20275502026795,20.26378809443737,-75.13930734836072,65535,40,20.26378809443737,-75.13930734836072,-36.65625,-28.984375,-0.2333984375,0.09503173828125,0.9892578125,0.016571044921875,0.309326171875,4.42578125,854.0,2.0,-5.0
1.4891133308410645,-63.27938232212337,-1517.3073547024755,879.0270083587899,-0.27923164505957315,-0.17229258357614533,0.015784719678136563,0.00022983551025390625,0.020620764836841218,-63.41635014301909,-1517.3800686599716,1584.2074394358888,0.02109350201349392,0.06327938232212336,1.5173073547024756,0.6209729916412101,0.9043978183543243,0.0,0.0,1.5,0.0,1,66650.4416232394,58.59533261838289,17.36729644491628,-252.4072563749626,65535,40,17.36729644491628,-252.4072563749626,,,,,,,,,,,
1.4909021854400635,-63.298595787734214,-1517.2267536640911,879.2115494538409,-0.2747942830090307,-0.1771325660116214,0.019974013170131026,5.435943603515625e-05,0.02128028593948675,-63.41635014301909,-1517.3800686599716,1584.2074394358888,0.02109350201349392,0.06329859578773421,1.517226753664091,0.620788450546159,1.1444266545872297,0.0,0.0,1.5,0.0,1,67582.39062886185,58.51148879469577,18.75896342856509,220.5510276828529,65535,40,18.75896342856509,220.5510276828529,,,,,,,,,,,
1.496035099029541,-63.230768899149986,-1517.2223632688927,879.3314665916432,-0.2675169858020194,-0.18192562423211944,0.025639591526412785,8.249282836914062e-05,0.023383901171370763,-63.230768899149986,-1517.2223632688927,1519.6937002971465,0.025639591526412785,0.06323076889914998,1.5172223632688926,0.6206685334083568,1.4690403829028407,0.0,0.0,1.5,0.0,1,69470.87888627869,59.827218501454084,15.781158078924959,93.05953162403716,65535,40,15.781158078924959,93.05953162403716,-37.4375,-36.25,-0.2421875,0.09320068359375,0.9638671875,-0.0035762786865234375,0.29443359375,4.16796875,858.0,3.0,-2.0
1.499204397201538,-63.25727435511748,-1517.234793457081,879.4121394910513,-0.26718838542144757,-0.18408215799841623,0.02530444212617114,6.842613220214844e-05,0.023741993306585493,-63.230768899149986,-1517.2223632688927,1519.6937002971465,0.025639591526412785,0.06325727435511748,1.517234793457081,0.6205878605089487,1.4498377367626536,0.0,0.0,1.5,0.0,1,68710.57303006043,60.188288814586144,14.188480071033354,1.860717775792594,65535,40,14.188480071033354,1.860717775792594,,,,,,,,,,,
1.5056695938110352,-63.294584228763576,-1517.2564964289752,879.4986925545264,-0.2716594788481586,-0.18642301754021523,0.02486142703539017,6.866455078125e-05,0.025008776756591026,-63.230768899149986,-1517.2223632688927,1519.6937002971465,0.025639591526412785,0.06329458422876358,1.5172564964289752,0.6205013074454736,1.424454841800299,0.0,0.0,1.5,0.0,1,69385.62833163119,60.181470347618976,11.909052803159835,15.486156593410577,65535,40,11.909052803159835,15.486156593410577,,,,,,,,,,,
1.507582187652588,-63.24504941242143,-1517.3164506761423,879.4118969139857,-0.2714258703937784,-0.18602934656948716,0.02388467129196737,5.412101745605469e-05,0.025293313382027838,-63.230768899149986,-1517.2223632688927,1519.6937002971465,0.025639591526412785,0.06324504941242143,1.5173164506761423,0.6205881030860143,1.3684908600870096,0.0,0.0,1.5,0.0,1,70677.20801710365,61.037458196320806,9.137448625513054,-22.244129874929587,65535,40,9.137448625513054,-22.244129874929587,,,,,,,,,,,
1.5094964504241943,-63.27173499785908,-1517.3572815480718,879.2958713270385,-0.2741754606312131,-0.18043935783415077,0.02371055695067376,5.054473876953125e-05,0.025531860829369184,-63.230768899149986,-1517.2223632688927,1519.6937002971465,0.025639591526412785,0.06327173499785908,1.5173572815480718,0.6207041286729614,1.3585148431781853,0.0,0.0,1.5,0.0,1,70991.58226249821,60.83233857543792,9.54082423470319,12.302108721125654,65535,40,9.54082423470319,12.302108721125654,,,,,,,,,,,
1.5168368816375732,-63.219344463855954,-1517.4415832841921,879.1620478586655,-0.2787584285094713,-0.18261564125804816,0.01890279363569058,5.3882598876953125e-05,0.026219109438820342,-63.219344463855954,-1517.4415832841921,1469.5553056975152,0.01890279363569058,0.06321934446385595,1.517441583284192,0.6208379521413345,1.0830502963318234,0.0,0.0,1.5,0.0,1,69909.1730479096,60.65804042516912,7.218737723819895,-33.443822825618,65535,40,7.218737723819895,-33.443822825618,-34.875,-40.09375,-0.232666015625,0.0677490234375,0.8408203125,-0.1279296875,0.28271484375,3.623046875,858.0,2.0,-9.0
1.519303560256958,-63.13987905450081,-1517.4798498945272,879.0985842349526,-0.2828146350855696,-0.1813580778548756,0.017239403282736102,7.534027099609375e-05,0.026281636772582363,-63.219344463855954,-1517.4415832841921,1469.5553056975152,0.01890279363569058,0.06313987905450082,1.5174798498945272,0.6209014157650474,0.9877450494247553,0.0,0.0,1.5,0.0,1,70530.32363244244,61.195234101258656,4.400757518110341,-79.93868637698439,65535,40,4.400757518110341,-79.93868637698439,,,,,,,,,,,
1.5258829593658447,-63.12276793652277,-1517.6015759517898,879.1031519085695,-0.28840834643946484,-0.17958988683069768,0.015331928211273906,6.508827209472656e-05,0.02634129429428309,-63.219344463855954,-1517.4415832841921,1469.5553056975152,0.01890279363569058,0.06312276793652277,1.5176015759517898,0.6208968480914304,0.8784547783035563,0.0,0.0,1.5,0.0,1,69642.52821904783,61.07510221599165,4.425343244918373,-11.755008050494471,65535,40,4.425343244918373,-11.755008050494471,,,,,,,,,,,
1.5277750492095947,-63.063445830572995,-1517.6174769042582,879.0326283431499,-0.2891016341601845,-0.17618306433704808,0.013847834543687952,5.793571472167969e-05,0.026294896530063408,-63.219344463855954,-1517.4415832841921,1469.5553056975152,0.01890279363569058,0.063063445830573,1.517617476904258,0.6209673716568501,0.7934224747487899,0.0,0.0,1.5,0.0,1,70313.77561672982,60.92429700116492,2.3342874040325516,-55.80013040514838,65535,40,2.3342874040325516,-55.80013040514838,,,,,,,,,,,
1.5303094387054443,-63.06995259315423,-1517.8338853873033,878.9978996485524,-0.2958105797581407,-0.17685528918247373,0.009989831121759864,5.221366882324219e-05,0.02614832509680739,-63.06995259315423,-1517.8338853873033,1418.765194174759,0.009989831121759864,0.06306995259315423,1.5178338853873032,0.6210021003514475,0.572375161325281,0.0,0.0,1.5,0.0,1,70345.68311565138,62.47334843362263,2.433026987981716,-93.21581071219133,65535,40,2.433026987981716,-93.21581071219133,-49.71875,-8.890625,-0.1026611328125,-0.041595458984375,0.87060546875,-0.1318359375,0.26171875,3.380859375,867.0,5.0,-10.0
1.5344598293304443,-63.04511505052746,-1517.755787062166,878.9991683762803,-0.28891207912307754,-0.17481796692002824,0.01247362221284478,7.05718994140625e-05,0.025899735074854224,-63.06995259315423,-1517.8338853873033,1418.765194174759,0.009989831121759864,0.06304511505052746,1.517755787062166,0.6210008316237197,0.7146859080366406,0.0,0.0,1.5,0.0,1,69304.49475912306,60.23183904680125,1.0406590040448163,72.81917898409958,65535,40,1.0406590040448163,72.81917898409958,,,,,,,,,,,
1.536468267440796,-62.99406339389048,-1517.7869020214073,878.9919627508157,-0.29242411215879377,-0.17699183063645246,0.007586301774295051,7.295608520507812e-05,0.02571066982104089,-63.06995259315423,-1517.8338853873033,1418.765194174759,0.009989831121759864,0.06299406339389048,1.5177869020214072,0.6210080372491843,0.43466307377971447,0.0,0.0,1.5,0.0,1,69757.75093322019,61.296069103325905,-0.2300053791955623,-200.18559662740532,65535,40,-0.2300053791955623,-200.18559662740532,,,,,,,,,,,
1.5384140014648438,-62.857729601421035,-1517.987319755832,878.8760059238488,-0.29716131065924506,-0.17603421689106596,0.0028921118536488345,5.4836273193359375e-05,0.02549751779665018,-63.06995259315423,-1517.8338853873033,1418.765194174759,0.009989831121759864,0.06285772960142104,1.517987319755832,0.6211239940761513,0.16570580309383542,0.0,0.0,1.5,0.0,1,71799.43270234809,63.667943034550476,-2.118986700762817,-208.6878604015268,65535,40,-2.118986700762817,-208.6878604015268,,,,,,,,,,,
1.5403318405151367,-62.81744812563032,-1518.0409456254379,878.8694603345309,-0.30290711405078996,-0.17235449560144106,-0.0014684814567956551,4.887580871582031e-05,0.025255448604142854,-63.06995259315423,-1517.8338853873033,1418.765194174759,0.009989831121759864,0.06281744812563032,1.5180409456254378,0.621130539665469,-0.08413778976761378,0.0,0.0,1.5,0.0,1,69917.33768536893,61.71534373479243,-1.4755671344148968,-197.40381520809666,65535,40,-1.4755671344148968,-197.40381520809666,,,,,,,,,,,
1.545616626739502,-62.659237972574616,-1518.038498122193,878.7182870661844,-0.30453249367841057,-0.1718067845127712,-0.006154221863671252,6.628036499023438e-05,0.02421706705646716,-62.659237972574616,-1518.038498122193,1373.4160292362694,-0.006154221863671252,0.06265923797257461,1.518038498122193,0.6212817129338156,-0.35261093897549867,0.0,0.0,1.5,0.0,1,70129.62303757461,61.0864956888783,-3.2636316460562935,-70.00018260516127,65535,40,-3.2636316460562935,-70.00018260516127,-41.84375,-11.5625,-0.2335205078125,-0.01090240478515625,0.8828125,-0.09759521484375,0.24609375,3.203125,867.0,0.0,4.0
1.5483407974243164,-62.587228063406215,-1518.1271136891119,878.6508403911969,-0.30832661098393804,-0.1735727155590122,-0.010937479576201612,0.0002472400665283203,0.02382599618104061,-62.659237972574616,-1518.038498122193,1373.4160292362694,-0.006154221863671252,0.06258722806340622,1.518127113689112,0.6213491596088031,-0.6266714182268887,0.0,0.0,1.5,0.0,1,70958.75258543334,62.47535150616595,-5.594603515105082,-237.17278548067324,65535,40,-5.594603515105082,-237.17278548067324,,,,,,,,,,,
1.5497636795043945,-62.72803521456432,-1517.8979783283926,878.605903687727,-0.3113304237388487,-0.16612637358840884,-0.010809755637920433,5.626678466796875e-05,0.023496816131419535,-62.659237972574616,-1518.038498122193,1373.4160292362694,-0.006154221863671252,0.06272803521456433,1.5178979783283926,0.6213940963122729,-0.6193533756205877,0.0,0.0,1.5,0.0,1,68854.41341864066,56.94864822052304,-2.779970015634348,-1.497283866592511,65535,40,-2.779970015634348,-1.497283866592511,,,,,,,,,,,
1.555100440979004,-62.668861159238,-1517.9761011629962,878.4679020608537,-0.3120350150368347,-0.16441792266188765,-0.016551275706179806,9.012222290039062e-05,0.02169525733488636,-62.668861159238,-1517.9761011629962,1328.3904749215326,-0.016551275706179806,0.062668861159238,1.5179761011629962,0.6215320979391463,-0.9483182435215141,0.0,0.0,1.5,0.0,1,70432.02070686877,61.68970645814542,-7.579402539367973,-91.81889474698124,65535,40,-7.579402539367973,-91.81889474698124,-25.1875,-20.640625,-0.213134765625,-0.00821685791015625,0.90576171875,-0.07879638671875,0.235595703125,3.080078125,867.0,1.0,-6.0
1.5581188201904297,-62.64806230509936,-1518.0144667071943,878.412949397128,-0.31776025583473094,-0.1633208692026524,-0.020149430574255146,0.0002334117889404297,0.0210086826769053,-62.668861159238,-1517.9761011629962,1328.3904749215326,-0.016551275706179806,0.06264806230509935,1.5180144667071942,0.621587050602872,-1.1544773314966825,0.0,0.0,1.5,0.0,1,70770.45645456543,61.99895224003693,-9.926919183944285,-170.99498355016368,65535,40,-9.926919183944285,-170.99498355016368,,,,,,,,,,,
1.5595366954803467,-62.56375451478577,-1518.161968996129,878.3541841243778,-0.31334333554825555,-0.16835272919459895,-0.025030202015575237,5.054473876953125e-05,0.020498132859584992,-62.668861159238,-1517.9761011629962,1328.3904749215326,-0.016551275706179806,0.06256375451478577,1.518161968996129,0.6216458158756223,-1.4341249358523076,0.0,0.0,1.5,0.0,1,72095.27781947024,64.32710256742783,-12.162106141380775,-321.69795121042125,65535,40,-12.162106141380775,-321.69795121042125,,,,,,,,,,,
1.5647220611572266,-62.68112796626208,-1518.1573115674178,878.2848304527064,-0.31982791118447307,-0.164781983078755,-0.026627623748092417,8.463859558105469e-05,0.017911140524562733,-62.68112796626208,-1518.1573115674178,1287.5448795647433,-0.026627623748092417,0.06268112796626209,1.5181573115674178,0.6217151695472937,-1.5256504592280178,0.0,0.0,1.5,0.0,1,70461.39805790286,61.63477450836861,-12.307608912835184,-44.94293743602617,65535,40,-12.307608912835184,-44.94293743602617,-12.953125,-14.3828125,-0.1746826171875,-0.051666259765625,0.91064453125,-0.07452392578125,0.2269287109375,2.83984375,867.0,6.0,-6.0
1.5674073696136475,-62.672511061532106,-1518.2045924189101,878.1581436729128,-0.3235736506669658,-0.16498964572747093,-0.03149205657264164,0.00021791458129882812,0.017121550400167784,-62.68112796626208,-1518.1573115674178,1287.5448795647433,-0.026627623748092417,0.0626725110615321,1.51820459241891,0.6218418563270871,-1.8043619297995903,0.0,0.0,1.5,0.0,1,72311.37002898961,62.512883652151885,-15.241752414532439,-277.6729684348234,65535,40,-15.241752414532439,-277.6729684348234,,,,,,,,,,,
1.5695240497589111,-62.67772690007676,-1518.21287584411,878.1581476299709,-0.323889491679054,-0.16480736803019405,-0.031796679796926054,0.00021219253540039062,0.016070012140189063,-62.68112796626208,-1518.1573115674178,1287.5448795647433,-0.026627623748092417,0.06267772690007677,1.51821287584411,0.6218418523700291,-1.8218155548927544,0.0,0.0,1.5,0.0,1,70641.2227789741,61.92080233935421,-16.11819083020218,-39.743415403235005,65535,40,-16.11819083020218,-39.743415403235005,,,,,,,,,,,
1.5709967613220215,-62.73059205224991,-1518.2052470301944,878.1921334086485,-0.3228722803199173,-0.1651004303084499,-0.03412004904813015,6.890296936035156e-05,0.015301260807395752,-62.68112796626208,-1518.1573115674178,1287.5448795647433,-0.026627623748092417,0.06273059205224991,1.5182052470301943,0.6218078665913516,-1.9549348072372197,0.0,0.0,1.5,0.0,1,70110.01591381349,61.70800200789374,-16.23906046730031,-165.06371722656485,65535,40,-16.23906046730031,-165.06371722656485,,,,,,,,,,,
1.575549602508545,-62.69785771235915,-1518.1976204699042,878.2538045900175,-0.32297499677641484,-0.1621500346691775,-0.042875198744899236,6.175041198730469e-05,0.012304008454294428,-62.69785771235915,-1518.1976204699042,1250.7428901142393,-0.042875198744899236,0.06269785771235915,1.5181976204699041,0.6217461954099825,-2.4565679338673307,0.0,0.0,1.5,0.0,1,70689.33486552193,61.887921004990346,-19.218051078229927,-178.8445031858095,65535,40,-19.218051078229927,-178.8445031858095,-6.4453125,-11.3125,-0.1705322265625,-0.060272216796875,0.888671875,-0.09722900390625,0.1953125,2.595703125,865.0,2.0,-5.0
1.5786936283111572,-62.64187954361153,-1518.1646322377057,878.3619714006417,-0.31470672792250287,-0.16395961775717893,-0.045170898898606225,7.152557373046875e-05,0.01081803131615626,-62.69785771235915,-1518.1976204699042,1250.7428901142393,-0.042875198744899236,0.06264187954361153,1.5181646322377058,0.6216380285993583,-2.5881018637022755,0.0,0.0,1.5,0.0,1,70212.71553250996,61.6350932299764,-21.83813898072868,-120.90245753931134,65535,40,-21.83813898072868,-120.90245753931134,,,,,,,,,,,
1.5809578895568848,-62.741765415595,-1518.091604344028,878.4736632105325,-0.3087297746010096,-0.15687203511576797,-0.04413795578997205,5.91278076171875e-05,0.008839547868050308,-62.741765415595,-1518.091604344028,1214.6867985820884,-0.04413795578997205,0.062741765415595,1.518091604344028,0.6215263367894674,-2.528918583100414,0.0,0.0,1.5,0.0,1,70268.82769993145,61.37785631035255,-21.715854562672053,-8.81443833497389,65535,40,-21.715854562672053,-8.81443833497389,-0.1431884765625,-7.1640625,-0.158447265625,-0.034698486328125,0.88720703125,-0.1019287109375,0.186767578125,2.400390625,865.0,-1.0,0.0
1.5851781368255615,-62.73935307933464,-1518.1489832560842,878.6470435955911,-0.3108308603403723,-0.16071406672503188,-0.048270616822510964,7.343292236328125e-05,0.0064659249265673025,-62.741765415595,-1518.091604344028,1214.6867985820884,-0.04413795578997205,0.06273935307933465,1.5181489832560842,0.6213529564044089,-2.7657026184230706,0.0,0.0,1.5,0.0,1,70699.22429784512,62.465929664228426,-24.1780198270521,-144.12549654070727,65535,40,-24.1780198270521,-144.12549654070727,,,,,,,,,,,
1.5873029232025146,-62.835679410790235,-1518.1145388017912,878.7198090524179,-0.30683428402626645,-0.15868656640015086,-0.05186935347619663,0.0002167224884033203,0.004937218599154441,-62.741765415595,-1518.091604344028,1214.6867985820884,-0.04413795578997205,0.06283567941079024,1.5181145388017911,0.6212801909475821,-2.971895040258292,0.0,0.0,1.5,0.0,1,70704.62080293581,61.626312150998466,-24.105597917719198,-188.55739891239114,65535,40,-24.105597917719198,-188.55739891239114,,,,,,,,,,,
1.5893549919128418,-62.752371748326105,-1518.2680587133739,878.768952170977,-0.30531355652586634,-0.15876584289980397,-0.05333322171257919,6.341934204101562e-05,0.003430696644884494,-62.741765415595,-1518.091604344028,1214.6867985820884,-0.04413795578997205,0.06275237174832611,1.518268058713374,0.621231047829023,-3.055768511966272,0.0,0.0,1.5,0.0,1,72388.46853038782,64.01637353418694,-28.14535857538916,-108.88901385681518,65535,40,-28.14535857538916,-108.88901385681518,,,,,,,,,,,
1.5946152210235596,-62.898983367725904,-1518.286975713866,878.9101466743672,-0.30553521264627187,-0.1569172181779219,-0.05526714554889289,5.626678466796875e-05,-0.001274240839664959,-62.898983367725904,-1518.286975713866,1185.5319559285322,-0.05526714554889289,0.06289898336772591,1.518286975713866,0.6210898533256328,-3.1665741856867964,0.0,0.0,1.5,0.0,1,71559.13237473044,62.107381502927396,-27.37679005586903,-74.73659906189157,65535,40,-27.37679005586903,-74.73659906189157,3.39453125,-1.5888671875,-0.1295166015625,-0.0303497314453125,0.91064453125,-0.08343505859375,0.1766357421875,2.26171875,865.0,-5.0,-10.0
1.5970633029937744,-63.005711303399735,-1518.112798335316,879.132820808536,-0.30654521073939595,-0.156377988781919,-0.05495428316113978,8.153915405273438e-05,-0.0025789021924889238,-62.898983367725904,-1518.286975713866,1185.5319559285322,-0.05526714554889289,0.06300571130339974,1.518112798335316,0.620867179191464,-3.1486484913001576,0.0,0.0,1.5,0.0,1,68241.2041611885,59.19857103786668,-27.669376935893276,-30.651935586026667,65535,40,-27.669376935893276,-30.651935586026667,,,,,,,,,,,
1.5991642475128174,-63.066372865181584,-1518.1163103145009,879.2110988718653,-0.3031661900728786,-0.15252100059158558,-0.053159757776155704,0.00021266937255859375,-0.00427883156278549,-62.898983367725904,-1518.286975713866,1185.5319559285322,-0.05526714554889289,0.06306637286518159,1.5181163103145008,0.6207889011281348,-3.045829760511481,0.0,0.0,1.5,0.0,1,71486.17404042305,62.0042884915322,-29.095254234107166,28.12354409127863,65535,40,-29.095254234107166,28.12354409127863,,,,,,,,,,,
1.6005949974060059,-63.15475320357863,-1518.283931025622,879.2950673036493,-0.30706216963533156,-0.15172102544367128,-0.056280796795920685,6.890296936035156e-05,-0.00545253526478439,-62.898983367725904,-1518.286975713866,1185.5319559285322,-0.05526714554889289,0.06315475320357863,1.518283931025622,0.6207049326963507,-3.2246521240396615,0.0,0.0,1.5,0.0,1,72115.69704482215,64.98161992302332,-28.570668689919238,-235.69129900237874,65535,40,-28.570668689919238,-235.69129900237874,,,,,,,,,,,
1.60573410987854,-63.204649236279494,-1518.1296872928951,879.3720286351136,-0.30412266621264694,-0.15095851733887133,-0.05538629568807716,6.29425048828125e-05,-0.009928187964864527,-63.204649236279494,-1518.1296872928951,1157.8793547976193,-0.05538629568807716,0.0632046492362795,1.518129687292895,0.6206279713648865,-3.173400985790451,0.0,0.0,1.5,0.0,1,71844.48239314232,61.11478763225449,-30.41242578476795,-33.4282627651951,65535,40,-30.41242578476795,-33.4282627651951,9.84375,-0.994140625,-0.1494140625,-0.019134521484375,0.939453125,-0.053802490234375,0.1676025390625,2.15625,865.0,7.0,12.0
1.6078884601593018,-63.237632020698186,-1518.1564781259483,879.5949647270932,-0.3097361328447268,-0.15098511963076602,-0.056739221024299645,7.390975952148438e-05,-0.011486339930542827,-63.204649236279494,-1518.1296872928951,1157.8793547976193,-0.05538629568807716,0.06323763202069818,1.5181564781259482,0.6204050352729068,-3.250917897552317,0.0,0.0,1.5,0.0,1,70057.46093106673,62.140665182065796,-30.204533416888026,-110.15528905815677,65535,40,-30.204533416888026,-110.15528905815677,,,,,,,,,,,
1.6099083423614502,-63.26989949186728,-1518.1394443821675,879.5247444462225,-0.2990899628918859,-0.15216138800973944,-0.05472956911377739,0.00013017654418945312,-0.013149402530950222,-63.204649236279494,-1518.1296872928951,1157.8793547976193,-0.05538629568807716,0.06326989949186727,1.5181394443821676,0.6204752555537775,-3.1357733247889894,0.0,0.0,1.5,0.0,1,73071.80530222564,61.4975321477571,-30.847640524994702,39.773108118491734,65535,40,-30.847640524994702,39.773108118491734,,,,,,,,,,,
1.6158778667449951,-63.217774612745224,-1518.0676653210778,879.4427722614813,-0.29213895969859427,-0.1593044967554201,-0.052532940854753414,7.009506225585938e-05,-0.018212396916322322,-63.217774612745224,-1518.0676653210778,1133.2428015568519,-0.052532940854753414,0.06321777461274522,1.5180676653210778,0.6205572277385187,-3.009915796387746,0.0,0.0,1.5,0.0,1,72510.8246526609,61.28581874067045,-30.68594057327521,-15.033227030432855,65535,40,-30.68594057327521,-15.033227030432855,14.9296875,-3.521484375,-0.1649169921875,-0.01971435546875,0.96533203125,-0.02484130859375,0.1607666015625,2.11328125,877.0,-4.0,-19.0
1.6179790496826172,-63.24066770511104,-1518.1337445972904,879.5264534938583,-0.2851486098957087,-0.16364421178767782,-0.0521939236956306,7.510185241699219e-05,-0.01964298413234988,-63.217774612745224,-1518.0676653210778,1133.2428015568519,-0.052532940854753414,0.06324066770511104,1.5181337445972904,0.6204735465061417,-2.9904915439874937,0.0,0.0,1.5,0.0,1,71515.59265459073,62.42106997626292,-29.4658699800088,-28.81762656457934,65535,40,-29.4658699800088,-28.81762656457934,,,,,,,,,,,
1.6198582649230957,-63.21614014360699,-1518.1510785617395,879.6173561574949,-0.2805086544928926,-0.16262961461964717,-0.05276525786671996,5.1975250244140625e-05,-0.021083456114198883,-63.217774612745224,-1518.0676653210778,1133.2428015568519,-0.052532940854753414,0.06321614014360699,1.5181510785617396,0.6203826438425051,-3.0232265806825196,0.0,0.0,1.5,0.0,1,71199.40746321036,61.650709859576644,-29.66998549591082,-71.74899389356565,65535,40,-29.66998549591082,-71.74899389356565,,,,,,,,,,,
1.625981092453003,-63.2834966587629,-1518.1117831514557,879.7062828726783,-0.2802937585273297,-0.16412574899321208,-0.052054143141422246,6.747245788574219e-05,-0.025765758858440773,-63.2834966587629,-1518.1117831514557,1111.3310413634779,-0.052054143141422246,0.0632834966587629,1.5181117831514557,0.6202937171273216,-2.9824827081733556,0.0,0.0,1.5,0.0,1,71384.79618444538,61.1412701326494,-27.53514865038304,-35.22914414036684,65535,40,-27.53514865038304,-35.22914414036684,11.484375,-7.5390625,-0.1629638671875,-0.01027679443359375,0.97265625,-0.015838623046875,0.1488037109375,2.083984375,877.0,4.0,15.0
1.628169298171997,-63.3049804815802,-1518.1507786192237,879.758647602098,-0.2819446619698817,-0.16194003454042802,-0.05426633803367868,7.2479248046875e-05,-0.027071783300463535,-63.2834966587629,-1518.1117831514557,1111.3310413634779,-0.052054143141422246,0.0633049804815802,1.5181507786192237,0.620241352397902,-3.109232138960047,0.0,0.0,1.5,0.0,1,71085.72500780251,61.72619552168425,-25.945214713353533,-146.56811451792385,65535,40,-25.945214713353533,-146.56811451792385,,,,,,,,,,,
1.6300146579742432,-63.284367821831495,-1518.1697232117594,879.8695200682502,-0.27738844266468554,-0.16253846930838203,-0.053882297526390475,5.364418029785156e-05,-0.0282889267944778,-63.2834966587629,-1518.1117831514557,1111.3310413634779,-0.052054143141422246,0.0632843678218315,1.5181697232117595,0.6201304799317499,-3.08722823873037,0.0,0.0,1.5,0.0,1,70269.55045989837,61.40309619729159,-25.804510302910572,-28.238123342944288,65535,40,-25.804510302910572,-28.238123342944288,,,,,,,,,,,
1.634855031967163,-65.941428325936,-1378.4905740012427,895.9832349686452,-0.13418446968002395,0.05770117010201904,0.013517529751647593,9.822845458984375e-05,-0.031312506798863056,-65.941428325936,-1378.4905740012427,1090.7126124174301,0.013517529751647593,0.065941428325936,1.3784905740012428,0.6040167650313548,0.7744974042119309,0.0,0.0,1.5,0.0,1,4889.623124408107,-673.0689885817806,13.620341847474238,1174.5447522101824,10000,-40,13.620341847474238,360,8.4765625,-12.21875,-0.1640625,-0.01158905029296875,0.96240234375,-0.0234222412109375,0.1470947265625,2.119140625,877.0,-7.0,-15.0
1.638310432434082,-65.76729192749512,-1373.326554671617,898.443683595433,-0.10841212535001686,0.04099793963837208,0.011912177302247471,0.00014257431030273438,-0.033013328675992645,-65.941428325936,-1378.4905740012427,1090.7126124174301,0.013517529751647593,0.06576729192749513,1.3733265546716171,0.6015563164045671,0.6825174842303149,0.0,0.0,1.5,0.0,1,47768.095803414515,14.951049279092196,-17.532692692384334,-31.185832543120657,47768.095803414515,14.951049279092196,-17.532692692384334,-31.185832543120657,,,,,,,,,,,
1.646214485168457,-65.88416923049523,-1368.2675181810885,901.2842750431074,-0.10422786215291485,0.03815905043764446,0.004395083209433568,6.842613220214844e-05,-0.035411045355675116,-65.88416923049523,-1368.2675181810885,1072.7013428083205,0.004395083209433568,0.06588416923049523,1.3682675181810884,0.5987157249568926,0.2518197185093559,0.0,0.0,1.5,0.0,1,56779.99363584653,38.87883682865521,-8.836626564243835,-75.16793328458206,56779.99363584653,38.87883682865521,-8.836626564243835,-75.16793328458206,6.3828125,-20.71875,-0.1798095703125,-0.0272064208984375,0.92041015625,-0.0621337890625,0.145263671875,2.16015625,877.0,7.0,10.0
1.6483783721923828,-65.8670909550023,-1363.2277474895382,903.8402646130331,-0.10639070686769472,0.036043955751451834,0.004483775770384863,7.581710815429688e-05,-0.03557464983718117,-65.88416923049523,-1368.2675181810885,1072.7013428083205,0.004395083209433568,0.0658670909550023,1.3632277474895382,0.5961597353869669,0.25690142792607196,0.0,0.0,1.5,0.0,1,36479.63922841835,-14.721951014973286,-0.15946367289584362,7.892858272972523,36479.63922841835,-14.721951014973286,-0.15946367289584362,7.892858272972523,,,,,,,,,,,
1.650367021560669,-66.1198949850982,-1358.4428454544666,906.5865898265062,-0.10061612406772555,0.028348419221306497,-0.004139829340949087,0.00012993812561035156,-0.035588588188045146,-65.88416923049523,-1368.2675181810885,1072.7013428083205,0.004395083209433568,0.0661198949850982,1.3584428454544666,0.5934134101734938,-0.2371947491408078,0.0,0.0,1.5,0.0,1,35618.0594111664,-8.430328835074647,6.027674555637065,-378.99081468934435,35618.0594111664,-8.430328835074647,6.027674555637065,-360,,,,,,,,,,,
1.6556518077850342,-66.20571919067768,-1353.4096264223026,909.0880307874083,-0.10861854945454431,0.03023509500388195,-0.0032788860841456292,6.556510925292969e-05,-0.03490735817007312,-66.20571919067768,-1353.4096264223026,1055.6827606190254,-0.0032788860841456292,0.06620571919067768,1.3534096264223026,0.5909119692125917,-0.18786633412572187,0.0,0.0,1.5,0.0,1,53412.35336424139,30.701743928515235,6.29352988976892,10.444720911924104,53412.35336424139,30.701743928515235,6.29352988976892,10.444720911924104,7.234375,-22.1875,-0.1546630859375,-0.036468505859375,0.8798828125,-0.10504150390625,0.1409912109375,2.291015625,877.0,-8.0,-15.0
1.6578598022460938,-66.24580631631562,-1348.574881180992,910.9280695379624,-0.07837718582174044,0.01388517243489645,-0.0035355733088826237,7.224082946777344e-05,-0.03445025708067896,-66.20571919067768,-1353.4096264223026,1055.6827606190254,-0.0032788860841456292,0.06624580631631562,1.348574881180992,0.5890719304620375,-0.2025734287580777,0.0,0.0,1.5,0.0,1,43226.67728175124,-11.158116568079627,11.91517360585809,-14.466171984329414,43226.67728175124,-11.158116568079627,11.91517360585809,-14.466171984329414,,,,,,,,,,,
1.6598105430603027,-66.22544285325878,-1343.6532095389061,913.6298542912363,-0.10950606752955033,-0.012701893268153047,-0.0008109650320311517,0.00012969970703125,-0.03390443656636161,-66.20571919067768,-1353.4096264223026,1055.6827606190254,-0.0032788860841456292,0.06622544285325878,1.3436532095389062,0.5863701457087638,-0.04646487366807661,0.0,0.0,1.5,0.0,1,35567.48964686066,-12.48548310332842,12.705374765721661,120.46637571959248,35567.48964686066,-12.48548310332842,12.705374765721661,120.46637571959248,,,,,,,,,,,
1.6651008129119873,-66.15570534247667,-1339.0288058225162,915.272835856921,-0.09777375764432752,-0.01499565252154779,-0.009310093809861818,6.532669067382812e-05,-0.031971953269920306,-66.15570534247667,-1339.0288058225162,1041.1187912977452,-0.009310093809861818,0.06615570534247667,1.3390288058225162,0.584727164143079,-0.5334290821759553,0.0,0.0,1.5,0.0,1,56408.198833076865,31.897038828679584,13.393275672047455,-138.73384038890748,56408.198833076865,31.897038828679584,13.393275672047455,-138.73384038890748,9.6875,-17.515625,-0.15576171875,-0.0269012451171875,0.83056640625,-0.1546630859375,0.13818359375,2.447265625,887.0,2.0,6.0
1.6672556400299072,-66.41604971945351,-1334.3337879923204,917.3193505084901,-0.09895258332273095,-0.008629883215944231,-0.014937395948361396,7.200241088867188e-05,-0.03122403742305289,-66.15570534247667,-1339.0288058225162,1041.1187912977452,-0.009310093809861818,0.06641604971945352,1.3343337879923203,0.58268064949151,-0.8558497447569238,0.0,0.0,1.5,0.0,1,41093.667066301496,-11.829010772069132,20.552564374090537,-271.0803193246332,41093.667066301496,-11.829010772069132,20.552564374090537,-271.0803193246332,,,,,,,,,,,
1.6691186428070068,-66.32823301924033,-1329.514728391762,919.5133631485954,-0.10137684143018855,-0.02403115063734422,-0.011502793555247755,5.3882598876953125e-05,-0.03045823716373479,-66.15570534247667,-1339.0288058225162,1041.1187912977452,-0.009310093809861818,0.06632823301924033,1.329514728391762,0.5804866368514046,-0.6590615233259797,0.0,0.0,1.5,0.0,1,39251.97137724278,-14.860226963969808,16.265793458114317,149.9906830967841,39251.97137724278,-14.860226963969808,16.265793458114317,149.9906830967841,,,,,,,,,,,
1.6752045154571533,-66.19559801388331,-1324.79152739305,921.3091319070389,-0.10714038149990203,-0.024160262172403097,-0.011296989646448955,7.557868957519531e-05,-0.027753034653800076,-66.19559801388331,-1324.79152739305,1027.888631268514,-0.011296989646448955,0.06619559801388332,1.32479152739305,0.5786908680929611,-0.6472698279445132,0.0,0.0,1.5,0.0,1,56874.30275232134,33.61194720279887,15.742416126976963,-6.955672543206452,56874.30275232134,33.61194720279887,15.742416126976963,-6.955672543206452,7.5703125,-10.796875,-0.151611328125,-0.01364898681640625,0.8017578125,-0.186279296875,0.1251220703125,2.6015625,887.0,-3.0,-18.0
1.6776602268218994,-65.99724231982239,-1320.1134243390752,923.1445926649093,-0.1070857196230202,-0.029010732148089743,-0.014125782245431064,7.295608520507812e-05,-0.026853969465332986,-66.19559801388331,-1324.79152739305,1027.888631268514,-0.011296989646448955,0.06599724231982239,1.3201134243390753,0.5768554073350907,-0.8093477049840312,0.0,0.0,1.5,0.0,1,44409.42278119089,-4.491692316190921,14.862711166365205,-126.0738280850999,44409.42278119089,-4.491692316190921,14.862711166365205,-126.0738280850999,,,,,,,,,,,
1.6809203624725342,-66.05579072663423,-1315.636198109734,924.7648687597277,-0.11242203856107778,-0.006773790137504506,-0.023777542734359298,0.000148773193359375,-0.025524842535911335,-66.19559801388331,-1324.79152739305,1027.888631268514,-0.011296989646448955,0.06605579072663423,1.3156361981097342,0.5752351312402723,-1.3623528458707428,0.0,0.0,1.5,0.0,1,51214.21395561463,16.691516703930333,16.66951874930392,-274.7075657029371,51214.21395561463,16.691516703930333,16.66951874930392,-274.7075657029371,,,,,,,,,,,
1.6862120628356934,-65.66321278142932,-1310.9219625351607,926.0681498280989,-0.1032015519500869,-0.009929706810492012,-0.019546786354500592,6.699562072753906e-05,-0.023470899312075688,-65.66321278142932,-1310.9219625351607,1015.8600171183451,-0.019546786354500592,0.06566321278142932,1.3109219625351607,0.5739318501719012,-1.1199483611567922,0.0,0.0,1.5,0.0,1,56850.65443658557,30.10486470639658,12.709535568024373,48.492201493363616,56850.65443658557,30.10486470639658,12.709535568024373,48.492201493363616,6.828125,-3.3984375,-0.1529541015625,-0.0193328857421875,0.79736328125,-0.193115234375,0.10791015625,2.80859375,887.0,-4.0,10.0
1.6883659362792969,-65.58629452344807,-1306.284546170609,927.8021048276486,-0.10556113978592553,-0.005232345656220293,-0.024000445762140384,7.224082946777344e-05,-0.022851686832044277,-65.66321278142932,-1310.9219625351607,1015.8600171183451,-0.019546786354500592,0.06558629452344808,1.306284546170609,0.5721978951723514,-1.3751242486032864,0.0,0.0,1.5,0.0,1,43307.70902105591,-12.222556861095399,13.086649696053033,-224.59432251834806,43307.70902105591,-12.222556861095399,13.086649696053033,-224.59432251834806,,,,,,,,,,,
1.6902246475219727,-65.30717031305143,-1301.5060226832056,929.3054827280436,-0.10141657154539145,-0.005286752347206169,-0.018767074791454282,5.507469177246094e-05,-0.022287099195930946,-65.66321278142932,-1310.9219625351607,1015.8600171183451,-0.019546786354500592,0.06530717031305143,1.3015060226832056,0.5706945172719564,-1.07527417935669,0.0,0.0,1.5,0.0,1,45117.549826936964,-15.780704507745561,9.448257590921628,228.5205458833644,45117.549826936964,-15.780704507745561,9.448257590921628,228.5205458833644,,,,,,,,,,,
1.6967196464538574,-65.15714205484926,-1297.0153232633702,930.7289373271211,-0.09847832227991668,-0.0025771994803391054,-0.016176553761404866,0.0002124309539794922,-0.02055115376654213,-65.15714205484926,-1297.0153232633702,1004.6136639760551,-0.016176553761404866,0.06515714205484927,1.29701532326337,0.5692710626728789,-0.9268482575949757,0.0,0.0,1.5,0.0,1,57684.72989728972,34.6121438002931,9.906891094835519,18.6094673491966,57684.72989728972,34.6121438002931,9.906891094835519,18.6094673491966,6.58203125,-0.388427734375,-0.150146484375,-0.0256805419921875,0.81494140625,-0.1787109375,0.08843994140625,3.158203125,887.0,-26.0,17.0
1.6988868713378906,-64.88284919596703,-1292.4731343787846,932.1887385137095,-0.09399023205212442,-0.002838009256586521,-0.010665274822365987,0.0002701282501220703,-0.020174504793962288,-65.15714205484926,-1297.0153232633702,1004.6136639760551,-0.016176553761404866,0.06488284919596703,1.2924731343787845,0.5678112614862905,-0.6110752346687098,0.0,0.0,1.5,0.0,1,45187.549270845535,-12.768118245292968,5.884948114719533,248.6088915562108,45187.549270845535,-12.768118245292968,5.884948114719533,248.6088915562108,,,,,,,,,,,
1.7003402709960938,-64.74084150540949,-1287.8522216852382,933.4963322316364,-0.08778421745468346,0.0006521719010438485,-0.006581602333744316,4.982948303222656e-05,-0.019901641911901656,-65.15714205484926,-1297.0153232633702,1004.6136639760551,-0.016176553761404866,0.06474084150540949,1.2878522216852382,0.5665036677683636,-0.3770980361570024,0.0,0.0,1.5,0.0,1,44633.97915140786,-32.74344383127865,7.0799347884221095,240.2191348425912,44633.97915140786,-32.74344383127865,7.0799347884221095,240.2191348425912,,,,,,,,,,,
1.7058947086334229,-64.4425820207406,-1283.4319426729667,934.8492458630316,-0.09003071054616833,0.0007915417024785173,-0.007971793119931975,6.890296936035156e-05,-0.018934402000406265,-64.4425820207406,-1283.4319426729667,994.582015753945,-0.007971793119931975,0.0644425820207406,1.2834319426729666,0.5651507541369685,-0.4567501009235291,0.0,0.0,1.5,0.0,1,56377.20031590101,31.012091251188025,6.313509965987698,-27.81103489198473,56377.20031590101,31.012091251188025,6.313509965987698,-27.81103489198473,6.625,2.33203125,-0.1492919921875,-0.0114288330078125,0.841796875,-0.1513671875,0.07470703125,3.34375,891.0,-3.0,0.0
1.708371877670288,-64.01701745509199,-1278.9889238240125,935.7939681718149,-0.09047905536640692,0.003862405494090664,-0.004740329486559995,7.677078247070312e-05,-0.018573224614819694,-64.4425820207406,-1283.4319426729667,994.582015753945,-0.007971793119931975,0.06401701745509199,1.2789889238240126,0.5642060318281852,-0.2716008730813042,0.0,0.0,1.5,0.0,1,51461.893583930054,1.9580192319304786,2.9440326917944457,113.74314280580661,51461.893583930054,1.9580192319304786,2.9440326917944457,113.74314280580661,,,,,,,,,,,
1.7109544277191162,-63.89759824647551,-1274.5967567430555,936.6022264960351,-0.09734894156991884,0.008987445329771802,-0.0025475640570396846,6.29425048828125e-05,-0.018165667105892357,-63.89759824647551,-1274.5967567430555,984.8681824898626,-0.0025475640570396846,0.0638975982464755,1.2745967567430554,0.5633977735039649,-0.14596466850759926,0.0,0.0,1.5,0.0,1,53357.31517250493,8.517924432750405,6.274737573100419,67.68011832936148,53357.31517250493,8.517924432750405,6.274737573100419,67.68011832936148,4.84375,3.59375,-0.1495361328125,0.0191802978515625,0.8642578125,-0.12841796875,0.058624267578125,3.490234375,891.0,-4.0,-1.0
1.7177350521087646,-63.4902677779082,-1270.1673686179165,937.0780927759176,-0.09247201404684133,0.004462183460623791,-0.0009430167156769696,0.00014543533325195312,-0.017125519887759556,-63.89759824647551,-1274.5967567430555,984.8681824898626,-0.0025475640570396846,0.0634902677779082,1.2701673686179165,0.5629219072240823,-0.05403087781857869,0.0,0.0,1.5,0.0,1,59569.577165343035,33.35861742418901,5.554259140513044,19.89094696275649,59569.577165343035,33.35861742418901,5.554259140513044,19.89094696275649,,,,,,,,,,,
1.7200896739959717,-62.88585551624025,-1265.9373233130011,937.8039430186348,-0.10296000922884366,0.013665682394309344,-0.0012521512915463497,4.982948303222656e-05,-0.016736263931409607,-63.89759824647551,-1274.5967567430555,984.8681824898626,-0.0025475640570396846,0.06288585551624025,1.2659373233130011,0.5621960569813652,-0.07174298431746091,0.0,0.0,1.5,0.0,1,52931.894254069324,3.3572921323544023,1.2363265661703613,-12.448217293084351,52931.894254069324,3.3572921323544023,1.2363265661703613,-12.448217293084351,,,,,,,,,,,
1.7248821258544922,-62.72640980543807,-1261.650918135618,938.3775562423356,-0.10650930212493534,0.016666429840410307,-0.0013829262102804342,5.698204040527344e-05,-0.015860129466029074,-62.72640980543807,-1261.650918135618,976.9806139664464,-0.0013829262102804342,0.06272640980543806,1.261650918135618,0.5616224437576645,-0.07923583522709028,0.0,0.0,1.5,0.0,1,57983.87218307954,27.674843979899805,7.081498061521167,-3.4688520358553525,57983.87218307954,27.674843979899805,7.081498061521167,-3.4688520358553525,2.69921875,5.640625,-0.14013671875,0.0386962890625,0.896484375,-0.097900390625,0.04510498046875,3.55078125,891.0,3.0,0.0
1.7277963161468506,-61.96146201527888,-1257.2803876911885,938.2047350341406,-0.0815320331631835,0.009820823015047398,-0.0002771149882581943,0.00022363662719726562,-0.015329970483630837,-62.72640980543807,-1261.650918135618,976.9806139664464,-0.0013829262102804342,0.061961462015278884,1.2572803876911884,0.5617952649658594,-0.0158775192670119,0.0,0.0,1.5,0.0,1,59430.5596539528,9.346843973334863,1.4416282904430142,33.77054441148376,59430.5596539528,9.346843973334863,1.4416282904430142,33.77054441148376,,,,,,,,,,,
1.7377405166625977,-61.68092444771793,-1252.9675938855285,938.6604760450772,-0.09124197573894147,0.008274240316172816,-0.003978715720668913,0.00857234001159668,-0.013302113120187146,-61.68092444771793,-1252.9675938855285,969.4906826031848,-0.003978715720668913,0.06168092444771793,1.2529675938855285,0.5613395239549228,-0.2279636186766805,0.0,0.0,1.5,0.0,1,60984.0908543514,38.76822295270181,7.813103953440232,-35.022930338215055,60984.0908543514,38.76822295270181,7.813103953440232,-35.022930338215055,3.18359375,7.58203125,-0.130859375,0.0338134765625,0.9384765625,-0.056427001953125,0.033966064453125,3.58984375,891.0,0.0,0.0
1.7474830150604248,-61.2172913946152,-1248.6719697186277,938.7910305395972,-0.082860681393736,0.002816821696210528,-0.004946659916962614,0.008197546005249023,-0.011303306928991407,-61.2172913946152,-1248.6719697186277,962.3873698806832,-0.004946659916962614,0.0612172913946152,1.2486719697186277,0.5612089694604029,-0.28342273592849204,0.0,0.0,1.5,0.0,1,61484.71912020454,38.45301152073078,7.365724307424214,-12.63981551875941,61484.71912020454,38.45301152073078,7.365724307424214,-12.63981551875941,2.5625,4.87109375,-0.1295166015625,0.0312347412109375,0.95751953125,-0.035186767578125,0.0243988037109375,3.583984375,891.0,0.0,0.0
1.7641181945800781,-60.94072206883091,-1244.4317248997465,939.2690500809006,-0.109855611197854,0.01731689227018187,-0.01071131754567562,0.014932632446289062,-0.008697332023913913,-60.94072206883091,-1244.4317248997465,956.2890168196257,-0.01071131754567562,0.06094072206883091,1.2444317248997465,0.5607309499190994,-0.6137132883916404,0.0,0.0,1.5,0.0,1,62067.816091967754,42.966525485242805,6.718506980300679,-38.99153001515418,62067.816091967754,40,6.718506980300679,-38.99153001515418,3.63671875,-10.984375,-0.11968994140625,0.022308349609375,0.93408203125,-0.05621337890625,0.0168914794921875,3.3984375,891.0,-2.0,5.0
1.7746434211730957,-60.62900503756947,-1239.9592113048611,939.324293515069,-0.07817592713207014,0.017575464932229886,-0.014627687845238008,0.008790969848632812,-0.007819162968879287,-60.62900503756947,-1239.9592113048611,950.6239191546971,-0.014627687845238008,0.06062900503756947,1.2399592113048612,0.5606757064849309,-0.8381047775669512,0.0,0.0,1.5,0.0,1,61492.17730398576,38.29841746167889,4.082047537063634,-44.99203740976547,61492.17730398576,38.29841746167889,4.082047537063634,-44.99203740976547,3.44140625,-12.671875,-0.0953369140625,0.0135040283203125,0.9169921875,-0.075927734375,0.01239013671875,3.20703125,891.0,1.0,-10.0
1.7845678329467773,-60.15517071288056,-1235.489707926632,939.2415572934685,-0.07252550523137341,0.012814205104430314,-0.015654942735115297,0.008355379104614258,-0.007658791318684005,-60.15517071288056,-1235.489707926632,945.0914361529944,-0.015654942735115297,0.06015517071288056,1.235489707926632,0.5607584427065315,-0.8969621472410959,0.0,0.0,1.5,0.0,1,61614.817871361774,37.81401633328857,1.4034458556738052,-22.26162810778675,61614.817871361774,37.81401633328857,1.4034458556738052,-22.26162810778675,5.72265625,1.212890625,-0.064697265625,0.01568603515625,0.92724609375,-0.07183837890625,0.00543975830078125,3.01171875,891.0,-4.0,1.0
1.7875525951385498,-59.92495632456956,-1230.8230780286467,939.3142060319942,-0.08855418257363427,0.019252978205106453,-0.022859571868922443,0.0013022422790527344,-0.00773377684715398,-60.15517071288056,-1235.489707926632,945.0914361529944,-0.015654942735115297,0.05992495632456956,1.2308230780286467,0.5606857939680058,-1.3097569895652394,0.0,0.0,1.5,0.0,1,57750.19466894609,5.037065801534446,-0.7024738310512539,-245.38130377953132,57750.19466894609,5.037065801534446,-0.7024738310512539,-245.38130377953132,,,,,,,,,,,
1.7970247268676758,-59.59932667746414,-1226.3785917072285,939.3828399095657,-0.09851455051764536,0.022971727432826158,-0.026200634719280563,0.008064985275268555,-0.008458720454302567,-59.59932667746414,-1226.3785917072285,939.9296109522568,-0.026200634719280563,0.05959932667746414,1.2263785917072285,0.5606171600904343,-1.5011857899787087,0.0,0.0,1.5,0.0,1,61255.68158290587,37.37945863072312,-1.1607424539148243,-51.79402475463769,61255.68158290587,37.37945863072312,-1.1607424539148243,-51.79402475463769,1.6669921875,10.4765625,-0.09173583984375,0.0036525726318359375,0.95068359375,-0.0501708984375,-0.00852203369140625,2.74609375,889.0,2.0,-4.0
1.8143088817596436,-59.2999936095854,-1221.858686794234,939.2681875010586,-0.08541803279929963,0.015567254836186194,-0.030039325186084685,0.015508413314819336,-0.011374149875740997,-59.2999936095854,-1221.858686794234,935.3943961650716,-0.030039325186084685,0.0592999936095854,1.221858686794234,0.5607318124989414,-1.7211265525836887,0.0,0.0,1.5,0.0,1,62487.700827194996,42.21618639650857,-4.013016170489726,-45.15405546724689,62487.700827194996,40,-4.013016170489726,-45.15405546724689,7.23828125,14.6875,-0.099365234375,0.03460693359375,1.0771484375,0.07794189453125,-0.0152740478515625,2.21484375,889.0,0.0,-4.0
1.8172314167022705,-58.88120839214872,-1217.1078266935845,939.544204696678,-0.08836115497717145,0.027303940393443464,-0.03742421044713546,0.0013065338134765625,-0.012039596863860257,-59.2999936095854,-1221.858686794234,935.3943961650716,-0.030039325186084685,0.05888120839214872,1.2171078266935844,0.560455795303322,-2.1442493102302653,0.0,0.0,1.5,0.0,1,56695.05936220412,4.902814255105781,-9.124614556396324,-258.47150232727023,56695.05936220412,4.902814255105781,-9.124614556396324,-258.47150232727023,,,,,,,,,,,
1.827436923980713,-58.68728134501891,-1212.4914801297468,939.8874518897674,-0.11497493754833829,0.03646136705268456,-0.03525200080839784,0.008734941482543945,-0.014982061714608983,-58.68728134501891,-1212.4914801297468,931.4544352682884,-0.03525200080839784,0.05868728134501891,1.2124914801297468,0.5601125481102326,-2.0197908657129626,0.0,0.0,1.5,0.0,1,60988.419186880084,37.7705263274272,-7.251813011900421,-13.123006173196057,60988.419186880084,37.7705263274272,-7.251813011900421,-13.123006173196057,9.53125,3.330078125,-0.09246826171875,0.0750732421875,1.111328125,0.114990234375,-0.0096588134765625,1.982421875,889.0,-1.0,4.0
1.8381726741790771,-58.426234678361475,-1207.7275562920915,940.2475038931485,-0.09020585816232014,0.029364955687413853,-0.03199742528476153,0.00855875015258789,-0.018266509627897755,-58.426234678361475,-1207.7275562920915,928.0251166298398,-0.03199742528476153,0.05842623467836147,1.2077275562920915,0.5597524961068515,-1.833317424102022,0.0,0.0,1.5,0.0,1,60861.74254685622,37.0525400779789,-8.663684294184428,-1.330604905867915,60861.74254685622,37.0525400779789,-8.663684294184428,-1.330604905867915,16.015625,-13.984375,-0.0726318359375,0.1240234375,1.1533203125,0.15380859375,0.001972198486328125,1.806640625,892.0,-3.0,4.0
1.8478446006774902,-58.27497041331779,-1203.2064181714907,941.0699606191347,-0.07900834675327732,0.04866473511403544,-0.027751537953654485,0.007478475570678711,-0.021209278636071225,-58.27497041331779,-1203.2064181714907,925.2515601406125,-0.027751537953654485,0.05827497041331779,1.2032064181714908,0.5589300393808653,-1.5900459997415233,0.0,0.0,1.5,0.0,1,59806.66548794715,36.42296954223893,-8.283442147348284,13.426611928505874,59806.66548794715,36.42296954223893,-8.283442147348284,13.426611928505874,20.78125,-38.9375,-0.132568359375,0.089111328125,1.173828125,0.182861328125,0.01540374755859375,1.720703125,892.0,1.0,-8.0
1.8579072952270508,-58.11905397457167,-1198.617801973406,941.6425424589426,-0.06492494769390711,0.053442489962864555,-0.026825314157080882,0.007754325866699219,-0.02362546259650218,-58.11905397457167,-1198.617801973406,922.4367018131401,-0.026825314157080882,0.05811905397457167,1.198617801973406,0.5583574575410575,-1.536977285313272,0.0,0.0,1.5,0.0,1,60054.17334132592,35.726757427642795,-6.837825554565326,-14.741962110474422,60054.17334132592,35.726757427642795,-6.837825554565326,-14.741962110474422,23.5,-57.5,-0.210693359375,0.0102386474609375,1.1201171875,0.14111328125,0.03265380859375,1.8349609375,892.0,-1.0,-1.0
1.867452621459961,-57.76505603577217,-1194.1702110475896,942.3083014072065,-0.05007552721913052,0.05382709809346638,-0.02727154761411502,0.007782936096191406,-0.02535773761481142,-58.11905397457167,-1198.617801973406,922.4367018131401,-0.026825314157080882,0.05776505603577217,1.1941702110475896,0.5576916985927935,-1.5625445790788604,0.0,0.0,1.5,0.0,1,59763.81918394099,35.576517435023725,-5.342387078659773,-27.534623820653934,59763.81918394099,35.576517435023725,-5.342387078659773,-27.534623820653934,,,,,,,,,,,
1.8776862621307373,-57.350372130058005,-1189.8747177909945,942.9740848568903,-0.044095116026486934,0.05911994528421231,-0.02487211848976678,0.008608579635620117,-0.0267116178632768,-57.350372130058005,-1189.8747177909945,920.5207670177317,-0.02487211848976678,0.057350372130058,1.1898747177909945,0.5570259151431097,-1.4250674170129356,0.0,0.0,1.5,0.0,1,60482.04711611089,38.416171439099564,-3.1213316196584397,-4.248993648757832,60482.04711611089,38.416171439099564,-3.1213316196584397,-4.248993648757832,36.28125,-67.5625,-0.2420654296875,-0.038848876953125,0.94873046875,-0.0301971435546875,0.060821533203125,2.09765625,893.0,0.0,0.0
