time,x_pos,y_pos,z_pos,x_rot,y_rot,z_rot,delta_time,z_filtered,x_pos_est,y_pos_est,z_pos_est,z_rot_est,x_error,y_error,z_error,yaw_error,x_setpoint,y_setpoint,z_setpoint,yaw_setpoint,vicon_available,thrust_cal,pitch_cal,roll_cal,yaw_cal,thrust_lim,pitch_lim,roll_lim,yaw_lim,gyro_x,gyro_y,acc_x,acc_y,acc_z,stateEstimate_az,stateEstimate_vz,stateEstimate_yaw,range_zrange,motion_deltaX,motion_deltaY
1.417236566543579,-37.12225240447246,-681.3309744426381,1445.661762358397,0.03469396872284786,-0.04402755853695402,0.029303496641745717,0.00012993812561035156,0.026845791844918695,-37.12225240447246,-681.3309744426381,1316.1069975512626,0.029303496641745717,0.037122252404472464,0.6813309744426381,0.05433823764160297,1.678966682547811,0.0,0.0,1.5,0.0,1,-446570204.60664004,15657.340990559595,1269.247818403575,2231.3551369791358,10000,40,40,360,-2.55859375,3.302734375,0.031463623046875,-0.0207672119140625,1.0791015625,0.0753173828125,-0.02337646484375,0.131591796875,1372.0,0.0,0.0
1.4195141792297363,-36.94799472051176,-681.3519397406002,1445.6002016670293,0.03600272273610286,-0.041683954935433025,0.030950735454595223,9.34600830078125e-05,0.026914198015604737,-36.94799472051176,-681.3519397406002,1330.7735274664824,0.030950735454595223,0.03694799472051176,0.6813519397406002,0.054399798332970706,1.7733465143742277,0.0,0.0,1.5,0.0,1,44824.83981794174,27.520918823735485,0.3699950959041638,105.48774377955672,44824.83981794174,27.520918823735485,0.3699950959041638,105.48774377955672,1.7138671875,-4.17578125,0.030517578125,-0.017791748046875,1.0771484375,0.07861328125,-0.0176544189453125,0.135986328125,1376.0,0.0,0.0
1.4212052822113037,-36.82695404567317,-681.376678973001,1445.532774185907,0.03376824532347076,-0.03989038665957906,0.03148461957877367,8.296966552734375e-05,0.026973377629095668,-36.94799472051176,-681.3519397406002,1330.7735274664824,0.030950735454595223,0.03682695404567317,0.681376678973001,0.0544672258140929,1.8039358214386911,0.0,0.0,1.5,0.0,1,45002.167922467255,27.62180230350642,0.8588937284829226,56.781242644601306,45002.167922467255,27.62180230350642,0.8588937284829226,56.781242644601306,,,,,,,,,,,
1.4241514205932617,-36.70858622079278,-681.412284109399,1445.4618932733638,0.0360778236568679,-0.04131126323804077,0.03134876525036694,7.367134094238281e-05,0.027089315915926896,-36.94799472051176,-681.3519397406002,1330.7735274664824,0.030950735454595223,0.03670858622079278,0.681412284109399,0.05453810672663621,1.7961519417924012,0.0,0.0,1.5,0.0,1,44654.529686298,27.493583547365937,1.8649792314710905,22.964055219174522,44654.529686298,27.493583547365937,1.8649792314710905,22.964055219174522,,,,,,,,,,,
1.426159143447876,-36.559297018441654,-681.4238556274587,1445.3692664676141,0.032818073963841767,-0.04175775835468351,0.031603203529808443,5.2928924560546875e-05,0.027171693149739343,-36.94799472051176,-681.3519397406002,1330.7735274664824,0.030950735454595223,0.036559297018441655,0.6814238556274587,0.05463073353238587,1.8107301813509695,0.0,0.0,1.5,0.0,1,45030.12350444235,27.35149195382117,0.991531163955913,38.126800728417564,45030.12350444235,27.35149195382117,0.991531163955913,38.126800728417564,,,,,,,,,,,
1.428130865097046,-36.452791426428384,-681.3859991491152,1445.2332090176135,0.03179564446837432,-0.04104094988244815,0.03235803663111267,5.364418029785156e-05,0.027256606178298406,-36.94799472051176,-681.3519397406002,1330.7735274664824,0.030950735454595223,0.036452791426428384,0.6813859991491151,0.05476679098238651,1.8539789322924727,0.0,0.0,1.5,0.0,1,45366.08249923573,26.683732287165807,1.5453216045861304,60.67171461282014,45366.08249923573,26.683732287165807,1.5453216045861304,60.67171461282014,,,,,,,,,,,
1.435025930404663,-36.31707333880005,-681.4317339981925,1445.1090669770872,0.02826144660173984,-0.042250845061939026,0.030133351252054314,5.340576171875e-05,0.0275821299625665,-36.94799472051176,-681.3519397406002,1330.7735274664824,0.030950735454595223,0.03631707333880005,0.6814317339981925,0.054890933022912806,1.726513849327967,0.0,0.0,1.5,0.0,1,44546.86880134147,27.32566895504258,2.5318507370189125,-1.8271310157429639,44546.86880134147,27.32566895504258,2.5318507370189125,-1.8271310157429639,,,,,,,,,,,
1.4378142356872559,-36.21231638507646,-681.3239586218463,1445.0738687206235,0.015079821839497732,-0.038408720511425014,0.026670772796559248,5.459785461425781e-05,0.027730371147892566,-36.21231638507646,-681.3239586218463,1347.5552586626955,0.026670772796559248,0.036212316385076465,0.6813239586218462,0.054926131279376476,1.5281227175951726,0.0,0.0,1.5,0.0,1,44336.89804798271,26.193696717339943,2.1422099828439665,-79.21129695696922,44336.89804798271,26.193696717339943,2.1422099828439665,-79.21129695696922,6.4765625,-1.6904296875,0.033294677734375,-0.0216522216796875,1.01171875,0.0119781494140625,-0.0034046173095703125,0.11236572265625,1376.0,0.0,0.0
1.444725751876831,-36.08614202611351,-681.3679968611577,1445.039622462539,-0.0009924140261398171,-0.03842000722987313,0.020191298126912536,7.510185241699219e-05,0.02803627211615488,-36.21231638507646,-681.3239586218463,1347.5552586626955,0.026670772796559248,0.03608614202611351,0.6813679968611578,0.054960377537461,1.1568761655624928,0.0,0.0,1.5,0.0,1,44321.627330624666,27.320822179798537,2.524758586398511,-64.53450423203135,44321.627330624666,27.320822179798537,2.524758586398511,-64.53450423203135,,,,,,,,,,,
1.446746587753296,-36.03664716186218,-681.4372652878419,1444.5233690901214,0.029222412578248088,-0.04053473756559379,0.02905471678347272,5.078315734863281e-05,0.028106296545535397,-36.21231638507646,-681.3239586218463,1347.5552586626955,0.026670772796559248,0.036036647161862174,0.6814372652878419,0.05547663090987862,1.6647126466409052,0.0,0.0,1.5,0.0,1,48835.34524517522,28.072390227579124,2.208122311503904,405.1504702683504,48835.34524517522,28.072390227579124,2.208122311503904,360,,,,,,,,,,,
1.450063943862915,-36.00408394066273,-681.4550624328722,1444.4154764036589,0.031524032992861974,-0.03839020076697671,0.0302545835105741,5.269050598144531e-05,0.02819513860213195,-36.00408394066273,-681.4550624328722,1357.9785538610954,0.0302545835105741,0.036004083940662734,0.6814550624328721,0.05558452359634111,1.7334599460819897,0.0,0.0,1.5,0.0,1,44799.57942015383,27.311101888120312,2.422496356118872,55.97353037080213,44799.57942015383,27.311101888120312,2.422496356118872,55.97353037080213,7.98046875,-0.312744140625,0.028594970703125,-0.02642822265625,1.0107421875,0.00951385498046875,0.00019049644470214844,0.11639404296875,1376.0,0.0,0.0
1.454298734664917,-35.98422692075747,-681.4814596427707,1444.1945823674391,0.028317582550680963,-0.03184541150319431,0.02861083160016135,7.414817810058594e-05,0.028264826892761618,-36.00408394066273,-681.4550624328722,1357.9785538610954,0.0302545835105741,0.03598422692075747,0.6814814596427707,0.055805417632560875,1.6392798990487731,0.0,0.0,1.5,0.0,1,45197.71800408751,27.35314102011037,2.3873440695878214,-9.621518719084381,45197.71800408751,27.35314102011037,2.3873440695878214,-9.621518719084381,,,,,,,,,,,
1.456282615661621,-35.95518339559759,-681.5064113786761,1444.0909768542358,0.03328507946492565,-0.034352921777217875,0.029033132364363765,6.437301635742188e-05,0.02828880751170766,-36.00408394066273,-681.4550624328722,1357.9785538610954,0.0302545835105741,0.035955183395597584,0.6815064113786762,0.055909023145764195,1.6634759505227208,0.0,0.0,1.5,0.0,1,45197.517031527845,27.530500334145703,2.050448998432347,43.33499075187255,45197.517031527845,27.530500334145703,2.050448998432347,43.33499075187255,,,,,,,,,,,
1.459076166152954,-35.97032363142188,-681.4946503528199,1444.0053538354537,0.035447247299891196,-0.03280651380276583,0.03287629379414447,6.008148193359375e-05,0.028318754248424373,-35.97032363142188,-681.4946503528199,1365.0132221478436,0.03287629379414447,0.03597032363142188,0.6814946503528199,0.05599464616454634,1.8836728804366185,0.0,0.0,1.5,0.0,1,44756.71279893758,27.084738509448968,2.523505772528694,141.46578993682397,44756.71279893758,27.084738509448968,2.523505772528694,141.46578993682397,6.8984375,-1.2431640625,0.026641845703125,-0.0347900390625,1.0224609375,0.0207977294921875,0.00868988037109375,0.12176513671875,1378.0,0.0,0.0
1.461777925491333,-35.854534636808374,-681.4462317637766,1444.2678861711374,0.014971560724758916,-0.03485040974996051,0.02599336362016848,7.009506225585938e-05,0.028343144096799118,-35.97032363142188,-681.4946503528199,1365.0132221478436,0.03287629379414447,0.03585453463680838,0.6814462317637766,0.05573211382886257,1.4893100307845486,0.0,0.0,1.5,0.0,1,42422.11103709301,26.73941064431356,1.195901813591934,-206.29253868498935,42422.11103709301,26.73941064431356,1.195901813591934,-206.29253868498935,,,,,,,,,,,
1.4658472537994385,-35.90922554522118,-681.4680939711968,1444.2298725452465,0.016905394916002,-0.032794687387015534,0.027636708580589284,7.271766662597656e-05,0.028378715842503524,-35.97032363142188,-681.4946503528199,1365.0132221478436,0.03287629379414447,0.035909225545221184,0.6814680939711968,0.055770127454753494,1.583466761300754,0.0,0.0,1.5,0.0,1,44424.229704073165,27.324289354412247,2.717721105374972,58.50402108081389,44424.229704073165,27.324289354412247,2.717721105374972,58.50402108081389,,,,,,,,,,,
1.4679391384124756,-35.83982341358885,-681.5434133591765,1444.1932839267988,0.01634666985463324,-0.03253755508726893,0.027319795956534644,5.5789947509765625e-05,0.028393988018813394,-35.97032363142188,-681.4946503528199,1365.0132221478436,0.03287629379414447,0.03583982341358885,0.6815434133591765,0.05580671607320119,1.565309005468007,0.0,0.0,1.5,0.0,1,44641.43825879571,28.164605338049412,1.4966927115045265,10.39237172075635,44641.43825879571,28.164605338049412,1.4966927115045265,10.39237172075635,,,,,,,,,,,
1.4756112098693848,-35.75914313021159,-681.6956902413625,1443.9474948934892,0.03696087054033079,-0.03877931546014412,0.03112788541415582,5.7697296142578125e-05,0.028433930340505273,-35.75914313021159,-681.6956902413625,1374.7086277335336,0.03112788541415582,0.03575914313021159,0.6816956902413626,0.05605250510651081,1.7834964593979632,0.0,0.0,1.5,0.0,1,44853.43841509139,27.723862411724003,2.041196221929956,68.71230524806394,44853.43841509139,27.723862411724003,2.041196221929956,68.71230524806394,3.431640625,-3.029296875,0.0293731689453125,-0.042938232421875,1.02734375,0.026580810546875,0.01275634765625,0.10955810546875,1378.0,0.0,0.0
1.4784433841705322,-35.75108444469057,-681.7147418662765,1444.1438151262837,0.016382998133207663,-0.030487699706554166,0.026332202103276067,6.794929504394531e-05,0.028444093957936026,-35.75914313021159,-681.6956902413625,1374.7086277335336,0.03112788541415582,0.03575108444469057,0.6817147418662766,0.055856184873716304,1.508724045803228,0.0,0.0,1.5,0.0,1,43001.30728914994,27.39589440663425,2.1992669684273953,-129.0244204906933,43001.30728914994,27.39589440663425,2.1992669684273953,-129.0244204906933,,,,,,,,,,,
1.4838523864746094,-35.64044626867022,-681.9180475551741,1443.8749345062615,0.03592412876947137,-0.03633086249616604,0.029182528070233176,6.413459777832031e-05,0.02846306724956756,-35.64044626867022,-681.9180475551741,1378.8252101565183,0.029182528070233176,0.03564044626867022,0.681918047555174,0.056125065493738475,1.6720356939464158,0.0,0.0,1.5,0.0,1,45167.54946174877,28.158106765785185,1.7838347135768347,67.8827869643034,45167.54946174877,28.158106765785185,1.7838347135768347,67.8827869643034,0.71923828125,-5.07421875,0.033050537109375,-0.0440673828125,1.0244140625,0.02496337890625,0.01548004150390625,0.084228515625,1378.0,0.0,0.0
1.486135721206665,-35.58400673211936,-682.0133434839537,1443.8208265974004,0.03602270081802239,-0.035627867710476165,0.0288940848972207,7.081031799316406e-05,0.028468088954082413,-35.64044626867022,-681.9180475551741,1378.8252101565183,0.029182528070233176,0.03558400673211936,0.6820133434839537,0.05617917340259965,1.655509117503439,0.0,0.0,1.5,0.0,1,44859.36978065364,28.502456351101525,1.5360462531430483,12.256895528683108,44859.36978065364,28.502456351101525,1.5360462531430483,12.256895528683108,,,,,,,,,,,
1.4880919456481934,-35.5109176781038,-682.0966538926089,1443.6974869173794,0.03712038160882056,-0.032040108641726274,0.029443979625258052,0.0001773834228515625,0.028472228950803872,-35.64044626867022,-681.9180475551741,1378.8252101565183,0.029182528070233176,0.0355109176781038,0.6820966538926089,0.05630251308262064,1.6870157645964736,0.0,0.0,1.5,0.0,1,45481.75781386788,28.371317634924203,1.288119064726812,49.63898111581116,45481.75781386788,28.371317634924203,1.288119064726812,49.63898111581116,,,,,,,,,,,
1.4936823844909668,-35.44314004632897,-682.1180666548393,1443.5945202329706,0.03179335388521136,-0.03478692931378655,0.024446856544217282,6.270408630371094e-05,0.02847735956264092,-35.44314004632897,-682.1180666548393,1382.834592497568,0.024446856544217282,0.03544314004632897,0.6821180666548392,0.05640547976702942,1.4007017023454271,0.0,0.0,1.5,0.0,1,44590.23934220259,27.338151204613425,1.9045618856421203,-54.11071908860274,44590.23934220259,27.338151204613425,1.9045618856421203,-54.11071908860274,-2.85546875,-7.22265625,0.036285400390625,-0.035125732421875,1.005859375,0.0067901611328125,0.01727294921875,0.044769287109375,1378.0,0.0,0.0
1.496246576309204,-35.378534584261246,-682.2699477674217,1443.4791996928761,0.04020322096802996,-0.029420439772606406,0.02812718296570339,7.343292236328125e-05,0.028474315532099552,-35.44314004632897,-682.1180666548393,1382.834592497568,0.024446856544217282,0.03537853458426125,0.6822699477674218,0.056520800307123864,1.6115688735270663,0.0,0.0,1.5,0.0,1,45250.386124668585,28.8701446169718,1.530817936891234,153.15093241592865,45250.386124668585,28.8701446169718,1.530817936891234,153.15093241592865,,,,,,,,,,,
1.4981768131256104,-35.33205949338115,-682.3008202212453,1443.317965459126,0.03803198749720754,-0.02730062636273068,0.028055940671476577,5.626678466796875e-05,0.028468316703890634,-35.44314004632897,-682.1180666548393,1382.834592497568,0.024446856544217282,0.035332059493381154,0.6823008202212453,0.05668203454087393,1.6074869907450409,0.0,0.0,1.5,0.0,1,45788.570059033125,27.681775828786865,1.5155365931056308,20.915368981644814,45788.570059033125,27.681775828786865,1.5155365931056308,20.915368981644814,,,,,,,,,,,
1.5037586688995361,-35.25007066141846,-682.3248100411861,1443.137353886631,0.041361769358016325,-0.02837973782084779,0.02823588508459623,6.437301635742188e-05,0.028435559909766508,-35.25007066141846,-682.3248100411861,1385.9336702129222,0.02823588508459623,0.03525007066141846,0.6823248100411861,0.05686264611336901,1.6177970461637554,0.0,0.0,1.5,0.0,1,44825.13737695823,27.365480003070264,1.7299266184594553,26.882279457652853,44825.13737695823,27.365480003070264,1.7299266184594553,26.882279457652853,-5.5546875,-5.61328125,0.0469970703125,-0.03094482421875,0.994140625,-0.00579071044921875,0.0169830322265625,-0.007904052734375,1376.0,0.0,0.0
1.5060276985168457,-35.225142644243874,-682.3975139104045,1442.9685950052574,0.042124800723334264,-0.025259472264439604,0.02835357057793603,7.081031799316406e-05,0.02842118951983731,-35.25007066141846,-682.3248100411861,1385.9336702129222,0.02823588508459623,0.035225142644243874,0.6823975139104046,0.057031404994742615,1.624539928242041,0.0,0.0,1.5,0.0,1,45896.17580116885,28.233367320264325,1.7490421475603104,29.553595306557163,45896.17580116885,28.233367320264325,1.7490421475603104,29.553595306557163,,,,,,,,,,,
1.5079329013824463,-35.1456284447105,-682.4230768349546,1442.8316934490279,0.04285554831207118,-0.025409652415763543,0.02933677477274853,5.698204040527344e-05,0.028406694677324273,-35.25007066141846,-682.3248100411861,1385.9336702129222,0.02823588508459623,0.0351456284447105,0.6824230768349546,0.057168306550972145,1.6808733790043555,0.0,0.0,1.5,0.0,1,45589.12764082336,27.638721918935655,0.963143675122218,69.86717990886129,45589.12764082336,27.638721918935655,0.963143675122218,69.86717990886129,,,,,,,,,,,
1.5135102272033691,-35.124680830144754,-682.4781563156674,1442.6962610085852,0.04239343120607571,-0.025958618066146525,0.028515927869498067,6.222724914550781e-05,0.028366774752551435,-35.124680830144754,-682.4781563156674,1388.2478847074276,0.028515927869498067,0.03512468083014476,0.6824781563156674,0.05730373899141478,1.6338423158217206,0.0,0.0,1.5,0.0,1,44735.13083751698,27.511808094530615,1.9665059816541206,12.144209147271585,44735.13083751698,27.511808094530615,1.9665059816541206,12.144209147271585,-8.5703125,-3.333984375,0.050750732421875,-0.0345458984375,0.99755859375,-0.004268646240234375,0.0164337158203125,-0.06610107421875,1376.0,0.0,0.0
1.5157246589660645,-35.12536482596815,-682.5673138418817,1442.5479164060346,0.03687380495620555,-0.029949339824169478,0.024540732012158752,9.179115295410156e-05,0.028353962946101652,-35.124680830144754,-682.4781563156674,1388.2478847074276,0.028515927869498067,0.03512536482596815,0.6825673138418817,0.057452083593965426,1.406080370458289,0.0,0.0,1.5,0.0,1,45630.729682438134,28.351713961928542,2.110941686796072,-139.7522401416815,45630.729682438134,28.351713961928542,2.110941686796072,-139.7522401416815,,,,,,,,,,,
1.5177903175354004,-35.019711159244125,-682.6668050553199,1442.4511715886538,0.030332627063731996,-0.03409540851833481,0.023321472536992984,7.82012939453125e-05,0.02834142741416619,-35.124680830144754,-682.4781563156674,1388.2478847074276,0.028515927869498067,0.03501971115924413,0.6826668050553198,0.057548828411346224,1.3362219483999547,0.0,0.0,1.5,0.0,1,45259.95275024137,28.57491487964063,0.7495338050434863,-31.542491033324556,45259.95275024137,28.57491487964063,0.7495338050434863,-31.542491033324556,,,,,,,,,,,
1.5245890617370605,-34.98378393021096,-682.7168552828127,1442.3185330411075,0.03357368743079694,-0.03556330346788347,0.02282095754272262,6.461143493652344e-05,0.028260031987593824,-35.124680830144754,-682.4781563156674,1388.2478847074276,0.028515927869498067,0.03498378393021096,0.6827168552828128,0.05768146695889254,1.3075445516452482,0.0,0.0,1.5,0.0,1,44667.69653045085,27.470222469088235,1.8266523416200147,13.290759476389532,44667.69653045085,27.470222469088235,1.8266523416200147,13.290759476389532,,,,,,,,,,,
1.5274033546447754,-34.906523611231094,-682.7974832800451,1442.318831033019,0.027698074786768768,-0.035154497903602686,0.024318622543491417,7.772445678710938e-05,0.028195674743804317,-34.906523611231094,-682.7974832800451,1391.3623610251939,0.024318622543491417,0.034906523611231095,0.6827974832800451,0.05768116896698098,1.3933544353137575,0.0,0.0,1.5,0.0,1,44371.98567608713,28.000205493124398,1.148343586515615,63.28620861304975,44371.98567608713,28.000205493124398,1.148343586515615,63.28620861304975,-10.203125,-4.01171875,0.0546875,-0.039398193359375,1.0224609375,0.021820068359375,0.0166473388671875,-0.1263427734375,1376.0,0.0,0.0
1.530033826828003,-34.84131736502203,-682.8502978084508,1442.2365521478216,0.02908412878516256,-0.035348101037737174,0.024997559717346057,6.723403930664062e-05,0.028128777834029155,-34.906523611231094,-682.7974832800451,1391.3623610251939,0.024318622543491417,0.03484131736502203,0.6828502978084509,0.057763447852178386,1.4322546699301681,0.0,0.0,1.5,0.0,1,44963.112495228626,27.89205578397171,0.9830510298696191,45.68665969282363,44963.112495228626,27.89205578397171,0.9830510298696191,45.68665969282363,,,,,,,,,,,
1.5341796875,-34.7724076508549,-682.9253446449709,1442.2209914046434,0.019843996663115277,-0.04218605694523401,0.019492849911149517,8.058547973632812e-05,0.02798261085929438,-34.906523611231094,-682.7974832800451,1391.3623610251939,0.024318622543491417,0.0347724076508549,0.6829253446449709,0.05777900859535657,1.116858030590829,0.0,0.0,1.5,0.0,1,44423.01634396621,27.799436998992167,1.1108572692161243,-97.36629672260298,44423.01634396621,27.799436998992167,1.1108572692161243,-97.36629672260298,,,,,,,,,,,
1.5363891124725342,-34.79282690609274,-682.9346845298928,1442.418811931125,-0.0017677910185171196,-0.03259183378672262,0.01519621211064034,7.677078247070312e-05,0.027887607784405816,-34.906523611231094,-682.7974832800451,1391.3623610251939,0.024318622543491417,0.03479282690609274,0.6829346845298928,0.05758118806887501,0.8706788185252803,0.0,0.0,1.5,0.0,1,42773.498874656616,27.429084993805944,1.6414365287029473,-151.72603762052165,42773.498874656616,27.429084993805944,1.6414365287029473,-151.72603762052165,,,,,,,,,,,
1.5394117832183838,-34.65582884086554,-683.167144297353,1442.174517242797,0.02279665551034722,-0.04174141962473852,0.021206213132734714,5.626678466796875e-05,0.02772186766528688,-34.65582884086554,-683.167144297353,1393.2618741802578,0.021206213132734714,0.03465582884086554,0.683167144297353,0.057825482757202964,1.215026511960599,0.0,0.0,1.5,0.0,1,45871.00355385851,29.304633462020554,0.12852273547925464,182.57438584128096,45871.00355385851,29.304633462020554,0.12852273547925464,182.57438584128096,-9.3046875,-5.83203125,0.05615234375,-0.036529541015625,1.0234375,0.0223236083984375,0.0183868408203125,-0.18994140625,1376.0,0.0,0.0
1.5459606647491455,-34.617573213177124,-683.1924670297938,1442.1233665676075,0.022468566849114753,-0.04309742337943524,0.020907368092013028,7.2479248046875e-05,0.027286489635508168,-34.65582884086554,-683.167144297353,1393.2618741802578,0.021206213132734714,0.03461757321317713,0.6831924670297937,0.05787663343239251,1.197903952398831,0.0,0.0,1.5,0.0,1,44468.83623089937,27.48138243145125,0.7707513342692873,13.954630152282414,44468.83623089937,27.48138243145125,0.7707513342692873,13.954630152282414,,,,,,,,,,,
1.5486741065979004,-34.5716026356066,-683.2409751009744,1442.0361301191683,0.023178901261627236,-0.04334286255294726,0.0210600254762679,6.0558319091796875e-05,0.02705309115747367,-34.5716026356066,-683.2409751009744,1394.6363761091823,0.0210600254762679,0.0345716026356066,0.6832409751009745,0.05796386988083168,1.206650576228142,0.0,0.0,1.5,0.0,1,44898.31885906758,27.84574034852789,0.27338289823366324,22.674833383251013,44898.31885906758,27.84574034852789,0.27338289823366324,22.674833383251013,-6.51171875,-5.84765625,0.056121826171875,-0.036163330078125,1.0263671875,0.0258331298828125,0.035675048828125,-0.2403564453125,1383.0,0.0,0.0
1.5530226230621338,-34.645918596234324,-683.2673002411242,1441.9916632853628,0.022494403606579866,-0.044281716044242886,0.0195368213148826,6.842613220214844e-05,0.026684361291483903,-34.5716026356066,-683.2409751009744,1394.6363761091823,0.0210600254762679,0.034645918596234324,0.6832673002411241,0.058008336714637156,1.1193774064440005,0.0,0.0,1.5,0.0,1,44526.41136870216,27.555820446108513,1.0203446998392816,-14.426310173875908,44526.41136870216,27.555820446108513,1.0203446998392816,-14.426310173875908,,,,,,,,,,,
1.5550141334533691,-34.50292450618506,-683.2517669948678,1442.0805527710493,0.012226384505745548,-0.040326941597312975,0.018541536498012413,6.270408630371094e-05,0.026499998858713413,-34.5716026356066,-683.2409751009744,1394.6363761091823,0.0210600254762679,0.03450292450618506,0.6832517669948678,0.05791944722895073,1.0623517870238879,0.0,0.0,1.5,0.0,1,43528.04763098441,27.257666217799166,-1.4205178459078174,-27.155544171627525,43528.04763098441,27.257666217799166,-1.4205178459078174,-27.155544171627525,,,,,,,,,,,
1.5572552680969238,-34.30824157780255,-683.3023325787867,1442.1896136653954,0.006493512657938493,-0.03362871389624035,0.017544692822027738,8.130073547363281e-05,0.026285323446350255,-34.5716026356066,-683.2409751009744,1394.6363761091823,0.0210600254762679,0.034308241577802545,0.6833023325787867,0.05781038633460457,1.0052368515556593,0.0,0.0,1.5,0.0,1,43534.70112397829,28.06317179521315,-1.8509474603420526,-23.148692273601206,43534.70112397829,28.06317179521315,-1.8509474603420526,-23.148692273601206,,,,,,,,,,,
1.5624537467956543,-34.058732446502454,-683.3883237260076,1441.9819152793789,0.02878285183082121,-0.03809156881840458,0.02057337543270253,5.5789947509765625e-05,0.02574714277071314,-34.058732446502454,-683.3883237260076,1396.7752656508767,0.02057337543270253,0.034058732446502454,0.6833883237260076,0.058018084720621116,1.1787675826319888,0.0,0.0,1.5,0.0,1,45050.4932326612,27.875880693679026,-0.9163336581735528,66.2733314008008,45050.4932326612,27.875880693679026,-0.9163336581735528,66.2733314008008,-2.447265625,-8.796875,0.053436279296875,-0.037322998046875,1.029296875,0.02978515625,0.038055419921875,-0.30615234375,1383.0,0.0,0.0
1.5649378299713135,-33.9264089201687,-683.4156374288939,1442.0571252669747,0.032088712378391976,-0.04444114001788346,0.017980719394774112,7.081031799316406e-05,0.02550320454230492,-34.058732446502454,-683.3883237260076,1396.7752656508767,0.02057337543270253,0.033926408920168696,0.6834156374288939,0.05794287473302529,1.0302193339295806,0.0,0.0,1.5,0.0,1,43796.18163870802,27.775308498244947,-1.2666555529384982,-80.01966643075981,43796.18163870802,27.775308498244947,-1.2666555529384982,-80.01966643075981,,,,,,,,,,,
1.5668835639953613,-33.6154669977814,-683.4018646306932,1442.2891000710788,0.03781499705121929,-0.044387137652751374,0.021617712651552348,7.915496826171875e-05,0.025297754982089145,-34.058732446502454,-683.3883237260076,1396.7752656508767,0.02057337543270253,0.033615466997781396,0.6834018646306932,0.05771089992892121,1.2386036976605135,0.0,0.0,1.5,0.0,1,42240.780311161,27.35544693447854,-4.024847001418293,180.037313531553,42240.780311161,27.35544693447854,-4.024847001418293,180.037313531553,,,,,,,,,,,
1.5699927806854248,-33.3301274844009,-683.3007731440916,1442.1294508583683,0.05663420049821692,-0.035061473761175035,0.027731120848850755,6.341934204101562e-05,0.024953403786737882,-33.3301274844009,-683.3007731440916,1397.0608383097556,0.027731120848850755,0.033330127484400895,0.6833007731440917,0.05787054914163173,1.5888761858063931,0.0,0.0,1.5,0.0,1,45112.730509687986,26.68299391593035,-2.1350381354061607,184.23229463077618,45112.730509687986,26.68299391593035,-2.1350381354061607,184.23229463077618,0.56298828125,-12.4453125,0.052978515625,-0.033905029296875,1.0166015625,0.0186004638671875,0.040924072265625,-0.374755859375,1383.0,0.0,0.0
1.5724692344665527,-33.145339309101935,-683.2777869953364,1442.0941697740177,0.06203206040406781,-0.03625973412055255,0.02671929541862604,6.723403930664062e-05,0.024718338324006515,-33.3301274844009,-683.3007731440916,1397.0608383097556,0.027731120848850755,0.033145339309101934,0.6832777869953365,0.0579058302259823,1.5309028590505083,0.0,0.0,1.5,0.0,1,44576.05526349246,27.216132363711626,-1.8757407560534465,-14.5453664579561,44576.05526349246,27.216132363711626,-1.8757407560534465,-14.5453664579561,,,,,,,,,,,
1.574249029159546,-33.10673822675103,-683.3599930269157,1442.2591992644343,0.04963736228776106,-0.030343258338096073,0.02213960207153498,5.745887756347656e-05,0.024548533044104964,-33.3301274844009,-683.3007731440916,1397.0608383097556,0.027731120848850755,0.033106738226751024,0.6833599930269157,0.0577408007355657,1.2685057587980488,0.0,0.0,1.5,0.0,1,42794.43374056606,28.642825418603174,-0.25077395436411165,-204.06157723504785,42794.43374056606,28.642825418603174,-0.25077395436411165,-204.06157723504785,,,,,,,,,,,
1.5785889625549316,-33.010365960220824,-683.3802114932705,1442.1948632413723,0.04658925337942182,-0.029972363264090546,0.02822481676305685,6.532669067382812e-05,0.024178543008953397,-33.3301274844009,-683.3007731440916,1397.0608383097556,0.027731120848850755,0.033010365960220826,0.6833802114932706,0.05780513675862767,1.6171628780532552,0.0,0.0,1.5,0.0,1,44590.10049580151,27.540055497824245,-0.10080948951935076,144.465735853881,44590.10049580151,27.540055497824245,-0.10080948951935076,144.465735853881,,,,,,,,,,,
1.5879628658294678,-32.91328038087782,-683.4197075654464,1442.0629898932405,0.05249062535379518,-0.027003239174077154,0.030006107890778767,8.726119995117188e-05,0.02366635214060289,-32.91328038087782,-683.4197075654464,1399.2881433888663,0.030006107890778767,0.032913280380877825,0.6834197075654465,0.05793701010675954,1.71922334175582,0.0,0.0,1.5,0.0,1,44569.526291999086,27.47877305840734,0.762166715179289,41.64719862158993,44569.526291999086,27.47877305840734,0.762166715179289,41.64719862158993,1.6865234375,-12.625,0.05596923828125,-0.0291900634765625,0.98486328125,-0.01209259033203125,0.04339599609375,-0.440673828125,1383.0,0.0,0.0
1.5929381847381592,-32.88007041229669,-683.4736473532154,1442.017976932122,0.051041070363744764,-0.028197983575518185,0.025417886802175393,0.00012826919555664062,0.023589357165241666,-32.91328038087782,-683.4197075654464,1399.2881433888663,0.030006107890778767,0.03288007041229669,0.6834736473532154,0.05798202306787789,1.4563376379059265,0.0,0.0,1.5,0.0,1,44514.10840536272,27.6204439441377,1.4972806216161083,-61.18374260011771,44514.10840536272,27.6204439441377,1.4972806216161083,-61.18374260011771,,,,,,,,,,,
1.5962269306182861,-32.80343997156636,-683.5321384218115,1441.9126724564221,0.055883153978436295,-0.03282972102406465,0.033359958885528944,9.512901306152344e-05,0.023607330899284414,-32.80343997156636,-683.5321384218115,1398.559225848389,0.033359958885528944,0.032803439971566366,0.6835321384218115,0.058087327543577885,1.9113848488707579,0.0,0.0,1.5,0.0,1,44886.64723365256,27.741434639622454,1.4922400970531824,222.54288661590513,44886.64723365256,27.741434639622454,1.4922400970531824,222.54288661590513,1.734375,-9.40625,0.062744140625,-0.024383544921875,0.95849609375,-0.039306640625,0.034088134765625,-0.49072265625,1377.0,0.0,0.0
1.5994415283203125,-32.77741244340618,-683.6594238569584,1441.98559230517,0.037056891511687146,-0.020405117075354796,0.025976447852130727,0.00010395050048828125,0.023667224845081877,-32.80343997156636,-683.5321384218115,1398.559225848389,0.033359958885528944,0.03277741244340618,0.6836594238569583,0.05801440769482997,1.488340828668763,0.0,0.0,1.5,0.0,1,43999.32077839034,28.396501727071822,2.1136263142917366,-190.31072995743858,43999.32077839034,28.396501727071822,2.1136263142917366,-190.31072995743858,,,,,,,,,,,
1.6050560474395752,-32.79936803642944,-683.6957732279142,1441.8485380998122,0.03683137467449359,-0.014754231990073844,0.027371375321529143,9.250640869140625e-05,0.023874491083975404,-32.79936803642944,-683.6957732279142,1397.751120668057,0.027371375321529143,0.032799368036429445,0.6836957732279142,0.058151461900187766,1.5682642853921567,0.0,0.0,1.5,0.0,1,44757.86196547536,27.42398855242663,2.7027376120252797,44.24404468895619,44757.86196547536,27.42398855242663,2.7027376120252797,44.24404468895619,1.7373046875,-6.3359375,0.060455322265625,-0.0184173583984375,0.94775390625,-0.05206298828125,0.031341552734375,-0.49755859375,1377.0,0.0,0.0
1.6079845428466797,-32.89360816464324,-683.7962792005611,1441.6210631619506,0.042033343795787416,-0.020496230427839626,0.027755351996087717,0.00010204315185546875,0.024004959217116536,-32.79936803642944,-683.6957732279142,1397.751120668057,0.027371375321529143,0.03289360816464324,0.6837962792005611,0.058378936838049414,1.5902645282758312,0.0,0.0,1.5,0.0,1,45881.2441580448,28.17810673563023,3.723673790778204,35.82435278031246,45881.2441580448,28.17810673563023,3.723673790778204,35.82435278031246,,,,,,,,,,,
1.6137583255767822,-32.8932204839003,-683.8428952250196,1441.5439476231963,0.041189274506366065,-0.01820437017004129,0.028085127207124652,9.179115295410156e-05,0.02433534854795912,-32.8932204839003,-683.8428952250196,1396.9444256063189,0.028085127207124652,0.0328932204839003,0.6838428952250195,0.05845605237680365,1.6091592560562835,0.0,0.0,1.5,0.0,1,44554.15119246787,27.43013332785625,2.850895271873001,28.325795171007503,44554.15119246787,27.43013332785625,2.850895271873001,28.325795171007503,-0.2127685546875,-1.0634765625,0.0587158203125,-0.01018524169921875,0.962890625,-0.04010009765625,0.026641845703125,-0.452392578125,1377.0,0.0,0.0
1.6170990467071533,-32.68042108497357,-683.8578568103839,1441.4547168639558,0.05554869239953433,-0.028015915500987948,0.029392508202350433,0.00011682510375976562,0.024506108971904392,-32.8932204839003,-683.8428952250196,1396.9444256063189,0.028085127207124652,0.032680421084973564,0.6838578568103838,0.05854528313604419,1.6840666692983342,0.0,0.0,1.5,0.0,1,45006.771116800635,27.442290059395884,0.9251676217134148,72.76873133848498,45006.771116800635,27.442290059395884,0.9251676217134148,72.76873133848498,,,,,,,,,,,
1.6199219226837158,-32.79640347872472,-683.8073744381538,1441.5043433267683,0.041738607646399126,-0.022457063219273554,0.022099495564405405,0.00023818016052246094,0.02467324350074245,-32.8932204839003,-683.8428952250196,1396.9444256063189,0.028085127207124652,0.03279640347872472,0.6838073744381539,0.05849565667323168,1.266207825208513,0.0,0.0,1.5,0.0,1,43996.902510575965,26.74073034097664,4.107496345866652,-204.51823543618707,43996.902510575965,26.74073034097664,4.107496345866652,-204.51823543618707,,,,,,,,,,,
1.6257319450378418,-32.87657997763631,-683.9878004894251,1441.4237177921655,0.045664004230291766,-0.022338584010944438,0.024424949874260256,9.918212890625e-05,0.025008573849573258,-32.87657997763631,-683.9878004894251,1396.5546560836335,0.024424949874260256,0.03287657997763631,0.6839878004894251,0.058576282207834535,1.3994465426137035,0.0,0.0,1.5,0.0,1,44655.544735262556,28.018742777214644,3.3578161909232005,54.301144537170686,44655.544735262556,28.018742777214644,3.3578161909232005,54.301144537170686,-2.455078125,2.3046875,0.061981201171875,-0.0014801025390625,1.001953125,-0.002170562744140625,0.0219268798828125,-0.351806640625,1377.0,0.0,0.0
1.6287641525268555,-32.88038418472546,-684.0540438424154,1441.4078392559888,0.04471479266176572,-0.023188267374678623,0.021363070655345463,0.00010228157043457031,0.025145578008381287,-32.87657997763631,-683.9878004894251,1396.5546560836335,0.024424949874260256,0.032880384184725456,0.6840540438424153,0.058592160744011156,1.2240137859910727,0.0,0.0,1.5,0.0,1,44498.442595312095,27.862086435174792,2.907968605089357,-74.15676464768549,44498.442595312095,27.862086435174792,2.907968605089357,-74.15676464768549,,,,,,,,,,,
1.6340663433074951,-32.95643132131832,-683.9617502999857,1441.4720807807403,0.03211296809749295,-0.018233845031836376,0.021107222110997966,0.00010204315185546875,0.025337733668166405,-32.95643132131832,-683.9617502999857,1395.4233405965144,0.021107222110997966,0.03295643132131832,0.6839617502999857,0.058527919219259726,1.2093547442053956,0.0,0.0,1.5,0.0,1,44096.57049473486,26.82337644850094,2.9837464595363747,14.12592591642171,44096.57049473486,26.82337644850094,2.9837464595363747,14.12592591642171,-4.18359375,-0.72216796875,0.063720703125,-0.00780487060546875,1.03515625,0.033599853515625,0.007099151611328125,-0.21533203125,1375.0,0.0,0.0
1.6374156475067139,-33.021814589494404,-684.0480450016698,1441.5608547683205,0.022575708498654524,-0.014422617673476544,0.01869072272588328,9.5367431640625e-05,0.02539844909560026,-32.95643132131832,-683.9617502999857,1395.4233405965144,0.021107222110997966,0.0330218145894944,0.6840480450016698,0.05843914523167951,1.0708995282423655,0.0,0.0,1.5,0.0,1,43917.2701064416,27.988537107597363,2.9096627811214537,-49.46610153975891,43917.2701064416,27.988537107597363,2.9096627811214537,-49.46610153975891,,,,,,,,,,,
1.6397297382354736,-32.964490664811585,-684.1498998045187,1441.3329603858508,0.044265111451084145,-0.021602073152379848,0.02361987506561415,8.440017700195312e-05,0.025416327242204922,-32.95643132131832,-683.9617502999857,1395.4233405965144,0.021107222110997966,0.03296449066481159,0.6841498998045187,0.05866703961414919,1.3533191538859792,0.0,0.0,1.5,0.0,1,46191.29980630845,28.48059047686191,1.5330208218120058,204.5418702897567,46191.29980630845,28.48059047686191,1.5330208218120058,204.5418702897567,,,,,,,,,,,
1.64505934715271,-33.092017375031574,-684.1173546682296,1441.566897043001,0.02235788859581585,-0.00927523218523385,0.01426449415018609,9.059906005859375e-05,0.0253682708726709,-33.092017375031574,-684.1173546682296,1394.622634890962,0.01426449415018609,0.03309201737503158,0.6841173546682296,0.05843310295699894,0.8172953116947148,0.0,0.0,1.5,0.0,1,43582.65944506509,27.164867792904825,2.4602530583926994,-133.6990389719406,43582.65944506509,27.164867792904825,2.4602530583926994,-133.6990389719406,-5.14453125,-7.49609375,0.07080078125,-0.02191162109375,1.025390625,0.02850341796875,0.008941650390625,-0.03826904296875,1375.0,0.0,0.0
1.648019552230835,-33.10484558532518,-684.1218993017417,1441.5676168053053,0.02281970893133823,-0.008868588463510404,0.014931372996669197,9.465217590332031e-05,0.025292998346357065,-33.092017375031574,-684.1173546682296,1394.622634890962,0.01426449415018609,0.03310484558532518,0.6841218993017417,0.058432383194694695,0.8555046550447496,0.0,0.0,1.5,0.0,1,44337.27633725705,27.397188085567205,1.657789881280699,33.34911864154873,44337.27633725705,27.397188085567205,1.657789881280699,33.34911864154873,,,,,,,,,,,
1.6562540531158447,-33.06982134801163,-684.2161764510251,1441.3688189167917,0.04427684893069043,-0.01716188649415447,0.01697265626056297,9.131431579589844e-05,0.024839993313221273,-33.06982134801163,-684.2161764510251,1393.8107173221483,0.01697265626056297,0.03306982134801163,0.6842161764510252,0.05863118108320828,0.9724615708565523,0.0,0.0,1.5,0.0,1,44786.99737230015,27.692054343098093,0.9436582598624821,35.463290054341485,44786.99737230015,27.692054343098093,0.9436582598624821,35.463290054341485,-6.31640625,-8.4296875,0.0716552734375,-0.0411376953125,0.984375,-0.0105438232421875,0.0123138427734375,0.166015625,1375.0,0.0,0.0
1.659196138381958,-32.95794446716175,-684.1077239387555,1441.7338380548217,0.010127701597377383,-0.0014923331783818646,0.020153496318331528,9.322166442871094e-05,0.02461925481191072,-33.06982134801163,-684.2161764510251,1393.8107173221483,0.01697265626056297,0.03295794446716175,0.6841077239387555,0.05826616194517828,1.1547102814728396,0.0,0.0,1.5,0.0,1,41944.66880642816,26.435825536481733,-0.4971526975036542,115.9367842555582,41944.66880642816,26.435825536481733,-0.4971526975036542,115.9367842555582,,,,,,,,,,,
1.6649091243743896,-33.04011301734115,-684.2129213642179,1441.8207392192246,0.005547549806845275,-0.003707195197543646,0.013489178614074771,9.775161743164062e-05,0.024071274370245612,-33.04011301734115,-684.2129213642179,1392.7085055769348,0.013489178614074771,0.03304011301734115,0.6842129213642179,0.05817926078077539,0.7728730036846134,0.0,0.0,1.5,0.0,1,44119.94408753214,27.90460174640121,0.7007685689128225,-85.69014914835931,44119.94408753214,27.90460174640121,0.7007685689128225,-85.69014914835931,-6.94921875,-3.72265625,0.0625,-0.055267333984375,0.94970703125,-0.0474853515625,0.01317596435546875,0.385498046875,1375.0,0.0,0.0
1.6678478717803955,-42.589171882868634,-676.4886287292351,1435.4065743071615,0.05228241028416978,-0.015820499520016247,-0.00043542052462886406,0.00022339820861816406,0.023779953590925305,-33.04011301734115,-684.2129213642179,1392.7085055769348,0.013489178614074771,0.042589171882868634,0.6764886287292351,0.06459342569283853,-0.024947758374606027,0.0,0.0,1.5,0.0,1,126092.63100637973,-47.538629246498125,88.44972329456289,-433.01119451577154,65535,-40,40,-360,,,,,,,,,,,
1.6753010749816895,-42.83401518845965,-676.2351580742484,1435.4673140769562,0.05462864617501138,-0.014558606521329578,0.0025522216559791234,9.322166442871094e-05,0.022788249578694686,-33.04011301734115,-684.2129213642179,1392.7085055769348,0.013489178614074771,0.042834015188459654,0.6762351580742484,0.0645326859230438,0.1462315292694937,0.0,0.0,1.5,0.0,1,44282.86787834214,26.301543394856427,0.8262970514816763,36.65090235271053,44282.86787834214,26.301543394856427,0.8262970514816763,36.65090235271053,,,,,,,,,,,
1.6783626079559326,-43.16437129334215,-676.0859580491101,1435.5657953068717,0.05824733280535545,-0.016719737789631747,0.0038171544489895505,8.416175842285156e-05,0.02224100648332906,-43.16437129334215,-676.0859580491101,1392.391568908472,0.0038171544489895505,0.04316437129334215,0.6760859580491101,0.06443420469312833,0.21870683967668653,0.0,0.0,1.5,0.0,1,43866.22173094522,25.99142530368119,1.9846428218542536,37.03404300622408,43866.22173094522,25.99142530368119,1.9846428218542536,37.03404300622408,-7.6875,4.7734375,0.0244293212890625,-0.06011962890625,0.97216796875,-0.0298614501953125,0.0050506591796875,0.7421875,1379.0,0.0,0.0
1.6864862442016602,-43.5050186065236,-675.8756720030171,1435.6626298147082,0.06292317772210315,-0.015714238481043977,0.008149965081555887,8.821487426757812e-05,0.0206080575802588,-43.16437129334215,-676.0859580491101,1392.391568908472,0.0038171544489895505,0.0435050186065236,0.6758756720030171,0.06433737018529177,0.4669586023521461,0.0,0.0,1.5,0.0,1,44231.68839744732,26.590922815188392,-0.2071816521662906,53.83129759962518,44231.68839744732,26.590922815188392,-0.2071816521662906,53.83129759962518,,,,,,,,,,,
1.6886723041534424,-43.79672416474657,-675.653332273621,1435.76361770317,0.061973292060011065,-0.01736578564460152,0.007077479217595145,7.510185241699219e-05,0.02010493776789755,-43.16437129334215,-676.0859580491101,1392.391568908472,0.0038171544489895505,0.04379672416474657,0.675653332273621,0.06423638229683001,0.40550968875975385,0.0,0.0,1.5,0.0,1,43463.10234445649,24.60378016845212,1.6691639307412625,-36.2987552511884,43463.10234445649,24.60378016845212,1.6691639307412625,-36.2987552511884,,,,,,,,,,,
1.6943671703338623,-44.07506307838145,-675.456217784283,1435.8682919239106,0.06408381868663655,-0.020012821114063096,0.0054101758899373015,7.843971252441406e-05,0.018714347525010916,-44.07506307838145,-675.456217784283,1392.1765968469845,0.0054101758899373015,0.044075063078381445,0.675456217784283,0.06413170807608935,0.30998024491684156,0.0,0.0,1.5,0.0,1,44112.58888217191,26.43406208785145,-0.6758257057717669,-19.797875753604746,44112.58888217191,26.43406208785145,-0.6758257057717669,-19.797875753604746,-9.78125,4.90625,0.0060577392578125,-0.058624267578125,0.99951171875,-0.0027790069580078125,0.0011501312255859375,0.82177734375,1379.0,0.0,0.0
1.6971838474273682,-44.30707420029487,-675.2776844044471,1436.0004514297573,0.06116426908442382,-0.020587684713621438,0.0010707266054759365,0.00020813941955566406,0.018073662599017368,-44.07506307838145,-675.456217784283,1392.1765968469845,0.0054101758899373015,0.04430707420029487,0.6752776844044471,0.06399954857024272,0.06134811550614034,0.0,0.0,1.5,0.0,1,43476.007050908316,25.544868079253753,0.275293216585323,-139.04560704100604,43476.007050908316,25.544868079253753,0.275293216585323,-139.04560704100604,,,,,,,,,,,
1.7044410705566406,-44.55560778794273,-675.0242472252673,1436.1648502942935,0.06423513211155617,-0.02382293077681326,0.0018457958104884538,8.511543273925781e-05,0.01632131573526746,-44.07506307838145,-675.456217784283,1392.1765968469845,0.0054101758899373015,0.044555607787942736,0.6750242472252673,0.0638351497057065,0.10575630978391753,0.0,0.0,1.5,0.0,1,44017.23514461417,26.39628648243511,-1.1398479901948524,10.775970681626603,44017.23514461417,26.39628648243511,-1.1398479901948524,10.775970681626603,,,,,,,,,,,
1.706610918045044,-44.77490902589296,-674.8668485476693,1436.4359584852962,0.06898070194544201,-0.027090554742104554,-0.002577455351078482,7.43865966796875e-05,0.015796055448736666,-44.07506307838145,-675.456217784283,1392.1765968469845,0.0054101758899373015,0.04477490902589296,0.6748668485476693,0.06356404151470384,-0.1476773135002069,0.0,0.0,1.5,0.0,1,42128.42108456841,25.37982171858553,0.5664331891901018,-177.97204790936428,42128.42108456841,25.37982171858553,0.5664331891901018,-177.97204790936428,,,,,,,,,,,
1.7095086574554443,-45.15856543445886,-674.6849955112789,1436.7123001240066,0.07790126539238681,-0.03074157337042974,-0.002323289358532439,6.914138793945312e-05,0.015050070047890374,-45.15856543445886,-674.6849955112789,1391.8518034809408,-0.002323289358532439,0.045158565434458856,0.6746849955112789,0.06328769987599343,-0.13311467483156508,0.0,0.0,1.5,0.0,1,42759.29018342069,25.7116391153397,1.1749173809737166,5.147712225285305,42759.29018342069,25.7116391153397,1.1749173809737166,5.147712225285305,-4.2265625,-4.046875,-0.00287628173828125,-0.034271240234375,1.0166015625,0.0188751220703125,0.0006895065307617188,0.7197265625,1379.0,0.0,0.0
1.7140321731567383,-45.381807203038726,-674.4392373838883,1436.7694482361755,0.07617319898866658,-0.0193574185416659,-0.004432461211169751,8.940696716308594e-05,0.013967363025046043,-45.15856543445886,-674.6849955112789,1391.8518034809408,-0.002323289358532439,0.04538180720303873,0.6744392373838883,0.06323055176382444,-0.2539613202554719,0.0,0.0,1.5,0.0,1,44114.604235982406,25.824328378242505,-0.8378008301011595,-45.23144935611272,44114.604235982406,25.824328378242505,-0.8378008301011595,-45.23144935611272,,,,,,,,,,,
1.7162163257598877,-45.706771138668906,-674.2044227847247,1437.0793207850652,0.07509130606013534,-0.030598571309385206,-0.006114093969621063,8.058547973632812e-05,0.013418201401529061,-45.15856543445886,-674.6849955112789,1391.8518034809408,-0.002323289358532439,0.0457067711386689,0.6742044227847247,0.06292067921493481,-0.3503117800056747,0.0,0.0,1.5,0.0,1,41742.2099189073,24.445910407714457,1.614552977672559,-71.57685154671225,41742.2099189073,24.445910407714457,1.614552977672559,-71.57685154671225,,,,,,,,,,,
1.7186651229858398,-45.92941985565203,-673.8745680843854,1437.2241462573545,0.07222575171903935,-0.029968324590621376,-0.0026863075672671323,8.893013000488281e-05,0.012791937475913288,-45.15856543445886,-674.6849955112789,1391.8518034809408,-0.002323289358532439,0.04592941985565203,0.6738745680843854,0.0627758537426455,-0.1539140860784622,0.0,0.0,1.5,0.0,1,43128.86063671932,23.768978979445336,0.02927975827055951,117.60854898100132,43128.86063671932,23.768978979445336,0.02927975827055951,117.60854898100132,,,,,,,,,,,
1.7244150638580322,-46.28442852612606,-673.5891186855581,1437.3501803323036,0.07227365908624026,-0.032162239244029285,-0.0013967139326714095,8.320808410644531e-05,0.011264525280823586,-46.28442852612606,-673.5891186855581,1391.7608582893408,-0.0013967139326714095,0.046284428526126055,0.6735891186855582,0.06264981966769642,-0.08002581352919118,0.0,0.0,1.5,0.0,1,43968.32546693705,26.00969376531979,-0.825448104346469,17.576718894721235,43968.32546693705,26.00969376531979,-0.825448104346469,17.576718894721235,0.6552734375,-3.59765625,0.0030117034912109375,-0.02752685546875,1.0,0.0015287399291992188,0.0096893310546875,0.5830078125,1382.0,0.0,0.0
1.7271091938018799,-46.44917615621745,-673.2092874593105,1437.3485026864955,0.07343890713704312,-0.0300756691082636,0.003881579705566805,8.845329284667969e-05,0.010607324369132275,-46.28442852612606,-673.5891186855581,1391.7608582893408,-0.0013967139326714095,0.04644917615621745,0.6732092874593105,0.06265149731350447,0.22239813497261066,0.0,0.0,1.5,0.0,1,44128.75991244417,23.364497007981377,-0.7376974526251914,181.80768812489418,44128.75991244417,23.364497007981377,-0.7376974526251914,181.80768812489418,,,,,,,,,,,
1.729322910308838,-46.68601641217681,-672.8593531863419,1437.4128889635087,0.07888344794629573,-0.025250450547225085,0.008897754184395115,8.392333984375e-05,0.010046277397109123,-46.28442852612606,-673.5891186855581,1391.7608582893408,-0.0013967139326714095,0.04668601641217681,0.6728593531863418,0.06258711103649126,0.5098037619107081,0.0,0.0,1.5,0.0,1,43586.54297740126,23.09533196027602,0.43906356928373813,203.19154177887742,43586.54297740126,23.09533196027602,0.43906356928373813,203.19154177887742,,,,,,,,,,,
1.7345287799835205,-47.15150829012779,-672.5652576094341,1437.5701953797518,0.07732995416729048,-0.026270919106189138,0.010234375280745752,0.00010657310485839844,0.00878301539355575,-47.15150829012779,-672.5652576094341,1391.3403759442187,0.010234375280745752,0.04715150829012779,0.6725652576094341,0.062429804620248205,0.5863865095397486,0.0,0.0,1.5,0.0,1,43800.75055976663,25.765452053348973,0.2511797300654257,30.180422696010552,43800.75055976663,25.765452053348973,0.2511797300654257,30.180422696010552,3.490234375,-0.84375,0.005832672119140625,-0.0230865478515625,1.001953125,0.0011854171752929688,0.01053619384765625,0.411865234375,1382.0,0.0,0.0
1.7374238967895508,-47.32464339532033,-672.1385733248254,1437.6638955841836,0.07370397729549133,-0.028020666985273737,0.011352787609619715,8.916854858398438e-05,0.008214537673153038,-47.15150829012779,-672.5652576094341,1391.3403759442187,0.010234375280745752,0.04732464339532033,0.6721385733248254,0.062336104415816405,0.6504668157396242,0.0,0.0,1.5,0.0,1,43490.72564656871,23.088653739655065,0.09490559260449016,44.88757272433456,43490.72564656871,23.088653739655065,0.09490559260449016,44.88757272433456,,,,,,,,,,,
1.7401316165924072,-47.52571433381249,-671.8375488275375,1437.7908049579123,0.0696094365208515,-0.03222154497425019,0.009991951646713931,7.724761962890625e-05,0.007691348595176907,-47.52571433381249,-671.8375488275375,1390.69316331859,0.009991951646713931,0.04752571433381249,0.6718375488275374,0.06220919504208768,0.5724966584555012,0.0,0.0,1.5,0.0,1,43415.241106463014,24.364324021638957,0.7227681274516791,-32.21656059281803,43415.241106463014,24.364324021638957,0.7227681274516791,-32.21656059281803,6.55859375,-2.8046875,0.01385498046875,-0.01197052001953125,1.0107421875,0.00982666015625,0.01036834716796875,0.2239990234375,1382.0,0.0,0.0
1.744394302368164,-47.82643579839852,-671.4280889748526,1437.7362274194832,0.07445354645755413,-0.025626489470308936,0.019872898241221966,8.845329284667969e-05,0.0070853498340036946,-47.52571433381249,-671.8375488275375,1390.69316331859,0.009991951646713931,0.04782643579839852,0.6714280889748526,0.062263772580516845,1.1386331959149751,0.0,0.0,1.5,0.0,1,44426.65015194711,24.437009122150315,1.4122490969399952,223.94574926981022,44426.65015194711,24.437009122150315,1.4122490969399952,223.94574926981022,,,,,,,,,,,
1.7473621368408203,-48.098064975464005,-671.0354068391092,1437.7426962259012,0.07233166940251123,-0.02479436053665519,0.021709874153802218,0.0002503395080566406,0.006762815746599318,-47.52571433381249,-671.8375488275375,1390.69316331859,0.009991951646713931,0.048098064975464004,0.6710354068391092,0.06225730377409877,1.2438841627730166,0.0,0.0,1.5,0.0,1,44089.774940130075,23.518323156320157,2.565811096871054,71.89259212604145,44089.774940130075,23.518323156320157,2.565811096871054,71.89259212604145,,,,,,,,,,,
1.749354600906372,-48.27969251868324,-670.7401503447568,1437.7510436494535,0.07266255535387353,-0.026396609523578717,0.021801672149131226,6.985664367675781e-05,0.006607761367852595,-47.52571433381249,-671.8375488275375,1390.69316331859,0.009991951646713931,0.04827969251868324,0.6707401503447568,0.06224895635054645,1.2491438004731303,0.0,0.0,1.5,0.0,1,44020.31609718923,23.027475177429302,3.1034615844775497,22.728325643715785,44020.31609718923,23.027475177429302,3.1034615844775497,22.728325643715785,,,,,,,,,,,
1.754504919052124,-48.4975558976916,-670.52814779681,1437.7698824494985,0.0721494846611196,-0.026972424195036274,0.01965956016296316,7.414817810058594e-05,0.006444507061304303,-48.4975558976916,-670.52814779681,1390.5126101910168,0.01965956016296316,0.0484975558976916,0.67052814779681,0.06223011755050152,1.1264098244213139,0.0,0.0,1.5,0.0,1,44264.336123582834,25.845125736043315,2.6158768875483442,-16.380103874148162,44264.336123582834,25.845125736043315,2.6158768875483442,-16.380103874148162,9.203125,-5.9296875,0.0340576171875,0.004924774169921875,1.0087890625,0.00934600830078125,0.010986328125,0.0892333984375,1382.0,0.0,0.0
1.7571008205413818,-48.69833189231423,-670.381421436815,1437.8184335087703,0.07155094622455355,-0.027785175915605472,0.015658932406161258,8.797645568847656e-05,0.006488188730471841,-48.4975558976916,-670.52814779681,1390.5126101910168,0.01965956016296316,0.04869833189231423,0.670381421436815,0.06218156649122966,0.897190738553675,0.0,0.0,1.5,0.0,1,43900.74027927867,25.05035178791355,4.791882567170652,-140.68085130909031,43900.74027927867,25.05035178791355,4.791882567170652,-140.68085130909031,,,,,,,,,,,
1.763730764389038,-48.82810401763213,-670.2800451888621,1437.868477398966,0.062272250292038235,-0.031541257755141654,0.008256574526003573,8.153915405273438e-05,0.00688167595243824,-48.4975558976916,-670.52814779681,1390.5126101910168,0.01965956016296316,0.04882810401763213,0.6702800451888621,0.06213152260103402,0.4730668735752329,0.0,0.0,1.5,0.0,1,44242.01143433966,26.313598946380548,3.6790197798752984,-88.95369399373337,44242.01143433966,26.313598946380548,3.6790197798752984,-88.95369399373337,,,,,,,,,,,
1.7658836841583252,-48.931452878480364,-670.2079722051074,1437.9671671984001,0.06492719877941172,-0.03477555778139483,0.008120727445808268,7.152557373046875e-05,0.0070744031312295124,-48.4975558976916,-670.52814779681,1390.5126101910168,0.01965956016296316,0.048931452878480365,0.6702079722051073,0.06203283280159985,0.4652834092208667,0.0,0.0,1.5,0.0,1,43537.45847132465,25.78470127535604,4.964242418392436,1.5248822907897788,43537.45847132465,25.78470127535604,4.964242418392436,1.5248822907897788,,,,,,,,,,,
1.7685763835906982,-49.160968001779764,-670.1549896506801,1438.0107627299417,0.06361483664891107,-0.03569291777238449,0.004146863258968332,7.43865966796875e-05,0.007347630811652966,-49.160968001779764,-670.1549896506801,1389.850939744796,0.004146863258968332,0.04916096800177976,0.6701549896506801,0.06198923727005831,0.23759776295675153,0.0,0.0,1.5,0.0,1,44125.95806002765,26.160996798317157,5.905595368167464,-115.68963206565914,44125.95806002765,26.160996798317157,5.905595368167464,-115.68963206565914,17.03125,-4.47265625,0.0792236328125,0.0249176025390625,0.98291015625,-0.015594482421875,0.005970001220703125,0.00972747802734375,1378.0,0.0,0.0
1.773376703262329,-49.41379786740544,-670.1372248438987,1438.0530748141932,0.06376791382754389,-0.034391342396790266,0.0033982124194197874,9.012222290039062e-05,0.007779413653844858,-49.160968001779764,-670.1549896506801,1389.850939744796,0.004146863258968332,0.04941379786740544,0.6701372248438987,0.06194692518580678,0.19470322952169417,0.0,0.0,1.5,0.0,1,44253.547846178786,26.54792536194736,5.2165028884766365,-10.924571080424755,44253.547846178786,26.54792536194736,5.2165028884766365,-10.924571080424755,,,,,,,,,,,
1.7755844593048096,-49.73017892901444,-670.0933246517745,1438.0974729678378,0.06328287805374155,-0.03380021692802975,0.002794789143761345,9.608268737792969e-05,0.007964540671145005,-49.160968001779764,-670.1549896506801,1389.850939744796,0.004146863258968332,0.04973017892901444,0.6700933246517745,0.061902527032162195,0.16012962256650617,0.0,0.0,1.5,0.0,1,44066.745803910504,26.120291045630264,7.391709158337239,-21.123723725514868,44066.745803910504,26.120291045630264,7.391709158337239,-21.123723725514868,,,,,,,,,,,
1.7788689136505127,-50.12281005052013,-670.0127417114907,1438.1132881308724,0.07605164588346026,-0.024758060422142746,0.008178025290793657,7.987022399902344e-05,0.00820850378133255,-50.12281005052013,-670.0127417114907,1389.038586462952,0.008178025290793657,0.05012281005052013,0.6700127417114906,0.061886711869127566,0.4685663339137243,0.0,0.0,1.5,0.0,1,44309.07109466305,26.048250791068018,6.419605317731692,141.4225664974325,44309.07109466305,26.048250791068018,6.419605317731692,141.4225664974325,15.296875,-0.1783447265625,0.08935546875,0.0238494873046875,0.98193359375,-0.018798828125,0.004791259765625,0.09075927734375,1378.0,0.0,0.0
1.784553050994873,-50.50987355837837,-669.9405098962139,1438.1118517030218,0.0769388308652597,-0.02080940890921087,0.010639923751663113,9.822845458984375e-05,0.008492721199866765,-50.12281005052013,-670.0127417114907,1389.038586462952,0.008178025290793657,0.05050987355837837,0.6699405098962139,0.06188814829697822,0.6096227253112974,0.0,0.0,1.5,0.0,1,44392.99450137484,26.351128947064854,4.952116538797386,47.29126660166952,44392.99450137484,26.351128947064854,4.952116538797386,47.29126660166952,,,,,,,,,,,
1.7871417999267578,-51.116087111206554,-669.7784430066016,1437.9905937220506,0.07607820915752632,-0.008937440330318366,0.01745414339023981,9.751319885253906e-05,0.008589091154772998,-50.12281005052013,-670.0127417114907,1389.038586462952,0.008178025290793657,0.051116087111206555,0.6697784430066016,0.06200940627794944,1.0000487512769034,0.0,0.0,1.5,0.0,1,45192.56533683415,25.034696246199328,9.014320155518394,241.85224250091085,45192.56533683415,25.034696246199328,9.014320155518394,241.85224250091085,,,,,,,,,,,
1.7968437671661377,-51.67537212434635,-669.5765732486992,1437.98231052687,0.07371091574163038,-0.006841481924106341,0.02159513149702069,0.003454923629760742,0.00902894433095147,-51.67537212434635,-669.5765732486992,1388.4190186291482,0.02159513149702069,0.05167537212434635,0.6695765732486992,0.06201768947313008,1.2373098928093167,0.0,0.0,1.5,0.0,1,44382.91023884386,26.17080189539667,4.483900519617456,53.51136779976714,44382.91023884386,26.17080189539667,4.483900519617456,53.51136779976714,11.2578125,2.921875,0.0921630859375,0.0219879150390625,0.99951171875,-0.0025234222412109375,0.0027523040771484375,0.25244140625,1378.0,0.0,0.0
1.8066027164459229,-52.159984337822905,-669.3926098695614,1438.0561184136614,0.07083490332425892,-0.009798582420252173,0.028193919049893202,0.0075643062591552734,0.009774697782574737,-51.67537212434635,-669.5765732486992,1388.4190186291482,0.02159513149702069,0.05215998433782291,0.6693926098695614,0.06194388158633865,1.6153925694923723,0.0,0.0,1.5,0.0,1,44231.58253101073,26.104783120512316,5.096491741914939,85.29654522386507,44231.58253101073,26.104783120512316,5.096491741914939,85.29654522386507,,,,,,,,,,,
1.8173446655273438,-52.73822231733448,-669.2199639769236,1438.203538312086,0.07518906165961105,-0.013982826659020441,0.02963174415769142,0.009263038635253906,0.011441261751707978,-52.73822231733448,-669.2199639769236,1387.80596973859,0.02963174415769142,0.05273822231733448,0.6692199639769236,0.06179646168791396,1.697773879847153,0.0,0.0,1.5,0.0,1,44160.12313511394,26.100284471697282,6.32374602935716,36.45192833334339,44160.12313511394,26.100284471697282,6.32374602935716,36.45192833334339,8.6640625,-0.54931640625,0.07244873046875,0.0093231201171875,1.0263671875,0.0270843505859375,-0.00788116455078125,0.75830078125,1375.0,0.0,0.0
1.8269248008728027,-53.402420799357884,-668.917515314284,1438.4705576078632,0.05458296543501716,-0.006200468650766787,0.031481870843210684,0.007337093353271484,0.01351124233770015,-53.402420799357884,-668.917515314284,1386.8149805698831,0.031481870843210684,0.053402420799357884,0.6689175153142839,0.06152944239213684,1.8037783304919344,0.0,0.0,1.5,0.0,1,43889.71221060477,25.547800724733108,7.994660854849915,43.50521086809313,43889.71221060477,25.547800724733108,7.994660854849915,43.50521086809313,3.462890625,0.66015625,0.054962158203125,-0.005649566650390625,1.0205078125,0.02130126953125,-0.0053558349609375,1.0625,1375.0,0.0,0.0
1.8363027572631836,-53.99975139774799,-668.8313060565205,1438.4642595926553,0.046745963626754754,-0.0044607682558980245,0.030301433774347703,0.007042407989501953,0.015727137616934422,-53.402420799357884,-668.917515314284,1386.8149805698831,0.031481870843210684,0.05399975139774799,0.6688313060565205,0.06153574040734475,1.736144268465292,0.0,0.0,1.5,0.0,1,44447.59619690284,26.018690808776828,8.72650794690529,14.491764316287417,44447.59619690284,26.018690808776828,8.72650794690529,14.491764316287417,,,,,,,,,,,
1.8467025756835938,-54.54577094950376,-668.8787456989922,1438.3879998363561,0.08383605119268527,-0.017722699594221927,0.04269262860062515,0.008913755416870117,0.018665680686932962,-54.54577094950376,-668.8787456989922,1386.058659180866,0.04269262860062515,0.05454577094950376,0.6688787456989922,0.06161200016364387,2.446107435135331,0.0,0.0,1.5,0.0,1,44588.43382500862,26.33753947860534,8.697598023451945,134.897579135262,44588.43382500862,26.33753947860534,8.697598023451945,134.897579135262,-7.40234375,-3.138671875,0.023162841796875,-0.046844482421875,1.013671875,0.01490020751953125,-0.0010404586791992188,1.6171875,1375.0,0.0,0.0
