time,x_pos,y_pos,z_pos,x_rot,y_rot,z_rot,delta_time,z_filtered,x_error,y_error,z_error,yaw_error,x_setpoint,y_setpoint,z_setpoint,yaw_setpoint,thrust_cal,pitch_cal,roll_cal,yaw_cal,thrust_lim,pitch_lim,roll_lim,yaw_lim
0.5410377979278564,4.51013207052287,18.42659131796253,-4.138582643138263,0.012963206271502804,0.00727619690074553,0.03538529308346549,0.0008945465087890625,0.03538529308346549,-0.00451013207052287,-0.01842659131796253,1.0041385826431384,2.0274279505160355,0.0,0.0,1.0,0.0,-20107358.82112878,-411.2907192771303,-100.18696062488523,2129.732311924267,10000,-40,-40,360
0.5422940254211426,4.557096691751437,18.545763153637473,-4.101104891925308,0.018105600041992236,0.0017751295993072061,0.0321016969660227,8.320808410644531e-05,0.0321016969660227,-0.0045570966917514374,-0.018545763153637474,1.0041011048919253,1.8392917513610203,0.0,0.0,1.0,0.0,70975.82070171027,-3.814832068101366,-1.3944924749160061,-200.25482372785524,65535,-3.814832068101366,-1.3944924749160061,-200.25482372785524
0.5448801517486572,4.476624373578571,18.519993865669672,-4.076892327441318,0.02302739249868276,-0.00038003568422261723,0.03805077189383006,0.00021600723266601562,0.03805077189383006,-0.004476624373578571,-0.018519993865669673,1.0040768923274412,2.1801486367314773,0.0,0.0,1.0,0.0,71288.65356492535,-0.4222901972811788,0.8154849064615748,230.15053970706035,65535,-0.4222901972811788,0.8154849064615748,230.15053970706035
0.5462825298309326,4.432113900200942,18.52524247631051,-4.020574714808203,0.01369057610138216,0.003997340879967891,0.0369698688645204,8.20159912109375e-05,0.0369698688645204,-0.004432113900200942,-0.01852524247631051,1.004020574714808,2.118217455089128,0.0,0.0,1.0,0.0,70761.45296176113,-0.8613062488081606,0.8434047672364261,-34.797266847992006,65535,-0.8613062488081606,0.8434047672364261,-34.797266847992006
0.5474669933319092,4.500099921203211,18.451796797822734,-4.12102605943326,0.010289021082826293,0.00591105780263241,0.03736656844203575,7.033348083496094e-05,0.03736656844203575,-0.004500099921203211,-0.018451796797822734,1.0041210260594333,2.1409466666153802,0.0,0.0,1.0,0.0,72906.90265402703,1.2477685990878165,-2.0189659627257717,60.956441675734894,65535,1.2477685990878165,-2.0189659627257717,60.956441675734894
0.5514225959777832,4.531565584418366,18.498354712166517,-3.9823222302170094,0.018754669274379642,-0.0011505122465176154,0.03695707732618648,0.0004673004150390625,0.03695707732618648,-0.004531565584418366,-0.01849835471216652,1.003982322230217,2.1174845539291143,0.0,0.0,1.0,0.0,70851.4522186496,-1.1159886798895182,-0.43530796906677216,22.88342021073015,65535,-1.1159886798895182,-0.43530796906677216,22.88342021073015
0.5538945198059082,4.432301483309503,18.488690434617773,-4.1215148440133325,0.00787956311341977,0.007823285279789802,0.03744111649927755,8.606910705566406e-05,0.03744111649927755,-0.004432301483309503,-0.018488690434617774,1.0041215148440132,2.145217955666235,0.0,0.0,1.0,0.0,72410.10171597458,-0.6142464798891722,1.1102033139565464,49.03820524758603,65535,-0.6142464798891722,1.1102033139565464,49.03820524758603
0.555241584777832,4.552903460809971,18.533809413874145,-4.0119469552809965,0.01635120532760866,0.0009200945544162713,0.03742736156854859,7.772445678710938e-05,0.03742736156854859,-0.004552903460809971,-0.018533809413874145,1.004011946955281,2.144429856187971,0.0,0.0,1.0,0.0,70091.32164532923,-1.8148795677390117,-3.052646979436118,31.287005985578908,65535,-1.8148795677390117,-3.052646979436118,31.287005985578908
0.5572452545166016,4.51749021996647,18.439260056253424,-4.125005061252019,0.010650918151127798,0.004978894371959967,0.03639584414627904,0.0003330707550048828,0.03639584414627904,-0.00451749021996647,-0.018439260056253425,1.004125005061252,2.085328261397712,0.0,0.0,1.0,0.0,72405.62972561187,0.7692213293709267,0.38346475050478673,-12.849566128018779,65535,0.7692213293709267,0.38346475050478673,-12.849566128018779
0.5592648983001709,4.52891878369448,18.419922609548,-4.097434842878484,0.01677988414615847,0.003176719608640701,0.0362070373967921,8.511543273925781e-05,0.0362070373967921,-0.00452891878369448,-0.018419922609548,1.0040974348428784,2.0745104315085263,0.0,0.0,1.0,0.0,71214.43909065262,-0.4300812151686044,-0.3624706825388727,23.07370176712068,65535,-0.4300812151686044,-0.3624706825388727,23.07370176712068
0.5606324672698975,4.479371715443689,18.494822464552488,-4.058915656244956,0.014917552277939165,0.0017050287223034435,0.03716412267264603,7.939338684082031e-05,0.03716412267264603,-0.004479371715443689,-0.018494822464552488,1.004058915656245,2.129347378449071,0.0,0.0,1.0,0.0,70984.69194206034,-2.494223678029167,0.981602741729973,92.18191468420429,65535,-2.494223678029167,0.981602741729973,92.18191468420429
0.5618095397949219,4.516449093382232,18.406737381785586,-4.167583740422226,0.01135329628617359,0.004782172744293054,0.03599631478041352,6.246566772460938e-05,0.03599631478041352,-0.004516449093382232,-0.018406737381785585,1.0041675837404223,2.0624369149420794,0.0,0.0,1.0,0.0,73035.53403418086,1.6657174368020469,-1.1927469259294317,-54.66007846249805,65535,1.6657174368020469,-1.1927469259294317,-54.66007846249805
0.5638537406921387,4.505447686413082,18.434832011433986,-4.166774315439594,0.013429697018834764,0.0066107787783518945,0.03703319093985141,0.00015783309936523438,0.03703319093985141,-0.004505447686413082,-0.018434832011433987,1.0041667743154397,2.1218455427556044,0.0,0.0,1.0,0.0,71445.05754846662,-1.1759600820868061,-0.008562031125121577,75.26873008568195,65535,-1.1759600820868061,-0.008562031125121577,75.26873008568195
0.5671002864837646,4.561817129228974,18.422279844627568,-4.183331237117766,0.012648135381773144,0.005009758426473804,0.037439205237372215,0.0001087188720703125,0.037439205237372215,-0.004561817129228974,-0.01842227984462757,1.0041833312371178,2.1451084484255154,0.0,0.0,1.0,0.0,71536.81734959476,-0.6144014954984596,-0.7324711253679789,42.81849013468603,65535,-0.6144014954984596,-0.7324711253679789,42.81849013468603
0.568495512008667,4.513347520736713,18.45957105623717,-4.099291755542878,0.012931163024864632,0.0024808983809742045,0.03647968752677889,0.00023436546325683594,0.03647968752677889,-0.0045133475207367124,-0.01845957105623717,1.004099291755543,2.0901321332404628,0.0,0.0,1.0,0.0,70404.35044399874,-1.6154008370992665,0.9597782339436868,-29.296986619469603,65535,-1.6154008370992665,0.9597782339436868,-29.296986619469603
0.5702934265136719,4.437343830143822,18.532458417676068,-4.0181786277701725,0.020811850527533014,-0.0006420231242660168,0.03799402407462473,0.0006766319274902344,0.03799402407462473,-0.0044373438301438224,-0.01853245841767607,1.0040181786277702,2.1768972261944404,0.0,0.0,1.0,0.0,70692.38863572905,-2.037717108539008,1.173995736856869,104.95528152614311,65535,-2.037717108539008,1.173995736856869,104.95528152614311
0.571544885635376,4.531288743349771,18.513433984307913,-4.066336589801941,0.01889623841687063,-0.00047206076087655296,0.04008137763212428,0.00017118453979492188,0.04008137763212428,-0.004531288743349771,-0.018513433984307912,1.004066336589802,2.296493775390782,0.0,0.0,1.0,0.0,72118.73505213445,-0.25333716414976576,-2.587563154249187,178.04214461189602,65535,-0.25333716414976576,-2.587563154249187,178.04214461189602
0.574063777923584,4.546135139973371,18.490439496345903,-4.0337990004735005,0.027325339159976533,-0.001792595713477243,0.03562299544085677,0.000202178955078125,0.03562299544085677,-0.004546135139973371,-0.018490439496345903,1.0040337990004735,2.0410472923748664,0.0,0.0,1.0,0.0,71225.49955664708,-0.4477443123312087,-0.3702934502184234,-121.37316031830942,65535,-0.4477443123312087,-0.3702934502184234,-121.37316031830942
0.5752122402191162,4.5125682029873815,18.469923411331607,-4.008807525605693,0.01909920874658942,-0.001770566347555129,0.03702926244413611,6.532669067382812e-05,0.03702926244413611,-0.004512568202987382,-0.018469923411331607,1.0040088075256057,2.1216204565312826,0.0,0.0,1.0,0.0,71073.955975598,-0.16596100591995,0.7573153439410066,137.36720026268296,65535,-0.16596100591995,0.7573153439410066,137.36720026268296
0.5787913799285889,4.497276994832536,18.507160279262237,-4.064343523817458,0.01829385261965847,0.002384717540918335,0.03402767099337066,0.00011038780212402344,0.03402767099337066,-0.0044972769948325355,-0.018507160279262237,1.0040643435238175,1.9496419345798723,0.0,0.0,1.0,0.0,71709.7934847476,-1.0712258769025234,-0.04412662805561829,-42.28752117317894,65535,-1.0712258769025234,-0.04412662805561829,-42.28752117317894
0.5811333656311035,4.530519226170976,18.522979296583312,-4.032972372363324,0.0188840407318655,-0.0026286472400384917,0.03667348521034947,0.0002048015594482422,0.03667348521034947,-0.004530519226170976,-0.018522979296583312,1.0040329723723633,2.1012359225884687,0.0,0.0,1.0,0.0,71218.32563923646,-0.9581922545513578,-0.6380341983389366,129.2184881750913,65535,-0.9581922545513578,-0.6380341983389366,129.2184881750913
0.5852229595184326,4.490008226106088,18.491379711678817,-3.94902881119663,0.02504948851965514,-0.0016159598137262564,0.036454518597627314,9.059906005859375e-05,0.036454518597627314,-0.004490008226106088,-0.01849137971167882,1.0039490288111965,2.0886900598252134,0.0,0.0,1.0,0.0,71093.03019377083,-0.4922380555990999,0.13764655745538593,26.72550033107173,65535,-0.4922380555990999,0.13764655745538593,26.72550033107173
0.5866584777832031,4.510324958894751,18.421756849998452,-4.123635491874485,0.017890682232707067,0.0012458758743694256,0.037040131610523906,7.748603820800781e-05,0.037040131610523906,-0.0045103249588947505,-0.01842175684999845,1.0041236354918743,2.1222432138921286,0.0,0.0,1.0,0.0,73528.88518631809,0.8208263940442735,-0.635269664790716,67.07541656785068,65535,0.8208263940442735,-0.635269664790716,67.07541656785068
0.5885682106018066,4.488499969801628,18.57333560096243,-4.027641997541244,0.022853977635818094,-0.003704557799510098,0.04001073401898545,0.0007565021514892578,0.04001073401898545,-0.004488499969801629,-0.01857333560096243,1.0040276419975411,2.2924461945083725,0.0,0.0,1.0,0.0,70621.5589838508,-3.275871119190754,0.18493685198603457,167.590395320406,65535,-3.275871119190754,0.18493685198603457,167.590395320406
0.5900857448577881,4.472108781958798,18.50469559840049,-4.108465872289507,0.02379093267155698,-0.0020007162329363677,0.03924361089080719,0.0001976490020751953,0.03924361089080719,-0.004472108781958798,-0.01850469559840049,1.0041084658722894,2.248493276896885,0.0,0.0,1.0,0.0,72356.28511082094,0.7110889866779642,0.16789811900632298,-9.861479665005085,65535,0.7110889866779642,0.16789811900632298,-9.861479665005085
0.5924293994903564,4.465950323560142,18.45556269714379,-4.085660664710559,0.014684763802544912,0.001947809462122566,0.036984091424823944,8.344650268554688e-05,0.036984091424823944,-0.004465950323560142,-0.01845556269714379,1.0040856606647106,2.1190323477683912,0.0,0.0,1.0,0.0,71280.06790053964,-0.06709423832307837,-0.09451687572989709,-51.115048048719515,65535,-0.06709423832307837,-0.09451687572989709,-51.115048048719515
0.5936119556427002,4.453724340488538,18.485719146482985,-4.053459107117753,0.014633281422037599,0.00791014526516911,0.03560869323268884,6.461143493652344e-05,0.03560869323268884,-0.0044537243404885385,-0.018485719146482987,1.0040534591071177,2.040227836209126,0.0,0.0,1.0,0.0,70986.16097174001,-1.5587668457893236,0.15429504389202434,-69.84129823413366,65535,-1.5587668457893236,0.15429504389202434,-69.84129823413366
0.5964219570159912,4.548266551166957,18.39870844454337,-4.223202794133872,0.015214785235254123,0.004796862858457919,0.03814756277664564,0.0006916522979736328,0.03814756277664564,-0.004548266551166957,-0.01839870844454337,1.0042232027941338,2.185694345812155,0.0,0.0,1.0,0.0,72478.18614760456,0.252153762736114,-1.2554704858499521,110.2262803624264,65535,0.252153762736114,-1.2554704858499521,110.2262803624264
0.5975863933563232,4.433196970491795,18.531342543539335,-4.059147050059066,0.011806107111673247,0.007241660712971974,0.038399223008410664,7.271766662597656e-05,0.038399223008410664,-0.004433196970491795,-0.018531342543539334,1.004059147050059,2.200113414963575,0.0,0.0,1.0,0.0,69116.84852535797,-4.400420695074633,2.9959570359395187,51.6255852579407,65535,-4.400420695074633,2.9959570359395187,51.6255852579407
0.6022977828979492,4.526564613931074,18.45206902830711,-4.062887834040808,0.01688402353914138,0.006686393657238107,0.03363874237489737,0.0002377033233642578,0.03363874237489737,-0.004526564613931074,-0.01845206902830711,1.0040628878340407,1.9273579662094988,0.0,0.0,1.0,0.0,71460.25776330927,-0.20093054460147242,-0.8135560469876733,-57.68777870006126,65535,-0.20093054460147242,-0.8135560469876733,-57.68777870006126
0.6039109230041504,4.437048741304867,18.47624455639969,-4.045432447265156,0.014964616055780693,-0.0007408036731448122,0.03924645631738977,0.00035262107849121094,0.03924645631738977,-0.004437048741304867,-0.01847624455639969,1.0040454324472652,2.248656307830981,0.0,0.0,1.0,0.0,71270.24625460645,-1.2211155159933191,1.6085470445245327,334.5385319961142,65535,-1.2211155159933191,1.6085470445245327,334.5385319961142
0.6060843467712402,4.4836801033993705,18.525182382461388,-3.9912739903498866,0.02167118532691151,-0.0028017231693701194,0.036409350016043895,0.0003418922424316406,0.036409350016043895,-0.00448368010339937,-0.018525182382461387,1.0039912739903498,2.0861020907338914,0.0,0.0,1.0,0.0,71028.02260450518,-1.4601143488631778,-0.8644123829745807,-80.6137869977604,65535,-1.4601143488631778,-0.8644123829745807,-80.6137869977604
0.6083474159240723,4.493573309459104,18.406245517972156,-4.196009584565616,0.008616807681116717,0.00677318842824345,0.0369614962579746,8.153915405273438e-05,0.0369614962579746,-0.004493573309459104,-0.018406245517972156,1.0041960095845657,2.11773774007053,0.0,0.0,1.0,0.0,72992.7061019657,0.948189952119392,-0.3198995335999515,52.77232423645552,65535,0.948189952119392,-0.3198995335999515,52.77232423645552
0.609769344329834,4.5002946500854994,18.45812188575683,-4.060209829065329,0.016888773379801544,0.0014592709072774512,0.036021066168855746,7.009506225585938e-05,0.036021066168855746,-0.0045002946500854995,-0.01845812188575683,1.0040602098290654,2.0638550650369076,0.0,0.0,1.0,0.0,69824.12736994393,-1.910501343603889,-0.33185879290274634,-26.141799952749356,65535,-1.910501343603889,-0.33185879290274634,-26.141799952749356
0.6109132766723633,4.441946450313274,18.45423781745638,-4.101124976631608,0.007253215490046149,0.006938750827059207,0.036814093847604715,6.651878356933594e-05,0.036814093847604715,-0.004441946450313274,-0.018454237817456382,1.0041011249766316,2.1092922040662803,0.0,0.0,1.0,0.0,72062.65107680105,-0.6293363555619461,1.4586286205328538,91.3689611991431,65535,-0.6293363555619461,1.4586286205328538,91.3689611991431
0.6142561435699463,4.476580476554025,18.477647027247933,-4.179549569318103,0.00785238726933095,0.004938305938504556,0.037911480815882574,0.00023937225341796875,0.037911480815882574,-0.0044765804765540245,-0.018477647027247933,1.004179549569318,2.1721678458412583,0.0,0.0,1.0,0.0,71848.92530905071,-0.9624606086435743,-0.5094235568864736,60.68961827729035,65535,-0.9624606086435743,-0.5094235568864736,60.68961827729035
0.6170659065246582,4.499463899800488,18.4120918826672,-4.172447141073045,0.009312464984140963,0.006093859732460756,0.036592001852228655,7.224082946777344e-05,0.036592001852228655,-0.004499463899800488,-0.0184120918826672,1.004172447141073,2.096567270067593,0.0,0.0,1.0,0.0,71406.07135507045,0.004206834360561129,-0.43846711658810733,-8.578226289782297,65535,0.004206834360561129,-0.43846711658810733,-8.578226289782297
0.618617057800293,4.48986282358493,18.477004168573938,-4.021730685256074,0.01726532841327967,-0.003981296214534551,0.03703677692955103,8.177757263183594e-05,0.03703677692955103,-0.004489862823584929,-0.018477004168573938,1.0040217306852561,2.12205100483077,0.0,0.0,1.0,0.0,69780.38120321311,-2.097629914706241,0.02134648752551488,56.82761508465329,65535,-2.097629914706241,0.02134648752551488,56.82761508465329
0.6206331253051758,4.526358804265327,18.450278352017342,-4.071854409609113,0.016388730896093655,0.006954949909015957,0.03333575566295092,0.0006709098815917969,0.03333575566295092,-0.004526358804265327,-0.018450278352017343,1.0040718544096092,1.9099981063664213,0.0,0.0,1.0,0.0,71869.76386466731,-0.31380602798195273,-0.7604732790756199,-129.15952454371788,65535,-0.31380602798195273,-0.7604732790756199,-129.15952454371788
0.6228444576263428,4.513931264015155,18.441540357815374,-4.127888899621434,0.012330468747629728,0.00855857369719697,0.033264939242395444,7.367134094238281e-05,0.033264939242395444,-0.004513931264015155,-0.018441540357815374,1.0041278888996215,1.9059406243483692,0.0,0.0,1.0,0.0,71880.12418933726,-0.6108593947142311,-0.00015532356442396478,25.827591668626006,65535,-0.6108593947142311,-0.00015532356442396478,25.827591668626006
0.6242990493774414,4.46904916874994,18.44983051485137,-4.018045375069038,0.016269145469480908,-4.5068981864286175e-05,0.037155455950541184,7.152557373046875e-05,0.037155455950541184,-0.00446904916874994,-0.01844983051485137,1.0040180453750691,2.1288508118502505,0.0,0.0,1.0,0.0,70163.79735034352,-0.9205204584770355,0.808774566754372,261.9146638864838,65535,-0.9205204584770355,0.808774566754372,261.9146638864838
0.6262307167053223,4.485580207298232,18.434167846681973,-4.121436213623749,0.00853962389896246,0.007687504403310349,0.03681495100749129,0.0006322860717773438,0.03681495100749129,-0.004485580207298232,-0.018434167846681972,1.0041214362136237,2.109341315710149,0.0,0.0,1.0,0.0,72355.2849061577,-0.47860160602452834,-0.45260203560442624,16.529552636351546,65535,-0.47860160602452834,-0.45260203560442624,16.529552636351546
0.628533124923706,4.503720970558526,18.508332070005743,-4.090643494092519,0.02153905663240906,0.008113420526029837,0.03597311807148351,0.0003142356872558594,0.03597311807148351,-0.004503720970558526,-0.018508332070005743,1.0040906434940926,2.0611078414217965,0.0,0.0,1.0,0.0,71226.98727610719,-1.7726005806744514,-0.4326441233792797,-0.5527156994549749,65535,-1.7726005806744514,-0.4326441233792797,-0.5527156994549749
0.6299912929534912,4.436521119570064,18.542004932595567,-3.9644655137396994,0.019224052326105006,0.0020007966394816703,0.038211728510311,7.033348083496094e-05,0.038211728510311,-0.004436521119570064,-0.018542004932595568,1.0039644655137396,2.1893707715405406,0.0,0.0,1.0,0.0,69978.58800618375,-1.4813684316839262,1.2994363750649098,164.97754884560746,65535,-1.4813684316839262,1.2994363750649098,164.97754884560746
0.6318988800048828,4.490489223104512,18.575807778222337,-4.037794511929872,0.013642078394447475,0.0006598268057093198,0.03858498423414922,0.0006012916564941406,0.03858498423414922,-0.004490489223104512,-0.018575807778222337,1.0040377945119299,2.2107567491955713,0.0,0.0,1.0,0.0,72104.82569482995,-1.3095834025324562,-1.0839237188445792,49.96106873495053,65535,-1.3095834025324562,-1.0839237188445792,49.96106873495053
0.6342215538024902,4.520135641114515,18.485762255419115,-4.091582505954734,0.014300392651990887,0.0081733238151486,0.03562014453470688,7.62939453125e-05,0.03562014453470688,-0.004520135641114515,-0.018485762255419116,1.0040915825059549,2.04088394748469,0.0,0.0,1.0,0.0,71841.19016334401,0.5017839995871326,-0.5893766206996149,-79.12565212983208,65535,0.5017839995871326,-0.5893766206996149,-79.12565212983208
0.6355409622192383,4.4901260244580365,18.44321158008748,-4.041907355328553,0.018574773922251438,0.00047263829495811153,0.037056420604447714,6.747245788574219e-05,0.037056420604447714,-0.004490126024458037,-0.01844321158008748,1.0040419073553286,2.123176504496477,0.0,0.0,1.0,0.0,70803.87446159164,0.2959466441047217,0.5496766113453275,125.60715527609447,65535,0.2959466441047217,0.5496766113453275,125.60715527609447
0.6367518901824951,4.5483573358447105,18.452091953784844,-4.1509213240254335,0.019109552368742795,0.0008313573895394282,0.03925295100617511,6.937980651855469e-05,0.03925295100617511,-0.004548357335844711,-0.018452091953784843,1.0041509213240254,2.249028426087632,0.0,0.0,1.0,0.0,72990.33469756982,-0.9729415267131984,-1.721968640779584,189.753520422093,65535,-0.9729415267131984,-1.721968640779584,189.753520422093
0.6392412185668945,4.493518529718448,18.575168441694995,-4.001991450580691,0.016115245251804338,-7.84136341579904e-05,0.03678664682916112,0.0003402233123779297,0.03678664682916112,-0.004493518529718448,-0.018575168441694996,1.0040019914505807,2.1077196057492444,0.0,0.0,1.0,0.0,70444.57684475543,-2.3210585696815755,0.5230511966036295,-53.25659021646965,65535,-2.3210585696815755,0.5230511966036295,-53.25659021646965
0.6415965557098389,4.510577821166299,18.449085966862345,-4.07821750866691,0.017998995730921515,0.0065949308013896904,0.035771278455279075,0.00018262863159179688,0.035771278455279075,-0.004510577821166299,-0.018449085966862344,1.0040782175086669,2.049543283274742,0.0,0.0,1.0,0.0,72000.1763154562,0.9786629878476938,-0.41280506143290807,-6.408066046265052,65535,0.9786629878476938,-0.41280506143290807,-6.408066046265052
0.6430222988128662,4.4903702909695395,18.42905618368013,-4.165902429294469,0.00742666438648891,0.008110481471921423,0.0361686161675422,6.914138793945312e-05,0.0361686161675422,-0.00449037029096954,-0.018429056183680133,1.0041659024292944,2.0723090572288028,0.0,0.0,1.0,0.0,72494.28294191249,-0.28752986884762105,0.27408354759514664,55.04413153222272,65535,-0.28752986884762105,0.27408354759514664,55.04413153222272
0.6447763442993164,4.542127243451,18.44782170558118,-4.1800835168443236,0.012858430125707995,0.009000794080128598,0.038506638850155005,0.0003190040588378906,0.038506638850155005,-0.004542127243451,-0.01844782170558118,1.0041800835168444,2.206267889348371,0.0,0.0,1.0,0.0,71592.22710198839,-1.0798441354364954,-1.124505471153014,147.48002513876654,65535,-1.0798441354364954,-1.124505471153014,147.48002513876654
0.6474552154541016,4.503960501088744,18.46119856436989,-4.093509817402561,0.01551972639847894,0.001986267753921228,0.037846978635682975,7.414817810058594e-05,0.037846978635682975,-0.004503960501088744,-0.01846119856436989,1.0040935098174026,2.168472143146429,0.0,0.0,1.0,0.0,70898.89335904554,-0.8982247152363056,0.2756747749220442,11.369481451699905,65535,-0.8982247152363056,0.2756747749220442,11.369481451699905
0.6487360000610352,4.545521008541546,18.477789227073224,-4.300531170154191,0.0196641648623052,0.01615873722895873,0.03866380166399233,7.009506225585938e-05,0.03866380166399233,-0.004545521008541546,-0.018477789227073223,1.004300531170154,2.21527265527765,0.0,0.0,1.0,0.0,74215.00416229246,-1.1543971069523367,-1.222715948541364,88.1830582597441,65535,-1.1543971069523367,-1.222715948541364,88.1830582597441
0.6498746871948242,4.562314977482921,18.51148197308414,-4.101657752229877,0.022506139843986257,-0.0011791767624013496,0.04123229182640158,5.936622619628906e-05,0.04123229182640158,-0.004562314977482921,-0.01851148197308414,1.00410165775223,2.3624363013045717,0.0,0.0,1.0,0.0,68474.31518161965,-1.6904936948196863,-0.65613167357165,230.02956759185787,65535,-1.6904936948196863,-0.65613167357165,230.02956759185787
0.6528167724609375,4.511140604105882,18.47768523834879,-4.087754101009343,0.020747785105104524,0.003330481578361077,0.03940969271964827,7.390975952148438e-05,0.03940969271964827,-0.004511140604105882,-0.01847768523834879,1.0040877541010094,2.258009064743293,0.0,0.0,1.0,0.0,71366.26063539452,-0.37216670819132364,0.3749892882156627,-19.242181250101787,65535,-0.37216670819132364,0.3749892882156627,-19.242181250101787
0.6561670303344727,4.4498840878104895,18.523207631347702,-4.008343798673715,0.01575079287865266,0.003482624791849108,0.036818904719142426,7.176399230957031e-05,0.036818904719142426,-0.004449884087810489,-0.018523207631347703,1.0040083437986738,2.1095678467011707,0.0,0.0,1.0,0.0,71044.2336640868,-1.1757665488975868,0.4072214093797853,-34.84597339291956,65535,-1.1757665488975868,0.4072214093797853,-34.84597339291956
0.6575982570648193,4.501480975476364,18.46326558552261,-4.1239855894246125,0.011349525441534775,0.006861759275626517,0.03603131098588877,7.62939453125e-05,0.03603131098588877,-0.004501480975476363,-0.01846326558552261,1.0041239855894246,2.064442049814784,0.0,0.0,1.0,0.0,72823.47497879686,0.5994512828348761,-1.3313837667638329,-16.241045603898815,65535,0.5994512828348761,-1.3313837667638329,-16.241045603898815
0.6596794128417969,4.510213142700105,18.45265714136045,-4.031276465029933,0.019424529396027623,0.0014495966792367576,0.03522199365858239,0.00030493736267089844,0.03522199365858239,-0.004510213142700105,-0.018452657141360452,1.0040312764650299,2.01807158267332,0.0,0.0,1.0,0.0,70689.1826850712,-0.5752326557002196,-0.31447528906726907,-3.089446982594879,65535,-0.5752326557002196,-0.31447528906726907,-3.089446982594879
0.6618080139160156,4.494397918484391,18.472470693039426,-4.17526884889947,0.015402159996331514,0.004679692239469461,0.0393223993574719,0.00019311904907226562,0.0393223993574719,-0.004494397918484391,-0.018472470693039426,1.0041752688488994,2.25300752351108,0.0,0.0,1.0,0.0,72603.42685659628,-1.0373980857710157,0.058513650171688414,199.6861492835718,65535,-1.0373980857710157,0.058513650171688414,199.6861492835718
0.6631851196289062,4.545400276900798,18.411125999477598,-4.15713513378994,0.011094464767035298,0.0009747154418124912,0.036975987939732446,0.00017714500427246094,0.036975987939732446,-0.004545400276900798,-0.0184111259994776,1.00415713513379,2.1185680522733015,0.0,0.0,1.0,0.0,71229.50498065082,0.6917501715949984,-1.3696384419786636,-115.09073046711583,65535,0.6917501715949984,-1.3696384419786636,-115.09073046711583
0.6650621891021729,4.474724893339824,18.483552523083553,-4.119035263619087,0.015133728310333034,0.008925870608538923,0.03936777660815688,0.0006220340728759766,0.03936777660815688,-0.004474724893339823,-0.018483552523083552,1.0041190352636191,2.2556074484612365,0.0,0.0,1.0,0.0,71116.07626869656,-1.970306194291651,1.022060562012998,142.97048278805286,65535,-1.970306194291651,1.022060562012998,142.97048278805286
0.6672377586364746,4.495260977581472,18.436887889363305,-4.128813613410297,0.012370118301912586,0.004991868719260051,0.03784687370511678,7.367134094238281e-05,0.03784687370511678,-0.0044952609775814716,-0.018436887889363304,1.0041288136134103,2.168466131067844,0.0,0.0,1.0,0.0,71524.01380236998,-0.0502667032107067,-0.48226918692841236,-27.64705744267104,65535,-0.0502667032107067,-0.48226918692841236,-27.64705744267104
0.66849684715271,4.4780956183752325,18.490417869615325,-4.073176935362049,0.009169713091389102,0.008004296149648042,0.03735986097537218,6.961822509765625e-05,0.03735986097537218,-0.004478095618375233,-0.018490417869615326,1.0040731769353621,2.1405623570843333,0.0,0.0,1.0,0.0,70704.37823522238,-2.103449730978854,0.25813096990634105,-1.203778353640736,65535,-2.103449730978854,0.25813096990634105,-1.203778353640736
0.6704990863800049,4.476769611464329,18.53715464468632,-4.102623243243439,0.01711538640812617,0.007416366634633301,0.03774710211908244,0.0006358623504638672,0.03774710211908244,-0.004476769611464329,-0.018537154644686322,1.0041026232432435,2.16274964027275,0.0,0.0,1.0,0.0,71701.66130651324,-1.4868407204923084,-0.1579262395026776,49.02754640298201,65535,-1.4868407204923084,-0.1579262395026776,49.02754640298201
0.6731483936309814,4.540722857767924,18.4587386538159,-4.146119892111034,0.009548951522694532,0.008229946008562151,0.03522435335493185,0.00016808509826660156,0.03522435335493185,-0.004540722857767924,-0.0184587386538159,1.004146119892111,2.018206783315077,0.0,0.0,1.0,0.0,71729.25043646264,0.20923451196358067,-0.9545137888913865,-51.61658980034093,65535,0.20923451196358067,-0.9545137888913865,-51.61658980034093
0.674569845199585,4.512878908627479,18.485672410041204,-4.097357854655519,0.014199244851634416,0.007256594454672513,0.034105772591419524,7.152557373046875e-05,0.034105772591419524,-0.0045128789086274785,-0.018485672410041204,1.0040973578546555,1.9541168265212994,0.0,0.0,1.0,0.0,70867.97832020202,-1.3461720402529767,0.44652370140291325,-38.33111678687315,65535,-1.3461720402529767,0.44652370140291325,-38.33111678687315
0.6764612197875977,4.527645795063689,18.486762066016656,-4.121338658571603,0.015546605112764388,0.00042922019870070434,0.03950346307923248,0.0006313323974609375,0.03950346307923248,-0.00452764579506369,-0.018486762066016654,1.0041213386585717,2.263381710590892,0.0,0.0,1.0,0.0,71664.42134282121,-0.7579062760765117,-0.4310399991546633,279.31345081257643,65535,-0.7579062760765117,-0.4310399991546633,279.31345081257643
0.6785962581634521,4.485582215168658,18.536274249584366,-4.073017857570083,0.013066216078125636,0.009025580366466321,0.031912716330062346,8.940696716308594e-05,0.031912716330062346,-0.004485582215168658,-0.018536274249584365,1.00407301785757,1.8284639585107938,0.0,0.0,1.0,0.0,71068.75799251914,-1.4808159885389078,0.44829275820864195,-276.737769483037,65535,-1.4808159885389078,0.44829275820864195,-276.737769483037
0.6801204681396484,4.511281894898645,18.558258603194982,-4.056021916732761,0.021931892587126276,-0.003809564640594552,0.04604056991855539,0.00021147727966308594,0.04604056991855539,-0.0045112818948986454,-0.01855825860319498,1.0040560219167327,2.6379303427102,0.0,0.0,1.0,0.0,71259.29202369791,-1.206129462827176,-0.7231436332041496,841.1937213408199,65535,-1.206129462827176,-0.7231436332041496,360
0.6823198795318604,4.540163590145005,18.361913934446758,-3.960214900816654,0.011233829701223328,0.0029713951290043497,0.0457772997174536,0.0007698535919189453,0.0457772997174536,-0.004540163590145005,-0.018361913934446757,1.0039602149008167,2.622846071315507,0.0,0.0,1.0,0.0,70715.53737020698,2.1181901826415386,-0.6011796052742435,29.073020063156335,65535,2.1181901826415386,-0.6011796052742435,29.073020063156335
0.6848411560058594,4.5424680425514286,18.545434177840264,-4.109418230457687,0.009943588752685946,0.007993514936135409,0.047134585333778144,7.367134094238281e-05,0.047134585333778144,-0.0045424680425514286,-0.018545434177840263,1.0041094182304577,2.700612808724716,0.0,0.0,1.0,0.0,72479.06175788709,-3.073257983325955,-0.21096893711554587,86.81050817833871,65535,-3.073257983325955,-0.21096893711554587,86.81050817833871
0.6862058639526367,4.58753285112057,18.380664061380195,-4.302531983020981,0.007449612934542937,0.018647851777313897,0.038227676816483064,6.699562072753906e-05,0.038227676816483064,-0.00458753285112057,-0.018380664061380194,1.004302531983021,2.1902845421745822,0.0,0.0,1.0,0.0,73899.87895282632,3.1391726445465173,-1.2438968643437507,-530.3290040225188,65535,3.1391726445465173,-1.2438968643437507,-360
0.6882050037384033,4.488775131466055,18.412708193520725,-4.0519501170133685,0.019043277502881255,-0.00015308064435327055,0.04863206461502869,0.0003032684326171875,0.04863206461502869,-0.0044887751314660555,-0.018412708193520724,1.0040519501170133,2.786412051448657,0.0,0.0,1.0,0.0,69329.80009624458,-1.2482754162265093,1.3969281520308292,487.64853395616063,65535,-1.2482754162265093,1.3969281520308292,360
0.690333366394043,4.463126380584262,18.424259505841974,-4.102561425177636,-0.004205095714221134,0.021747641372360942,0.047811265545186776,6.985664367675781e-05,0.047811265545186776,-0.004463126380584262,-0.018424259505841974,1.0041025614251777,2.739383728918451,0.0,0.0,1.0,0.0,71853.44132397996,-0.910858995663993,0.20762380281279014,7.890955445379319,65535,-0.910858995663993,0.20762380281279014,7.890955445379319
0.6916699409484863,4.499483656444365,18.417155964634723,-4.090947890504145,0.002016693240618676,0.006813722227888101,0.03971386950307658,0.00021219253540039062,0.03971386950307658,-0.004499483656444365,-0.018417155964634724,1.0040909478905042,2.2754371106596,0.0,0.0,1.0,0.0,71301.9103194054,-0.5665843364281113,-1.0507486114634081,-486.54267365126526,65535,-0.5665843364281113,-1.0507486114634081,-360
0.6931121349334717,4.485642589396733,18.2985200167333,-4.3266481771740475,0.008692711371324742,0.012229857420746159,0.03801847533941011,0.00036144256591796875,0.03801847533941011,-0.0044856425893967326,-0.018298520016733297,1.004326648177174,2.178298180470399,0.0,0.0,1.0,0.0,74246.95104385537,1.9034526760694654,0.12819419578311986,-68.57557785166327,65535,1.9034526760694654,0.12819419578311986,-68.57557785166327
0.6945831775665283,4.426322511018435,18.21814909384652,-4.27257191731546,0.02260590431168392,0.010955579877064501,0.029854572427847028,7.367134094238281e-05,0.029854572427847028,-0.004426322511018436,-0.01821814909384652,1.0042725719173153,1.71054099928327,0.0,0.0,1.0,0.0,70833.97191502838,1.0159291659770842,1.1100156648222623,-449.9194099174815,65535,1.0159291659770842,1.1100156648222623,-360
0.6978964805603027,4.259092864674169,18.335383025165193,-4.057826344548925,0.021792812442717253,-0.0035384828047502303,0.037866014098246664,0.00019121170043945312,0.037866014098246664,-0.004259092864674169,-0.018335383025165193,1.004057826344549,2.1695627948124074,0.0,0.0,1.0,0.0,70358.14684138783,-1.8658278367389076,1.4448624790350106,240.32208999849118,65535,-1.8658278367389076,1.4448624790350106,240.32208999849118
0.6992640495300293,4.298457626782702,18.319603504531877,-4.500656936980675,0.03690862124213126,0.018449795670725758,0.037310393783743574,0.00016951560974121094,0.037310393783743574,-0.0042984576267827024,-0.018319603504531875,1.0045006569369808,2.137728095779649,0.0,0.0,1.0,0.0,76980.13190899145,-0.3630405283912804,-1.094489192703201,-2.92475086201965,65535,-0.3630405283912804,-1.094489192703201,-2.92475086201965
0.7012124061584473,4.4030106800715325,18.33504743966513,-3.995822805980321,0.004543858041807135,0.011227576682895864,0.04239543887714402,0.0006508827209472656,0.04239543887714402,-0.004403010680071533,-0.018335047439665127,1.0039958228059802,2.429079718265202,0.0,0.0,1.0,0.0,67057.72209421385,-0.986589864481014,-1.890163821350867,260.33089632319843,65535,-0.986589864481014,-1.890163821350867,260.33089632319843
0.7033190727233887,4.460724226221604,18.444376021487813,-4.090923041930904,0.0047584598673554275,0.02352240451877992,0.05090875227807254,0.00017905235290527344,0.05090875227807254,-0.004460724226221604,-0.018444376021487813,1.0040909230419308,2.916856645810572,0.0,0.0,1.0,0.0,72232.6691389684,-2.4001556750164204,-1.0559843150424892,391.41650409600425,65535,-2.4001556750164204,-1.0559843150424892,360
0.7046942710876465,4.459435728105543,18.45735736431123,-4.0886893989779,0.005215900928751639,0.008407452632472934,0.04912410502341778,0.0001785755157470703,0.04912410502341778,-0.004459435728105543,-0.018457357364311228,1.0040886893989778,2.814603890199245,0.0,0.0,1.0,0.0,71421.00613966728,-1.0407290003783438,-0.1483532468898516,-69.48761169518218,65535,-1.0407290003783438,-0.1483532468898516,-69.48761169518218
0.7065904140472412,4.5565482025874555,18.540730961796108,-4.083869871592116,0.018619293698563688,0.0005509754817735717,0.04783623988188732,0.0006239414215087891,0.04783623988188732,-0.004556548202587455,-0.018540730961796106,1.0040838698715921,2.740814653007531,0.0,0.0,1.0,0.0,71423.92011014727,-2.144966939701708,-1.816441427278549,-17.085315502020265,65535,-2.144966939701708,-1.816441427278549,-17.085315502020265
0.7089831829071045,4.452383159441829,18.30210254929604,-4.327476654447859,0.01221892087875506,0.026277935162106535,0.03490462735887802,0.0001609325408935547,0.03490462735887802,-0.0044523831594418285,-0.01830210254929604,1.0043274766544479,1.9998878331405758,0.0,0.0,1.0,0.0,73143.10579177694,2.3582442810854456,1.1688021137020936,-418.6118727071907,65535,2.3582442810854456,1.1688021137020936,-360
0.7107951641082764,4.517924613860925,18.59954417752879,-4.000934665904143,0.006837434010314998,0.0025813892167093466,0.0444908740697674,0.0003974437713623047,0.0444908740697674,-0.004517924613860924,-0.018599544177528793,1.0040009346659042,2.5491393110457046,0.0,0.0,1.0,0.0,68346.34664213305,-6.216488902676307,-1.3887402064641592,513.2977861428768,65535,-6.216488902676307,-1.3887402064641592,360
0.7120323181152344,4.48714169984736,18.374982047301224,-3.9888344593752065,0.01819036154428362,0.005657672841792023,0.041878928084283916,7.581710815429688e-05,0.041878928084283916,-0.00448714169984736,-0.018374982047301223,1.0039888344593753,2.399485829761362,0.0,0.0,1.0,0.0,71347.03060336692,5.117470410143774,0.6235488859652875,-147.07951748207728,65535,5.117470410143774,0.6235488859652875,-147.07951748207728
0.71358323097229,4.562842072019753,18.6693714835761,-3.940374468951403,0.010638922930680698,0.0037986914519033883,0.03929955718530116,8.273124694824219e-05,0.03929955718530116,-0.004562842072019752,-0.0186693714835761,1.0039403744689515,2.2516987634507855,0.0,0.0,1.0,0.0,71051.4995834389,-6.6822234524051884,-1.70740216580634,-105.72876837000501,65535,-6.6822234524051884,-1.70740216580634,-105.72876837000501
0.7170560359954834,4.602032542715193,18.485644538364845,-4.020290509355112,0.017425355992856786,-0.001377945144198513,0.0482885426560993,9.1552734375e-05,0.0482885426560993,-0.004602032542715193,-0.018485644538364845,1.0040202905093552,2.766729693031936,0.0,0.0,1.0,0.0,71836.66407963441,0.9485345962212514,-0.5439647127644798,263.1807998183365,65535,0.9485345962212514,-0.5439647127644798,263.1807998183365
0.7182927131652832,4.610199868059107,18.46066520729511,-3.936472675143539,0.01521792110374535,0.011312909914909648,0.045238665369617084,7.271766662597656e-05,0.045238665369617084,-0.004610199868059107,-0.018460665207295113,1.0039364726751436,2.591984596483693,0.0,0.0,1.0,0.0,70240.9657835404,-0.06668365835406831,-0.40452844683018757,-181.92784024114025,65535,-0.06668365835406831,-0.40452844683018757,-181.92784024114025
0.7202067375183105,4.590447887900297,18.376233890213403,-3.936698573388171,0.023860632596448616,0.0067395569563605835,0.04061306778177706,7.295608520507812e-05,0.04061306778177706,-0.004590447887900297,-0.018376233890213402,1.0039366985733882,2.326957376974566,0.0,0.0,1.0,0.0,71444.4036389038,0.6749518327397082,0.14632183562481937,-172.66530078494526,65535,0.6749518327397082,0.14632183562481937,-172.66530078494526
0.7220139503479004,4.688459365048575,18.48530989814335,-3.8921658178838747,0.017776295612719886,-0.003198270004951381,0.0454425376009158,0.00016760826110839844,0.0454425376009158,-0.004688459365048575,-0.01848530989814335,1.0038921658178839,2.6036656148970247,0.0,0.0,1.0,0.0,71050.91147048355,-2.6680033541219665,-1.9200390700801304,268.301455612273,65535,-2.6680033541219665,-1.9200390700801304,268.301455612273
0.7254049777984619,4.522400479257803,18.356663653286624,-3.92880652209635,0.00916391841155395,0.012961116867129086,0.03001768575135657,0.0002181529998779297,0.03001768575135657,-0.004522400479257804,-0.018356663653286625,1.0039288065220964,1.7198867043027188,0.0,0.0,1.0,0.0,71630.44631722853,0.4799814637420432,1.3860363743229986,-365.13582934701157,65535,0.4799814637420432,1.3860363743229986,-360
0.7267980575561523,4.656585679356521,18.48406802196961,-3.929062178680796,0.013281685588464891,0.006650943875586662,0.04349337666740894,7.2479248046875e-05,0.04349337666740894,-0.004656585679356521,-0.01848406802196961,1.003929062178681,2.491986919815302,0.0,0.0,1.0,0.0,71510.015236976,-3.673461022509625,-3.2797077226870077,871.5949048599008,65535,-3.673461022509625,-3.2797077226870077,360
0.728022575378418,4.62347198742336,18.532038712881103,-3.871415058316871,0.016519565783475625,0.0017028706404832946,0.04558048869650004,7.295608520507812e-05,0.04558048869650004,-0.004623471987423361,-0.018532038712881102,1.0038714150583168,2.6115696304532072,0.0,0.0,1.0,0.0,70650.00705076252,-1.995619585673004,0.680918221021423,185.8017577366876,65535,-1.995619585673004,0.680918221021423,185.8017577366876
0.7297441959381104,4.464140473856646,18.527043046324394,-3.6909898714376626,-0.0035736321151971597,0.012824394877649501,0.03864303983203925,0.0001766681671142578,0.03864303983203925,-0.004464140473856646,-0.018527043046324396,1.0036909898714377,2.2140830899317785,0.0,0.0,1.0,0.0,69678.37139072939,-0.6484318648560558,2.7759955512205927,-312.2942911313751,65535,-0.6484318648560558,2.7759955512205927,-312.2942911313751
0.73311448097229,4.719268512108472,18.511498322867016,-4.215171672652194,0.014675900618829308,0.02445666930238425,0.04056440363549578,0.000217437744140625,0.04056440363549578,-0.0047192685121084715,-0.018511498322867016,1.0042151716726522,2.3241691267790414,0.0,0.0,1.0,0.0,74114.2752068345,-0.5928354041636822,-2.611832277652265,83.86851277651286,65535,-0.5928354041636822,-2.611832277652265,83.86851277651286
0.7346329689025879,4.714907508294485,18.56268160879425,-3.622168930440176,0.029047777468213312,-0.0032154721594334556,0.043653286353735464,0.00018024444580078125,0.043653286353735464,-0.004714907508294485,-0.01856268160879425,1.00362216893044,2.5011490699450727,0.0,0.0,1.0,0.0,64783.24917872393,-1.8233292197840538,-0.09649181194269059,212.78270516795249,64783.24917872393,-1.8233292197840538,-0.09649181194269059,212.78270516795249
0.7363557815551758,4.659391368506033,18.619532995381185,-3.3734962594789315,0.003237117470946033,0.014805691226412638,0.04377472024389694,0.0004246234893798828,0.04377472024389694,-0.004659391368506033,-0.018619532995381185,1.003373496259479,2.50810671934118,0.0,0.0,1.0,0.0,68983.16269133639,-1.8000245698979818,0.8440835002502736,43.67438633201987,65535,-1.8000245698979818,0.8440835002502736,43.67438633201987
0.7378003597259521,4.718600906302426,18.671312002025694,-3.4477987716724265,0.014044333349424436,-0.0026819288293345386,0.04102741108509198,0.0003082752227783203,0.04102741108509198,-0.004718600906302426,-0.018671312002025695,1.0034477987716723,2.3506974995240197,0.0,0.0,1.0,0.0,72317.20658406916,-1.894418634295524,-1.500558106731144,-128.21480665108038,65535,-1.894418634295524,-1.500558106731144,-128.21480665108038
0.7401447296142578,4.6823427830743505,18.69137037413304,-3.249297229143455,-0.0025237080038721478,-0.004380953631475453,0.0405158486291168,7.796287536621094e-05,0.0405158486291168,-0.00468234278307435,-0.01869137037413304,1.0032492972291436,2.321387129839295,0.0,0.0,1.0,0.0,69984.38610115183,-1.0213347104239363,0.3074686840833298,16.07094408890312,65535,-1.0213347104239363,0.3074686840833298,16.07094408890312
0.7415907382965088,4.672540227262344,18.58402085637874,-3.2238718161318056,0.012834714806009992,-0.00896414560366409,0.03654750764823311,7.510185241699219e-05,0.03654750764823311,-0.004672540227262344,-0.01858402085637874,1.0032238718161317,2.0940179399658545,0.0,0.0,1.0,0.0,71128.26329755556,1.6318795836277924,0.029992022574638594,-204.25418787652475,65535,1.6318795836277924,0.029992022574638594,-204.25418787652475
0.743058443069458,4.669130107214005,18.52473393773866,-3.0128820650042334,0.008257082517307808,-0.016375996085943315,0.03056486001141475,7.128715515136719e-05,0.03056486001141475,-0.004669130107214005,-0.01852473393773866,1.0030128820650042,1.7512374800622463,0.0,0.0,1.0,0.0,68964.02437012526,0.5541531424892003,-0.11225786828085813,-324.9101026978312,65535,0.5541531424892003,-0.11225786828085813,-324.9101026978312
0.7441985607147217,4.6472936322006255,18.387375338987034,-2.7615206259288967,-0.006467399416068511,0.014521848274524107,0.02981506435470191,6.937980651855469e-05,0.02981506435470191,-0.0046472936322006254,-0.018387375338987034,1.002761520625929,1.7082773534353606,0.0,0.0,1.0,0.0,67686.48002470974,3.1157602706909433,0.42648645442458044,-30.86105316293775,65535,3.1157602706909433,0.42648645442458044,-30.86105316293775
0.7479391098022461,4.717614505673973,18.497491817151165,-2.7754346036397033,0.025436304711623225,-0.01141582794775996,0.024752205581343615,0.00019478797912597656,0.024752205581343615,-0.004717614505673973,-0.018497491817151164,1.0027754346036397,1.4181969134511494,0.0,0.0,1.0,0.0,71478.74183661044,-1.6803758746937567,-0.7890676530956203,-94.80822710355685,65535,-1.6803758746937567,-0.7890676530956203,-94.80822710355685
0.7493863105773926,4.817220988566246,18.658358145053484,-2.3847299177803194,0.012338167712978847,-0.01790715094437502,0.031614690507191116,0.0001857280731201172,0.031614690507191116,-0.004817220988566246,-0.018658358145053483,1.0023847299177804,1.811388336674359,0.0,0.0,1.0,0.0,66842.14918461056,-4.320430177937921,-2.4064586404818264,436.7993295684465,65535,-4.320430177937921,-2.4064586404818264,360
0.7507317066192627,4.757872692099008,18.769909017436678,-2.16164909295031,-0.0022201940508834303,-0.012149847808787098,0.026456948844500394,7.343292236328125e-05,0.026456948844500394,-0.004757872692099008,-0.01876990901743668,1.0021616490929504,1.5158715075833926,0.0,0.0,1.0,0.0,68600.247437212,-3.4044838204086387,1.2227760116885926,-307.08827606202266,65535,-3.4044838204086387,1.2227760116885926,-307.08827606202266
0.7525017261505127,4.712741544252314,18.752364028090224,-1.8041945575916658,0.005578544920915244,-0.027243237775862066,0.020724376473597338,0.00018978118896484375,0.020724376473597338,-0.004712741544252314,-0.018752364028090225,1.0018041945575917,1.1874193049773436,0.0,0.0,1.0,0.0,67957.92160569817,-0.43354010382220254,0.6247825141181215,-259.6007900063631,65535,-0.43354010382220254,0.6247825141181215,-259.6007900063631
0.7563512325286865,4.73039985212188,18.73984920516869,-1.3658968594719636,0.003989682765547585,-0.033870242986693284,0.02102043775921335,0.00021719932556152344,0.02102043775921335,-0.00473039985212188,-0.018739849205168687,1.0013658968594719,1.2043823671203584,0.0,0.0,1.0,0.0,69428.34886575904,-0.6455355430517995,-0.3360870334712341,24.679664553535872,65535,-0.6455355430517995,-0.3360870334712341,24.679664553535872
0.7577064037322998,4.761539247232776,18.8578715742,-0.9455408123657015,-0.01761360547328035,-0.02060292283111026,0.021629269658490907,8.058547973632812e-05,0.021629269658490907,-0.004761539247232776,-0.018857871574200002,1.0009455408123658,1.2392658653818964,0.0,0.0,1.0,0.0,66115.58751735667,-3.5392470402817544,-0.9252468833701214,57.18694690414438,65535,-3.5392470402817544,-0.9252468833701214,57.18694690414438
0.7596549987792969,4.817054914388869,18.894614539962934,-0.4765325106641066,0.007203081695858934,-0.027005998707680553,0.025591537805273495,7.700920104980469e-05,0.025591537805273495,-0.00481705491438887,-0.018894614539962933,1.0004765325106642,1.4662871074916608,0.0,0.0,1.0,0.0,67249.41212425513,-1.359845995694837,-1.105370427111452,196.90174670531266,65535,-1.359845995694837,-1.105370427111452,196.90174670531266
0.7609889507293701,4.737857873843364,18.857650134459785,0.2165179851553501,0.007707305108623298,-0.03700295798852653,0.02114102661587293,7.319450378417969e-05,0.02114102661587293,-0.004737857873843364,-0.018857650134459784,0.9997834820148446,1.2112915996632603,0.0,0.0,1.0,0.0,62495.93588771785,0.13195310921670278,1.7093150609558165,-268.4650761926583,62495.93588771785,0.13195310921670278,1.7093150609558165,-268.4650761926583
0.7636029720306396,4.602477972257066,18.821070479811326,0.8161114338698012,-0.011336592386849106,-0.03377283371511151,0.014378617691437067,7.510185241699219e-05,0.014378617691437067,-0.004602477972257066,-0.018821070479811325,0.9991838885661303,0.8238341089514829,0.0,0.0,1.0,0.0,67406.70461434116,-0.30545461635476545,1.4719693105461416,-209.83479122631988,65535,-0.30545461635476545,1.4719693105461416,-209.83479122631988
0.7651629447937012,4.659301477871184,18.852187327695557,1.4253949098939591,0.0014646412012256766,-0.046213869255367204,0.016285992949484265,7.081031799316406e-05,0.016285992949484265,-0.004659301477871184,-0.018852187327695558,0.9985746050901061,0.9331186611852637,0.0,0.0,1.0,0.0,64633.52196213897,-1.394251905361551,-1.35521831513356,119.35365271252816,64633.52196213897,-1.394251905361551,-1.35521831513356,119.35365271252816
0.7669429779052734,4.557695863701525,19.184055826620714,2.2448583507447664,0.009450054626191055,-0.06865184619765627,0.021291780275898342,7.462501525878906e-05,0.021291780275898342,-0.004557695863701525,-0.019184055826620715,0.9977551416492553,1.2199291481288665,0.0,0.0,1.0,0.0,63562.14392853764,-6.725446224571655,1.6406135243473052,259.50406473753947,63562.14392853764,-6.725446224571655,1.6406135243473052,259.50406473753947
0.7682347297668457,4.65553229720611,19.211992584394178,2.8630261352231288,-0.013644698197387794,-0.055256533620079644,0.015895466206110365,6.937980651855469e-05,0.015895466206110365,-0.00465553229720611,-0.01921199258439418,0.997136973864777,0.9107431270029507,0.0,0.0,1.0,0.0,63099.25394742292,-1.46208091610991,-2.617058726284485,-346.43330843164034,63099.25394742292,-1.46208091610991,-2.617058726284485,-346.43330843164034
0.7713234424591064,4.6576515531960325,19.27033329015942,3.4288455782424188,-0.014373698334330023,-0.04640349274920905,0.017281997809521922,7.200241088867188e-05,0.017281997809521922,-0.004657651553196033,-0.01927033329015942,0.9965711544217576,0.9901855360399398,0.0,0.0,1.0,0.0,68116.92269090629,-1.3741230609944086,-0.20821990835417756,53.35289249909695,65535,-1.3741230609944086,-0.20821990835417756,53.35289249909695
0.7734012603759766,4.525505756064062,19.364980285977662,4.274571076558341,-0.0007103081818614074,-0.06306112038866475,0.019962441221379554,7.462501525878906e-05,0.019962441221379554,-0.004525505756064062,-0.019364980285977662,0.9957254289234416,1.1437636307630288,0.0,0.0,1.0,0.0,64288.81813152888,-2.2335752928391024,1.8564649685859318,128.16631492952297,64288.81813152888,-2.2335752928391024,1.8564649685859318,128.16631492952297
0.7751274108886719,4.63614962168042,19.58879986093129,4.988231987022012,-0.01953081508632169,-0.057434928845063925,0.00968222973227133,7.224082946777344e-05,0.00968222973227133,-0.00463614962168042,-0.01958879986093129,0.995011768012978,0.5547508999352282,0.0,0.0,1.0,0.0,64203.11247081538,-4.938538831532888,-2.2400071719403853,-504.4430480331358,64203.11247081538,-4.938538831532888,-2.2400071719403853,-360
0.7775967121124268,4.459219107907102,19.576633533037192,5.953157045712866,-0.004648080882124106,-0.06083103263568329,0.018984029350639673,0.0008547306060791016,0.018984029350639673,-0.004459219107907102,-0.019576633533037194,0.9940468429542871,1.087704759944134,0.0,0.0,1.0,0.0,64534.953198126066,-0.6257648030257141,2.1074346404895126,339.00402874457546,64534.953198126066,-0.6257648030257141,2.1074346404895126,339.00402874457546
0.7802720069885254,4.395276348318612,19.54459829442029,7.025409134648067,0.008118314639557712,-0.08681136675134356,0.019670412380747477,0.00022363662719726562,0.019670412380747477,-0.004395276348318612,-0.01954459829442029,0.992974590865352,1.1270316106987122,0.0,0.0,1.0,0.0,64304.768122275455,-0.39901023435860816,0.5883463598342726,38.94173628561382,64304.768122275455,-0.39901023435860816,0.5883463598342726,38.94173628561382
0.781684398651123,4.35421768608374,19.614858152663846,7.644134568262954,-0.01515198224724298,-0.06364599729400663,0.01758766375078942,0.0003170967102050781,0.01758766375078942,-0.004354217686083741,-0.019614858152663846,0.992355865431737,1.0076989044154612,0.0,0.0,1.0,0.0,63616.149368006416,-2.3850896660678766,0.7617688536782217,-112.35081031186607,63616.149368006416,-2.3850896660678766,0.7617688536782217,-112.35081031186607
0.7829132080078125,4.319589113705349,19.597208806110007,8.379819856227298,-0.0105004611859864,-0.05227491585396292,0.005657114554104833,0.00015306472778320312,0.005657114554104833,-0.0043195891137053485,-0.019597208806110007,0.9916201801437727,0.3241287881722395,0.0,0.0,1.0,0.0,60851.59871568578,-0.3229319025185914,0.7323319775182618,-832.9816896968231,60851.59871568578,-0.3229319025185914,0.7323319775182618,-360
0.7845432758331299,4.066108293572344,19.834419603010772,9.901642005456916,-0.02379476306705912,-0.07696468423171808,0.012548888985229451,7.534027099609375e-05,0.012548888985229451,-0.004066108293572344,-0.019834419603010772,0.9900983579945432,0.718998376431854,0.0,0.0,1.0,0.0,55334.81901205258,-5.436499755841332,4.794607565361654,372.66474844669364,55334.81901205258,-5.436499755841332,4.794607565361654,360
0.7879977226257324,4.061371824335327,20.16628894633131,10.915116133416527,-0.021699428798155437,-0.08367064456970857,0.007461832462386047,0.00022292137145996094,0.007461832462386047,-0.004061371824335328,-0.02016628894633131,0.9890848838665834,0.4275315075284311,0.0,0.0,1.0,0.0,66047.30986541255,-3.8798369623885414,-0.1185940933587977,-120.11369413403094,65535,-3.8798369623885414,-0.1185940933587977,-120.11369413403094
0.7893879413604736,3.8416488101994464,20.16966050715183,12.07894468465646,-0.030024665826831828,-0.08168750880247524,0.011056569639950007,0.00030732154846191406,0.011056569639950007,-0.003841648810199446,-0.02016966050715183,0.9879210553153436,0.6334947762616155,0.0,0.0,1.0,0.0,56719.35386369304,-0.8846733795191332,4.926562083187181,232.72530585598375,56719.35386369304,-0.8846733795191332,4.926562083187181,232.72530585598375
0.7905285358428955,3.8117285077202174,20.437522935368882,13.178370813831705,-0.030908906684004513,-0.08422978175597813,0.012954116500515029,6.604194641113281e-05,0.012954116500515029,-0.0038117285077202173,-0.020437522935368883,0.9868216291861682,0.7422162028002907,0.0,0.0,1.0,0.0,54669.822143637335,-8.340389917593853,0.6876637090290287,154.2627829719702,54669.822143637335,-8.340389917593853,0.6876637090290287,154.2627829719702
0.7925808429718018,3.665988369256301,20.58110881303593,14.3647043585839,-0.03360335995466837,-0.08372577219525659,0.004649493065025322,0.0004138946533203125,0.004649493065025322,-0.003665988369256301,-0.020581108813035928,0.985635295641416,0.2663963295012962,0.0,0.0,1.0,0.0,61140.55577964857,-3.054031512303437,2.116307048181188,-342.20502612099375,61140.55577964857,-3.054031512303437,2.116307048181188,-342.20502612099375
0.7958860397338867,3.7032906786790063,20.553559268495558,15.480163901964278,-0.03391371359665512,-0.07452326614826225,0.011172819828580394,0.00021386146545410156,0.011172819828580394,-0.0037032906786790064,-0.020553559268495558,0.9845198360980357,0.6401554214377365,0.0,0.0,1.0,0.0,65115.687543360815,-0.5552420332457282,-0.5096734541162886,179.43397089386627,65115.687543360815,-0.5552420332457282,-0.5096734541162886,179.43397089386627
0.7975058555603027,3.514894867098012,20.62547604427062,16.743050729064485,-0.008784340639602473,-0.0870266529589914,0.011205452145883924,0.0001933574676513672,0.011205452145883924,-0.003514894867098012,-0.02062547604427062,0.9832569492709354,0.6420251154949604,0.0,0.0,1.0,0.0,57636.88582056859,-2.243879287194029,3.573027027333578,11.357957565804611,57636.88582056859,-2.243879287194029,3.573027027333578,11.357957565804611
0.799252986907959,3.258952923401553,20.84803416899186,18.28887565883149,-0.034678595877493223,-0.09965734638488725,0.0070805569876306595,0.0004684925079345703,0.0070805569876306595,-0.003258952923401553,-0.02084803416899186,0.9817111243411686,0.4056860319931006,0.0,0.0,1.0,0.0,55818.31481274758,-4.913020895371672,4.562530705856651,-197.01769339283632,55818.31481274758,-4.913020895371672,4.562530705856651,-197.01769339283632
0.8006329536437988,3.2510876737134193,21.106609026325085,19.54824664182349,-0.04969107679887759,-0.08137390799971038,0.0026917810532891308,0.00019359588623046875,0.0026917810532891308,-0.0032510876737134194,-0.021106609026325086,0.9804517533581765,0.15422769372674652,0.0,0.0,1.0,0.0,55310.09801009724,-6.844494283112091,0.052438073569008176,-271.1119338916935,55310.09801009724,-6.844494283112091,0.052438073569008176,-271.1119338916935
0.8031065464019775,3.047062035788124,21.208067543092202,20.860041826962618,-0.05298117184360944,-0.07697500036131631,0.0009417978837670097,0.0002186298370361328,0.0009417978837670097,-0.003047062035788124,-0.021208067543092204,0.9791399581730373,0.05396104389420212,0.0,0.0,1.0,0.0,61700.685231497766,-2.1613621006950896,2.5190527655627655,-60.03387289182429,61700.685231497766,-2.1613621006950896,2.5190527655627655,-60.03387289182429
0.8046302795410156,2.8355326428053487,21.396152440304967,22.708138983847196,-0.040359962329531755,-0.09501764177901363,0.006698170730141238,0.00018215179443359375,0.006698170730141238,-0.002835532642805349,-0.021396152440304968,0.9772918610161527,0.383776913295154,0.0,0.0,1.0,0.0,50080.12855246202,-4.808300704628124,4.333093107970982,330.79143290334883,50080.12855246202,-4.808300704628124,4.333093107970982,330.79143290334883
0.8064665794372559,2.6576774833921037,21.69882610251249,24.051306507466382,-0.051640241515884526,-0.0894653549989195,0.001776119505541739,0.0005452632904052734,0.001776119505541739,-0.002657677483392104,-0.021698826102512492,0.9759486934925337,0.10176415157840427,0.0,0.0,1.0,0.0,58287.87737723272,-6.1376600446107386,2.989039815799631,-228.53978277033525,58287.87737723272,-6.1376600446107386,2.989039815799631,-228.53978277033525
0.8086843490600586,2.379940596028071,21.691466460598225,25.492720293643735,-0.0426096395887329,-0.07231492162268476,0.0008129412761701119,0.00021791458129882812,0.0008129412761701119,-0.0023799405960280707,-0.021691466460598226,0.9745072797063563,0.0465781041165265,0.0,0.0,1.0,0.0,59562.96298208123,-0.7616266257246536,3.9057913215052804,-36.56260654732225,59562.96298208123,-0.7616266257246536,3.9057913215052804,-36.56260654732225
0.8103771209716797,2.145382780984005,21.81616776985886,27.160600243348963,-0.030008604326529447,-0.09035037572983419,-0.0016135047303518371,0.0001857280731201172,-0.0016135047303518371,-0.0021453827809840053,-0.02181616776985886,0.972839399756651,-0.0924470112735542,0.0,0.0,1.0,0.0,53766.501224464955,-3.2373156013832074,4.362653958205135,-124.99755824592857,53766.501224464955,-3.2373156013832074,4.362653958205135,-124.99755824592857
0.8117251396179199,1.9202084715254688,22.048926133307514,28.887913642233812,-0.05664974435707881,-0.08170998671131953,-0.002459371112613136,7.62939453125e-05,-0.002459371112613136,-0.001920208471525469,-0.022048926133307514,0.9711120863577662,-0.1409115850091262,0.0,0.0,1.0,0.0,48808.32941147675,-6.403395489142199,5.2637790828554785,-56.0137503556755,48808.32941147675,-6.403395489142199,5.2637790828554785,-56.0137503556755
0.8134748935699463,1.7732258443829063,22.411219485395552,30.58724787482803,-0.047103510805033805,-0.07691702935783488,-0.0016036026359070197,0.00036978721618652344,-0.0016036026359070197,-0.0017732258443829063,-0.022411219485395553,0.969412752125172,-0.09187966305352623,0.0,0.0,1.0,0.0,54041.29899959255,-7.51856379872137,2.615301122889429,40.615023074764935,54041.29899959255,-7.51856379872137,2.615301122889429,40.615023074764935
0.8157682418823242,1.5226863027012234,22.64064523392467,32.26923661491383,-0.04909000623992333,-0.07560132497339275,0.0017434149679833595,7.796287536621094e-05,0.0017434149679833595,-0.0015226863027012233,-0.02264064523392467,0.9677307633850862,0.09989031960538204,0.0,0.0,1.0,0.0,57934.50450241332,-4.1088925015734885,3.4386084245364286,127.08515691953968,57934.50450241332,-4.1088925015734885,3.4386084245364286,127.08515691953968
0.8172609806060791,1.2844897092279393,22.960198128041554,34.136146025447346,-0.03500160175198685,-0.09658852820150826,-0.003468115047729942,8.606910705566406e-05,-0.003468115047729942,-0.0012844897092279392,-0.022960198128041554,0.9658638539745527,-0.19870835510073773,0.0,0.0,1.0,0.0,49265.573621411524,-7.751236254609145,5.039417480631492,-302.07637816393594,49265.573621411524,-7.751236254609145,5.039417480631492,-302.07637816393594
0.819101095199585,1.1215296149338863,23.00649677172437,35.95922286114957,-0.04753243709154157,-0.06713771820256154,-0.0017147925454587983,0.00045609474182128906,-0.0017147925454587983,-0.0011215296149338862,-0.02300649677172437,0.9640407771388504,-0.0982503755952845,0.0,0.0,1.0,0.0,53466.97779828479,-1.7239456914314497,2.783188157374917,80.21513643114255,53466.97779828479,-1.7239456914314497,2.783188157374917,80.21513643114255
0.8202760219573975,0.805167458172797,23.283559224741484,37.9324723088905,-0.03473969473009401,-0.07686152689804156,0.004001704681987052,7.581710815429688e-05,0.004001704681987052,-0.000805167458172797,-0.023283559224741485,0.9620675276911095,0.22928078913559935,0.0,0.0,1.0,0.0,41663.21857032544,-8.52666364310402,8.640466893514025,424.4951806831941,41663.21857032544,-8.52666364310402,8.640466893514025,360
