time,x_pos,y_pos,z_pos,x_rot,y_rot,z_rot,delta_time,z_filtered,x_error,y_error,z_error,yaw_error,x_setpoint,y_setpoint,z_setpoint,yaw_setpoint,thrust_cal,pitch_cal,roll_cal,yaw_cal,thrust_lim,pitch_lim,roll_lim,yaw_lim,motor1,motor2,motor3,motor4
0.753603458404541,15.686047508932361,-81.68915641171544,7.471749149357315,-0.04250952623869836,0.00787703766740005,-0.12639749233627492,0.0003311634063720703,-0.10861256785223287,-0.015686047508932363,0.08168915641171544,0.9925282508506428,-7.242042851905721,0.0,0.0,1.0,0.0,16728772.055158582,2206.1754690209264,-673.2669216331689,-9410.997721765796,65535,40,-40,-360,0,0,0,0
0.7554788589477539,15.63978280824025,-81.73970780872169,7.505013742429521,-0.04183650136663758,0.009905148893471025,-0.12536729825390638,8.726119995117188e-05,-0.1091087708964441,-0.01563978280824025,0.0817397078087217,0.9924949862575705,-7.1830170789066505,0.0,0.0,1.0,0.0,70827.83600876063,3.9481494048005485,-0.9594710176188841,-58.50658558035949,65535,3.9481494048005485,-0.9594710176188841,-58.50658558035949,,,,
0.758730411529541,15.741748944618182,-81.70565270704525,7.532780698374505,-0.03213314254421741,-0.001091076425206632,-0.1219447963483489,8.225440979003906e-05,-0.10997388644322999,-0.015741748944618182,0.08170565270704525,0.9924672193016255,-6.986922164342725,0.0,0.0,1.0,0.0,70987.66142124202,2.527480985611651,-2.6224137324368977,-14.328434488997118,65535,2.527480985611651,-2.6224137324368977,-14.328434488997118,,,,
0.7602231502532959,15.745966074517067,-81.70543091481713,7.532382165511741,-0.029085903770245326,-0.002301344446372215,-0.12763316343788172,7.224082946777344e-05,-0.11036844448502435,-0.015745966074517066,0.08170543091481713,0.9924676178344882,-7.312841590894071,0.0,0.0,1.0,0.0,71133.55793458562,2.9548433811310733,-1.7520916309742378,-439.1973212269055,65535,2.9548433811310733,-1.7520916309742378,-360,,,,
0.762035608291626,15.589586742878472,-81.7574828081221,7.430256800449355,-0.04015749172142055,0.012351172936171878,-0.1285394532436745,8.392333984375e-05,-0.11084897389652008,-0.015589586742878473,0.0817574828081221,0.9925697431995506,-7.364768171781728,0.0,0.0,1.0,0.0,72105.11880954528,4.187701416810565,0.9801763723197104,-153.30537584605003,65535,4.187701416810565,0.9801763723197104,-153.30537584605003,,,,
0.763646125793457,15.690701588707409,-81.70268607407819,7.4535378806689385,-0.04208132709237164,0.006547170687318515,-0.12631378880160699,7.557868957519531e-05,-0.11127338785191748,-0.01569070158870741,0.08170268607407818,0.9925464621193311,-7.237246992638921,0.0,0.0,1.0,0.0,70894.5941966421,1.6641989059368745,-3.536818089197617,10.370125179358979,65535,1.6641989059368745,-3.536818089197617,10.370125179358979,48,255,48,146
0.7681975364685059,15.684174711427298,-81.7572886339856,7.530515720119296,-0.03432636550543615,-0.002062471901785497,-0.127056620187168,7.343292236328125e-05,-0.11245575011872035,-0.015684174711427298,0.0817572886339856,0.9924694842798807,-7.279808095921423,0.0,0.0,1.0,0.0,70847.14521989331,3.360540145042551,-1.648636849111722,-123.23199269063304,65535,3.360540145042551,-1.648636849111722,-123.23199269063304,,,,
0.7696723937988281,15.693260539648126,-81.71057811543298,7.46265543904449,-0.04049885878182502,0.00896586837435751,-0.12147185022913527,6.961822509765625e-05,-0.11283507332441182,-0.015693260539648125,0.08171057811543297,0.9925373445609554,-6.959824347774693,0.0,0.0,1.0,0.0,71901.34600367032,1.9420299367674032,-1.7292895428395179,221.7795097315704,65535,1.9420299367674032,-1.7292895428395179,221.7795097315704,,,,
0.7713658809661865,15.622005202711682,-81.75624660378507,7.467084373590623,-0.0446952529604858,0.009960493134579227,-0.12618899441721373,7.367134094238281e-05,-0.11326674052121304,-0.015622005202711682,0.08175624660378507,0.9925329156264093,-7.230096801106255,0.0,0.0,1.0,0.0,71098.05009204418,3.9833982070851244,-0.3999321351953421,-347.1051008794114,65535,3.9833982070851244,-0.3999321351953421,-347.1051008794114,,,,
0.7737553119659424,15.742598142447434,-81.65393652314764,7.445973126460955,-0.04002705831468087,0.008064444506795243,-0.12246753213618086,7.677078247070312e-05,-0.11385910243298392,-0.015742598142447436,0.08165393652314763,0.9925540268735391,-7.016872718785942,0.0,0.0,1.0,0.0,71281.05764303045,1.4313582882629452,-3.0759555165172534,28.574715688544558,65535,1.4313582882629452,-3.0759555165172534,28.574715688544558,255,255,117,77
0.7791697978973389,15.744298319005676,-81.65206724336262,7.478234368037508,-0.03867867465170315,0.00514862341563283,-0.12287670243368395,0.0004603862762451172,-0.1150954038361542,-0.015744298319005676,0.08165206724336262,0.9925217656319625,-7.0403164499349815,0.0,0.0,1.0,0.0,71028.5048264576,2.978188471770497,-1.5870344628615174,-112.07780928742598,65535,2.978188471770497,-1.5870344628615174,-112.07780928742598,,,,
0.7810502052307129,15.684225669789717,-81.69870317274835,7.456602434866609,-0.04238271407976845,0.007711905057953395,-0.12157871703576416,0.00019621849060058594,-0.11550709151084475,-0.015684225669789716,0.08169870317274835,0.9925433975651334,-6.965947364764569,0.0,0.0,1.0,0.0,71332.87617082521,3.888872620954015,-0.6392318972448248,-46.416748375166556,65535,3.888872620954015,-0.6392318972448248,-46.416748375166556,,,,
0.7831933498382568,15.746960804183074,-81.64704091057214,7.468107408877091,-0.03980084217815503,0.007771811196475242,-0.1220782775899098,0.00011444091796875,-0.11596158858417364,-0.015746960804183075,0.08164704091057215,0.9925318925911228,-6.994570076128331,0.0,0.0,1.0,0.0,71034.03820227779,2.1108125677029217,-2.404156816293372,-125.25032591281905,65535,2.1108125677029217,-2.404156816293372,-125.25032591281905,,,,
0.7873711585998535,15.643368959053992,-81.76354481007068,7.500881849883128,-0.041525430502299364,0.009641530781031162,-0.12609481541355685,0.0002295970916748047,-0.11677700232937646,-0.015643368959053994,0.08176354481007068,0.9924991181501168,-7.224700741677968,0.0,0.0,1.0,0.0,71009.41175684541,3.998282858223276,-0.8132655340805436,-191.114650830065,65535,3.998282858223276,-0.8132655340805436,-191.114650830065,192,255,112,255
0.7892184257507324,15.627282604774267,-81.74321063377323,7.48937819296329,-0.04294626434373717,0.010159876218431004,-0.12685229686285812,0.0001964569091796875,-0.11712999639678912,-0.015627282604774268,0.08174321063377323,0.9925106218070368,-7.268101231782383,0.0,0.0,1.0,0.0,71226.98021236935,2.7072192920639617,-1.1691514425057896,-144.00131272095328,65535,2.7072192920639617,-1.1691514425057896,-144.00131272095328,,,,
0.7916932106018066,15.690795243551676,-81.68628842339915,7.4580965887532225,-0.044758271285994855,0.008965201629594455,-0.12644041745981324,8.106231689453125e-05,-0.11757617861978414,-0.015690795243551676,0.08168628842339914,0.9925419034112467,-7.244502280319544,0.0,0.0,1.0,0.0,71342.80342404764,2.188243751698328,-2.2069249418616215,-94.20646818993127,65535,2.188243751698328,-2.2069249418616215,-94.20646818993127,,,,
0.7933497428894043,15.651720043146032,-81.76804343815111,7.459414341015456,-0.04290926614411412,0.010661382951849324,-0.12618117466296597,8.392333984375e-05,-0.1178701239492158,-0.015651720043146033,0.08176804343815111,0.9925405856589846,-7.229648762191028,0.0,0.0,1.0,0.0,71147.45471636512,4.692485462186165,-0.8922960975628214,-94.95205806428842,65535,4.692485462186165,-0.8922960975628214,-94.95205806428842,10,255,48,212
0.7948336601257324,15.685818940082964,-81.70030175648678,7.490687492813499,-0.03879424646290204,0.004783846933601463,-0.12202412138840218,6.604194641113281e-05,-0.11812569212901362,-0.015685818940082964,0.08170030175648678,0.9925093125071864,-6.991467154347484,0.0,0.0,1.0,0.0,70754.17217939327,1.4855347936951275,-2.0101961540636624,137.60519426357553,65535,1.4855347936951275,-2.0101961540636624,137.60519426357553,,,,
0.7994287014007568,15.738749550580456,-81.66347588290378,7.459981904007716,-0.04080329887577229,0.006997033584585369,-0.12253628765493665,8.273124694824219e-05,-0.11884186060118962,-0.015738749550580456,0.08166347588290378,0.9925400180959923,-7.020812119828882,0.0,0.0,1.0,0.0,71241.1611875521,2.74566779785317,-1.741404545230858,-114.86524808884036,65535,2.74566779785317,-1.741404545230858,-114.86524808884036,,,,
0.8039202690124512,15.584418559615738,-81.75372453534168,7.382142057524611,-0.04092947291922612,0.012472936010343716,-0.12790140140914566,0.0002956390380859375,-0.11949077402429678,-0.015584418559615738,0.08175372453534167,0.9926178579424755,-7.328210494552646,0.0,0.0,1.0,0.0,71436.09778996951,3.8245372045110733,-0.36017315778635983,-212.53807486117577,65535,3.8245372045110733,-0.36017315778635983,-212.53807486117577,193,255,55,49
0.8054080009460449,15.732705680384868,-81.71890927325536,7.524391841667591,-0.03391489679265705,6.548107512176953e-06,-0.12232974582884257,6.151199340820312e-05,-0.11969774550156911,-0.015732705680384866,0.08171890927325537,0.9924756081583325,-7.008978144900766,0.0,0.0,1.0,0.0,69513.47578124586,1.9191164956367779,-4.487805260720988,220.80435437816334,65535,1.9191164956367779,-4.487805260720988,220.80435437816334,,,,
0.808415412902832,15.626455089808694,-81.76040274134627,7.5153885388688195,-0.04272289087991509,0.010014234610270125,-0.12583104982541538,7.224082946777344e-05,-0.12009659206944924,-0.015626455089808693,0.08176040274134627,0.9924846114611312,-7.209588086696675,0.0,0.0,1.0,0.0,71184.30325393451,3.6363208564717424,-0.2819797844156705,-207.82227825602757,65535,3.6363208564717424,-0.2819797844156705,-207.82227825602757,,,,
0.810312032699585,15.643106774216129,-81.69136981158915,7.422485952172793,-0.03971134260151965,0.010558413767556639,-0.12351055795738569,7.62939453125e-05,-0.12033757316654568,-0.01564310677421613,0.08169136981158916,0.9925775140478272,-7.076633696264146,0.0,0.0,1.0,0.0,71947.4995447899,1.8772264347414687,-1.4744530589960951,-1.1172732223303967,65535,1.8772264347414687,-1.4744530589960951,-1.1172732223303967,,,,
0.8146171569824219,15.776468666376633,-81.68249424818234,7.50339861488559,-0.03255899845630658,-0.0037505424418748583,-0.12309885112055788,0.00035452842712402344,-0.12082631738953814,-0.015776468666376633,0.08168249424818233,0.9924966013851144,-7.053044632117231,0.0,0.0,1.0,0.0,70815.47437494042,2.8907270507384593,-2.282198125393969,-97.58989931911931,65535,2.8907270507384593,-2.282198125393969,-97.58989931911931,38,255,6,255
0.8161122798919678,15.63832719290857,-81.74930542991557,7.529062292085742,-0.04214559449032176,0.009897848246896636,-0.12617261394017876,6.67572021484375e-05,-0.12098843988993718,-0.015638327192908568,0.08174930542991557,0.9924709377079143,-7.229158268905739,0.0,0.0,1.0,0.0,70872.17118244362,4.875243190823097,1.4989146422564668,-287.0624259205569,65535,4.875243190823097,1.4989146422564668,-287.0624259205569,,,,
0.8208551406860352,15.745689414144293,-81.70227914007982,7.530141536606881,-0.034297658377813525,-0.0012020157285147872,-0.12753235551572653,7.677078247070312e-05,-0.12146695542155993,-0.015745689414144292,0.08170227914007983,0.9924698584633932,-7.307065722413095,0.0,0.0,1.0,0.0,71123.09727237771,2.6837933761807085,-1.9558679064742976,-134.1983954400083,65535,2.6837933761807085,-1.9558679064742976,-134.1983954400083,,,,
0.822777271270752,15.62390531377351,-81.7270291991909,7.509481365355809,-0.04450520665042069,0.009732907530972397,-0.12641262850888113,8.082389831542969e-05,-0.12165697861298498,-0.015623905313773511,0.08172702919919089,0.9924905186346442,-7.242910090714038,0.0,0.0,1.0,0.0,71317.00809924853,3.735537841335542,0.6716603126729184,-59.25154000647385,65535,3.735537841335542,0.6716603126729184,-59.25154000647385,,,,
0.830822229385376,15.69781352102616,-81.7052754093723,7.46570452122828,-0.04171355734357329,0.01019632251739255,-0.1221820561845322,0.00035309791564941406,-0.12226572989757674,-0.015697813521026158,0.08170527540937231,0.9925342954787717,-7.0005161516039935,0.0,0.0,1.0,0.0,71221.93085783257,2.9834658085849908,-1.4958578645831426,-59.72025630335475,65535,2.9834658085849908,-1.4958578645831426,-59.72025630335475,78,255,104,124
0.8387281894683838,15.618218460846796,-81.76188354551394,7.473704765552633,-0.03127029015963272,-4.814825461205123e-05,-0.12839064006866885,0.0013053417205810547,-0.12281662223554154,-0.015618218460846796,0.08176188354551393,0.9925262952344474,-7.356241804917963,0.0,0.0,1.0,0.0,71114.7697464906,3.3785967903221947,-0.9058877826841404,-177.62858576224562,65535,3.3785967903221947,-0.9058877826841404,-177.62858576224562,255,255,26,244
0.8407068252563477,15.697893067071147,-81.70136568042716,7.478923939740521,-0.0395703773001314,0.008002523888752161,-0.12186888917457744,0.00010561943054199219,-0.12294771984860059,-0.015697893067071148,0.08170136568042716,0.9925210760602595,-6.982573003650854,0.0,0.0,1.0,0.0,71079.10091166772,1.9748470622722867,-2.3604132314652055,180.60195862223202,65535,1.9748470622722867,-2.3604132314652055,180.60195862223202,,,,
0.8438260555267334,15.59538446125974,-81.7418591497418,7.397564056282844,-0.04050668176095654,0.011369834225521987,-0.12775462784360364,0.00011992454528808594,-0.12314739162070838,-0.01559538446125974,0.0817418591497418,0.9926024359437172,-7.319800988703002,0.0,0.0,1.0,0.0,71579.28357634044,3.6553113004843936,-0.19371250270183737,-271.32385380460255,65535,3.6553113004843936,-0.19371250270183737,-271.32385380460255,8,255,38,255
0.845611572265625,15.632380202690017,-81.74482131508158,7.474962427830809,-0.04447985531234009,0.010936671082954114,-0.1261786681640055,0.00010585784912109375,-0.12325790723761755,-0.01563238020269002,0.08174482131508158,0.9925250375721691,-7.2295051503792385,0.0,0.0,1.0,0.0,70390.62108473422,3.0881155972122007,-1.850718298794261,-31.96273156410645,65535,3.0881155972122007,-1.850718298794261,-31.96273156410645,,,,
0.8471934795379639,15.751017718682325,-81.63504020511829,7.4555242483102955,-0.039640945753665426,0.007664480923255821,-0.12216707451709295,0.0001068115234375,-0.12335274484372198,-0.015751017718682325,0.08163504020511829,0.9925444757516897,-6.999657765289656,0.0,0.0,1.0,0.0,71339.43822263235,0.6075585112266992,-3.294563185969971,113.54445798886829,65535,0.6075585112266992,-3.294563185969971,113.54445798886829,,,,
0.8512275218963623,15.64530346574486,-81.7445280986791,7.477370401713722,-0.04306978550315427,0.010911267978611345,-0.12595831750025396,0.00018167495727539062,-0.12357601544440473,-0.01564530346574486,0.0817445280986791,0.9925226295982863,-7.216879987333369,0.0,0.0,1.0,0.0,71052.63728285208,4.084274944865936,-0.4412023676582364,-188.71502213618567,65535,4.084274944865936,-0.4412023676582364,-188.71502213618567,,,,
0.8542535305023193,15.692908463747052,-81.77156741219845,7.5809021280901145,-0.033766722577202014,1.8412765606858942e-05,-0.1265647069861134,0.00011301040649414062,-0.12373458147722141,-0.015692908463747053,0.08177156741219845,0.99241909787191,-7.251623545614224,0.0,0.0,1.0,0.0,70551.73520448631,3.3470229429476195,-1.6941523538429015,-125.99410804536315,65535,3.3470229429476195,-1.6941523538429015,-125.99410804536315,186,255,174,255
0.8594579696655273,15.697266889533703,-81.69607090925041,7.4793195034761215,-0.040212059969539256,0.007008932045852608,-0.1214421332292811,0.00041556358337402344,-0.12394808171214668,-0.0156972668895337,0.0816960709092504,0.9925206804965239,-6.958121689103258,0.0,0.0,1.0,0.0,71453.42875029462,2.6669921912165235,-1.1003377701420298,-19.68305189327897,65535,2.6669921912165235,-1.1003377701420298,-19.68305189327897,,,,
0.8616652488708496,15.69214053988445,-81.70720582219722,7.42511320186774,-0.040313272540859056,0.010783667327328945,-0.1272667860318761,0.00040221214294433594,-0.1240312544994669,-0.01569214053988445,0.08170720582219722,0.9925748867981323,-7.291849711820999,0.0,0.0,1.0,0.0,71551.12723779165,3.304139868069078,-1.0688834417697761,-336.4880940705723,65535,3.304139868069078,-1.0688834417697761,-336.4880940705723,,,,
0.8642444610595703,15.681695601289253,-81.68819691488198,7.481763044503742,-0.040602169379861205,0.008212790532611019,-0.12137385312164309,0.0001227855682373047,-0.1241151429320115,-0.015681695601289253,0.08168819691488198,0.9925182369554962,-6.954209527110901,0.0,0.0,1.0,0.0,70753.19866398585,2.9215522299094006,-0.9519997766100565,90.82266142325109,65535,2.9215522299094006,-0.9519997766100565,90.82266142325109,67,255,255,255
0.8696892261505127,15.694639316057213,-81.64855345961625,7.400735186601835,-0.037675510649634356,0.009502043403277868,-0.12436112503558373,0.0004379749298095703,-0.1242433369339714,-0.01569463931605721,0.08164855345961625,0.9925992648133981,-7.125367600037667,0.0,0.0,1.0,0.0,71380.64017692406,2.9027707861676935,-1.1339754606731332,-154.0645243793022,65535,2.9027707861676935,-1.1339754606731332,-154.0645243793022,,,,
0.8717689514160156,15.75754663103379,-81.63975267049449,7.4668404762759355,-0.039525411832815466,0.008099637218521914,-0.12250178498715178,0.00024819374084472656,-0.12428454075758047,-0.01575754663103379,0.08163975267049449,0.9925331595237241,-7.018835262582867,0.0,0.0,1.0,0.0,70589.04434735618,2.8901821427058847,-2.029684360584337,-27.98538747016613,65535,2.8901821427058847,-2.029684360584337,-27.98538747016613,,,,
0.8745601177215576,15.704393764810957,-81.691946984002,7.461885557207031,-0.042881695959896333,0.008544293669101031,-0.12655649897580099,9.846687316894531e-05,-0.12433216107528913,-0.015704393764810958,0.081691946984002,0.992538114442793,-7.251153261265122,0.0,0.0,1.0,0.0,71169.6121904153,3.8191645479351717,-0.5417464721315244,-233.4681321855468,65535,3.8191645479351717,-0.5417464721315244,-233.4681321855468,126,255,232,255
0.8761260509490967,15.686661622081607,-81.71001597562824,7.451325824854936,-0.04019339490635139,0.0060742086734390565,-0.12192118543056954,8.153915405273438e-05,-0.12435548528062904,-0.015686661622081606,0.08171001597562824,0.992548674175145,-6.985569358403537,0.0,0.0,1.0,0.0,71251.88972925028,3.56995687452613,-0.7479135439619062,153.39158928432022,65535,3.56995687452613,-0.7479135439619062,153.39158928432022,,,,
0.8803713321685791,15.782106713731292,-81.67282738703457,7.536461737581203,-0.031228541781777634,-0.004695424134363337,-0.12332457967548137,0.0007345676422119141,-0.1243961578325998,-0.01578210671373129,0.08167282738703457,0.9924635382624187,-7.065977925629934,0.0,0.0,1.0,0.0,70786.13026936447,2.789199060410966,-1.7328313645778517,-134.3084643797422,65535,2.789199060410966,-1.7328313645778517,-134.3084643797422,,,,
0.8831775188446045,15.735385813882505,-81.71081666876789,7.556636848323674,-0.03170021105822216,-0.0020408124998298957,-0.1223519980148827,0.0003151893615722656,-0.12441165706118847,-0.015735385813882504,0.0817108166687679,0.9924433631516762,-7.010253101245805,0.0,0.0,1.0,0.0,71011.14176118386,3.656351879462547,-0.569288209295304,-75.37461697902239,65535,3.656351879462547,-0.569288209295304,-75.37461697902239,15,255,41,255
0.8847055435180664,15.650394313537703,-81.76021745976395,7.5101460385378696,-0.042872796433684766,0.012119497516399944,-0.12555103358421613,6.985664367675781e-05,-0.1244175867619519,-0.015650394313537704,0.08176021745976395,0.9924898539614622,-7.193544337880841,0.0,0.0,1.0,0.0,71676.7500914935,4.42701113539945,0.622263640649682,-290.3088516349502,65535,4.42701113539945,0.622263640649682,-290.3088516349502,,,,
0.890437126159668,15.691986166702048,-81.6872802476546,7.46807809461412,-0.041261799136609364,0.007942700010627165,-0.12644517043838066,0.0010023117065429688,-0.12444050063684155,-0.015691986166702046,0.08168728024765459,0.9925319219053859,-7.244774605931573,0.0,0.0,1.0,0.0,71247.4653269088,2.729680372540142,-1.2176794089347769,-122.02676027192658,65535,2.729680372540142,-1.2176794089347769,-122.02676027192658,,,,
0.8931574821472168,15.733718582264343,-81.7029820370159,7.530959655617286,-0.03391899375159795,-0.0014445451951937982,-0.12698779576087285,0.00021576881408691406,-0.12445474281726869,-0.01573371858226434,0.0817029820370159,0.9924690403443828,-7.275864746767301,0.0,0.0,1.0,0.0,70733.941230634,3.283980967272509,-1.559766791155539,-126.51093976903636,65535,3.283980967272509,-1.559766791155539,-126.51093976903636,1,255,175,59
0.8945887088775635,15.758066045208535,-81.66008925520953,7.4494558166323,-0.03959160098231087,0.007861034584349018,-0.12219927895993574,5.364418029785156e-05,-0.12446236037054074,-0.015758066045208536,0.08166008925520953,0.9925505441833677,-7.001502943946118,0.0,0.0,1.0,0.0,72098.0640683174,2.128120332831823,-1.4705776203571408,186.01357294250218,65535,2.128120332831823,-1.4705776203571408,186.01357294250218,,,,
0.8984072208404541,15.70401896671767,-81.69861164476785,7.489243837252227,-0.04186762661832907,0.007939395844234127,-0.12728947004162677,0.0001983642578125,-0.12449252485913417,-0.01570401896671767,0.08169861164476785,0.9925107561627478,-7.293149409842146,0.0,0.0,1.0,0.0,70957.14590428819,3.532570338183609,-0.6421521888771884,-223.23772431802294,65535,3.532570338183609,-0.6421521888771884,-223.23772431802294,,,,
0.9006762504577637,15.715815736111495,-81.6511212546013,7.403234816558732,-0.035089345111299935,0.009212924436611663,-0.12371099530150856,7.319450378417969e-05,-0.12451164135243288,-0.015715815736111496,0.0816511212546013,0.9925967651834412,-7.088117910139197,0.0,0.0,1.0,0.0,71766.62118221959,2.4694308591491003,-1.1327953628734877,29.46209018950283,65535,2.4694308591491003,-1.1327953628734877,29.46209018950283,,,,
0.9021258354187012,15.64955671234904,-81.75024142469637,7.453683371280397,-0.04416657205401732,0.01070742629678108,-0.1264329710026903,7.081031799316406e-05,-0.12452483862200656,-0.01564955671234904,0.08175024142469636,0.9925463166287196,-7.244075629754074,0.0,0.0,1.0,0.0,70595.12328462994,5.485958457642765,0.11666904060099048,-268.28389852917024,65535,5.485958457642765,0.11666904060099048,-268.28389852917024,,,,
0.9040310382843018,15.639719696914293,-81.67877188351359,7.400404891169293,-0.0380627084559767,0.010479137099080084,-0.12341656832124615,7.867813110351562e-05,-0.12454191487345723,-0.015639719696914293,0.08167877188351359,0.9925995951088308,-7.07124848679538,0.0,0.0,1.0,0.0,71591.4048555919,1.9787631553979323,-0.7344838847889389,30.806192830286875,65535,1.9787631553979323,-0.7344838847889389,30.806192830286875,255,251,81,61
0.9055423736572266,15.702113295200045,-81.69980783006173,7.469306046606955,-0.036387111306818445,0.007021743999366432,-0.12651217594438433,0.00011444091796875,-0.12455606517220313,-0.015702113295200045,0.08169980783006173,0.9925306939533931,-7.248613738629722,0.0,0.0,1.0,0.0,70371.89468433593,3.4344848080984445,-2.417999557655574,-284.5977132259676,65535,3.4344848080984445,-2.417999557655574,-284.5977132259676,,,,
0.9093668460845947,15.738640399579221,-81.7103127423501,7.521705897985901,-0.032603520889730404,-0.002537378246022714,-0.12233423916844138,0.00014281272888183594,-0.12458320745672352,-0.015738640399579222,0.08171031274235009,0.992478294102014,-7.0092355942956965,0.0,0.0,1.0,0.0,70898.26818709415,3.2081088733483236,-1.361488732298087,-11.671329642160387,65535,3.2081088733483236,-1.361488732298087,-11.671329642160387,,,,
0.9121265411376953,15.632288646320038,-81.7651165482741,7.461795025222969,-0.04495978691304998,0.01242032646153428,-0.12631973318549927,0.0001742839813232422,-0.12460160780392414,-0.015632288646320037,0.08176511654827409,0.9925382049747771,-7.237587580747754,0.0,0.0,1.0,0.0,71513.45737229202,3.950449923511342,0.1092116403608685,-233.61094359856227,65535,3.950449923511342,0.1092116403608685,-233.61094359856227,,,,
0.9138882160186768,15.710018742423426,-81.69943003559342,7.480972847356333,-0.030739254159877886,0.0005960602720396727,-0.12395107036624266,0.00016188621520996094,-0.12461250589699711,-0.015710018742423424,0.08169943003559342,0.9925190271526436,-7.101873198114792,0.0,0.0,1.0,0.0,70935.72719414627,1.7948582933018025,-2.303063244781302,9.530222933871343,65535,1.7948582933018025,-2.303063244781302,9.530222933871343,255,193,1,255
0.9153339862823486,15.747632525380082,-81.6526333349317,7.467772070614081,-0.03842395786700214,0.00735152349583604,-0.12256913410177342,7.367134094238281e-05,-0.12462034685327221,-0.01574763252538008,0.08165263333493171,0.992532227929386,-7.022694082604629,0.0,0.0,1.0,0.0,71273.74882823646,2.0260381960119798,-1.7428670778473085,-23.12355674969774,65535,2.0260381960119798,-1.7428670778473085,-23.12355674969774,,,,
0.9188919067382812,15.706735849665192,-81.7183942109897,7.5751477185996805,-0.031577697093951376,-0.0032552039280550455,-0.12533033936574356,0.00021719932556152344,-0.12463646271779262,-0.015706735849665192,0.0817183942109897,0.9924248522814003,-7.180899490599425,0.0,0.0,1.0,0.0,70624.43013613988,3.792578256237661,-0.7505450229874163,-174.22484306806632,65535,3.792578256237661,-0.7505450229874163,-174.22484306806632,,,,
0.9221513271331787,15.739759088363714,-81.73371362918547,7.553476981409587,-0.0315321704716975,-0.0012789837460331934,-0.12189177501735964,8.416175842285156e-05,-0.1246420719057296,-0.015739759088363715,0.08173371362918547,0.9924465230185904,-6.983884265852874,0.0,0.0,1.0,0.0,71243.49940301642,3.2731555403791206,-1.3756004133508748,-14.177102205928136,65535,3.2731555403791206,-1.3756004133508748,-14.177102205928136,,,,
0.9243931770324707,15.70317271616769,-81.72138151841895,7.441709399630925,-0.037930552601177045,0.009680864258066585,-0.1267898365544688,8.249282836914062e-05,-0.12464456528785327,-0.015703172716167692,0.08172138151841896,0.9925582906003692,-7.264522519724589,0.0,0.0,1.0,0.0,71974.51291620423,3.054738788646745,-0.49205458687273007,-296.9000598449084,65535,3.054738788646745,-0.49205458687273007,-296.9000598449084,255,193,141,53
0.9288947582244873,15.741617824221589,-81.71842394558321,7.552443666500865,-0.03015054782546948,-0.0034007069198036624,-0.12236537762832353,0.00027489662170410156,-0.12463358405044699,-0.01574161782422159,0.08171842394558321,0.9924475563334991,-7.011019696627481,0.0,0.0,1.0,0.0,70708.64783723826,3.1122549595251114,-1.2935990104500315,-20.662706841208433,65535,3.1122549595251114,-1.2935990104500315,-20.662706841208433,,,,
0.9313185214996338,15.642438735502331,-81.75075199640808,7.494978359180378,-0.04243999919809308,0.011314453047096273,-0.12650765465254415,7.343292236328125e-05,-0.12462657924883765,-0.01564243873550233,0.08175075199640808,0.9925050216408197,-7.248354687689333,0.0,0.0,1.0,0.0,71539.65395276576,3.756010050388763,0.2275646773063582,-255.73552544737055,65535,3.756010050388763,0.2275646773063582,-255.73552544737055,,,,
0.9329719543457031,15.750742330533539,-81.66542409063032,7.462292371036574,-0.040160666061071416,0.00560937487124486,-0.12238250744415789,7.486343383789062e-05,-0.12462051140742901,-0.01575074233053354,0.08166542409063032,0.9925377076289634,-7.012001162778627,0.0,0.0,1.0,0.0,71458.6945043431,1.2895407919859185,-2.874108429842366,106.7048218887014,65535,1.2895407919859185,-2.874108429842366,106.7048218887014,,,,
0.9344298839569092,15.688464021148212,-81.76572969810505,7.526033831172532,-0.03551875479444802,-0.0008184620693958448,-0.12693724783471197,4.76837158203125e-05,-0.1246152825798153,-0.01568846402114821,0.08176572969810504,0.9924739661688274,-7.272968563935144,0.0,0.0,1.0,0.0,70414.67110667824,5.5932923988165495,0.09531841604872815,-385.78224699805224,65535,5.5932923988165495,0.09531841604872815,-360,255,255,77,253
0.939277172088623,15.694028925402442,-81.69416951018873,7.470067203732841,-0.04024307600500356,0.009098925045730252,-0.12164315425188957,6.0558319091796875e-05,-0.12457902065164654,-0.01569402892540244,0.08169416951018874,0.9925299327962672,-6.969639345292127,0.0,0.0,1.0,0.0,71317.18190096883,2.6981052836779345,-0.987812637500234,-10.858658289007991,65535,2.6981052836779345,-0.987812637500234,-10.858658289007991,,,,
0.9416284561157227,15.767758198490917,-81.69465912185508,7.524355255945726,-0.03089164695634755,-0.0020945655802506076,-0.12077123950784223,5.412101745605469e-05,-0.12455496619129741,-0.015767758198490918,0.08169465912185508,0.9924756447440543,-6.919682310362985,0.0,0.0,1.0,0.0,70739.59218612265,3.054211225159022,-2.0049376606342744,-71.84093543348851,65535,3.054211225159022,-2.0049376606342744,-71.84093543348851,,,,
0.9430065155029297,15.688236848755588,-81.64824799703642,7.452799227569972,-0.03503867070521725,0.008352353966821035,-0.1240716286053632,5.245208740234375e-05,-0.12453905669761635,-0.015688236848755588,0.08164824799703642,0.9925472007724301,-7.108780676401927,0.0,0.0,1.0,0.0,72002.2273998408,2.3306385536248078,0.9715063345195296,-312.96262405617404,65535,2.3306385536248078,0.9715063345195296,-312.96262405617404,255,76,6,188
0.9445071220397949,15.694849834523362,-81.69792430919667,7.45023446694344,-0.0419158317931521,0.009764675880419921,-0.12165705757278701,5.125999450683594e-05,-0.12451933348479755,-0.01569484983452336,0.08169792430919666,0.9925497655330565,-6.970435946900767,0.0,0.0,1.0,0.0,71180.87734033691,4.208741951582221,-1.2668899720133542,33.68834302146462,65535,4.208741951582221,-1.2668899720133542,33.68834302146462,,,,
0.9509332180023193,15.632334090598224,-81.74124838769177,7.475715730090893,-0.042919991489574295,0.008210792354589082,-0.12601580627342054,5.459785461425781e-05,-0.1244462148608283,-0.015632334090598225,0.08174124838769177,0.9925242842699091,-7.2201738514052,0.0,0.0,1.0,0.0,71064.52802499585,3.4287687385297065,-0.7154312953260524,-166.58209730081984,65535,3.4287687385297065,-0.7154312953260524,-166.58209730081984,,,,
0.9523680210113525,15.661270223077905,-81.76316635866928,7.762261500113336,-0.04408963140753716,0.009998162047180846,-0.11909933357593579,5.078315734863281e-05,-0.12442915978384102,-0.015661270223077905,0.08176316635866929,0.9922377384998866,-6.823889156721859,0.0,0.0,1.0,0.0,67734.45381264959,3.5824165441917146,-1.6986490181138008,312.0711373954607,65535,3.5824165441917146,-1.6986490181138008,312.0711373954607,14,255,2,255
0.9539206027984619,15.684334888457474,-81.7674828295349,7.648341666704353,-0.04682773660685832,0.008294059560341648,-0.12129968123660789,0.00021719932556152344,-0.12440920041590321,-0.015684334888457475,0.0817674828295349,0.9923516583332956,-6.949959791139855,0.0,0.0,1.0,0.0,72374.51658942341,3.207390104826402,-1.4781376643807569,-225.97558614470773,65535,3.207390104826402,-1.4781376643807569,-225.97558614470773,,,,
0.9584319591522217,15.639426976584353,-81.73250815496972,7.498457253115252,-0.024395227704475896,0.0025116250276594385,-0.12261180202997435,0.00012969970703125,-0.12433911366453623,-0.015639426976584353,0.08173250815496973,0.9925015427468847,-7.02513877481111,0.0,0.0,1.0,0.0,71687.16949256019,2.9728507433466826,-0.6405354658213691,-130.3327755963353,65535,2.9728507433466826,-0.6405354658213691,-130.3327755963353,,,,
0.9598166942596436,15.652994513930865,-81.75757192053645,7.629078955079334,-0.028532294142743095,0.0016251834601324888,-0.12539684293255632,4.8160552978515625e-05,-0.12431727523763779,-0.015652994513930867,0.08175757192053645,0.9923709210449206,-7.184709864300362,0.0,0.0,1.0,0.0,69517.93434499952,3.720321640398937,-1.3725775969152516,-282.1556555020584,65535,3.720321640398937,-1.3725775969152516,-282.1556555020584,,,,
0.9612476825714111,15.657067375231888,-81.730394928823,7.744666710882985,-0.00025331358770462094,-0.013711691226629318,-0.12963799699820297,0.00011873245239257812,-0.1242958211903012,-0.015657067375231887,0.081730394928823,0.9922553332891171,-7.427710092526666,0.0,0.0,1.0,0.0,69741.97968316318,2.5658268693478297,-1.0038607008756333,-365.3733330948351,65535,2.5658268693478297,-1.0038607008756333,-360,,,,
0.9637417793273926,15.712760973031708,-81.60497044076195,7.639602111454233,-0.004395291790391028,-0.012914179575110615,-0.12870070032635997,5.364418029785156e-05,-0.12426763242983843,-0.015712760973031707,0.08160497044076194,0.9923603978885458,-7.374006949078403,0.0,0.0,1.0,0.0,71816.6718591646,1.4853356039759509,-1.505704839051535,-78.56011713065216,65535,1.4853356039759509,-1.505704839051535,-78.56011713065216,240,255,168,108
0.9651281833648682,15.724638753373355,-81.57173377016464,7.744792278898592,-0.02880368501846601,0.00445604536237967,-0.12516287765467346,3.743171691894531e-05,-0.12425474035549815,-0.015724638753373356,0.08157173377016465,0.9922552077211014,-7.171304641325069,0.0,0.0,1.0,0.0,69790.63380675566,2.366333862198402,-1.1852025632735237,116.51980840306575,65535,2.366333862198402,-1.1852025632735237,116.51980840306575,,,,
0.9685566425323486,15.977979551296594,-81.56888204341331,7.97063054883151,-0.009175360777471555,-0.017798944814517673,-0.12786236586289934,0.0004405975341796875,-0.12424498119843452,-0.015977979551296595,0.08156888204341331,0.9920293694511685,-7.325973922501745,0.0,0.0,1.0,0.0,70020.28379065233,2.842484470452605,-3.3651790379667696,-177.29246102805638,65535,2.842484470452605,-3.3651790379667696,-177.29246102805638,,,,
0.9707462787628174,15.856742786970756,-81.54121337410346,8.051643613890295,-0.0364974614499424,0.023873913372801127,-0.12117642409011274,5.0067901611328125e-05,-0.12424308284299469,-0.015856742786970756,0.08154121337410346,0.9919483563861097,-6.942897676850857,0.0,0.0,1.0,0.0,70476.10521636099,2.976398288037288,0.7821952281864635,159.05489065784693,65535,2.976398288037288,0.7821952281864635,159.05489065784693,,,,
0.9721314907073975,15.947266742348004,-81.58825646910014,8.11866824387058,-0.05309158125253015,0.028072476376955337,-0.11633660016094025,5.125999450683594e-05,-0.12424144085272415,-0.015947266742348004,0.08158825646910015,0.9918813317561294,-6.66559619212285,0.0,0.0,1.0,0.0,70329.70828801778,3.9774205426513323,-3.238481228948404,199.42056885677502,65535,3.9774205426513323,-3.238481228948404,199.42056885677502,121,171,251,97
0.9736080169677734,16.074783386420215,-81.51795077808497,9.199808112295774,-0.08569491516647605,0.03874084331016515,-0.11007305202086708,4.9591064453125e-05,-0.12423529900670802,-0.016074783386420214,0.08151795077808496,0.9908001918877043,-6.3067213189196405,0.0,0.0,1.0,0.0,58625.75962974211,1.304951688002096,-3.585891347812799,270.2150590760489,58625.75962974211,1.304951688002096,-3.585891347812799,270.2150590760489,,,,
0.9779558181762695,16.30686806225203,-81.3348018457904,10.086166555508376,-0.06526310761416314,0.04818516891777566,-0.10283580683407928,5.2928924560546875e-05,-0.12408887760559056,-0.01630686806225203,0.0813348018457904,0.9899138334444916,-5.892057714415331,0.0,0.0,1.0,0.0,67579.62057917961,1.6274252651850818,-2.4923721828752963,54.58481942955403,65535,1.6274252651850818,-2.4923721828752963,54.58481942955403,,,,
0.9793479442596436,16.536705120421793,-81.45416407990301,11.265450342250801,-0.07102990199510141,0.046477427153190115,-0.0900557561381407,6.437301635742188e-05,-0.12402326201179399,-0.016536705120421793,0.08145416407990301,0.9887345496577492,-5.159814747574819,0.0,0.0,1.0,0.0,56796.459569031744,5.252784350457941,-6.499424999679115,708.2225617308764,56796.459569031744,5.252784350457941,-6.499424999679115,360,,,,
0.9808285236358643,16.8750836559863,-81.30304849301181,13.223722361091262,-0.0642871776257629,0.054872538900518415,-0.07523626748371827,5.555152893066406e-05,-0.1239238738064097,-0.0168750836559863,0.08130304849301181,0.9867762776389087,-4.310720593134407,0.0,0.0,1.0,0.0,48445.73296412424,-0.9582676543513076,-7.785399619204547,799.4670643671467,48445.73296412424,-0.9582676543513076,-7.785399619204547,360,,,,
0.9831230640411377,17.253506958619248,-80.99780615011552,15.629380855626703,-0.09075824029059948,0.06664068932148058,-0.0618865296742568,5.412101745605469e-05,-0.12366132800165645,-0.01725350695861925,0.08099780615011552,0.9843706191443733,-3.545836959046044,0.0,0.0,1.0,0.0,53105.10999269209,-1.6477921140516432,-5.509343847450319,446.78457330127435,53105.10999269209,-1.6477921140516432,-5.509343847450319,360,255,173,255,43
0.9845085144042969,17.589974799878203,-80.82975875163949,18.440731760729946,-0.08712138384348238,0.06712639707788041,-0.05281569035290505,5.340576171875e-05,-0.12345538762012899,-0.017589974799878203,0.08082975875163949,0.9815592682392701,-3.0261161492912767,0.0,0.0,1.0,0.0,36340.70231730172,-1.5612305842325052,-7.9608671683824515,517.5904559108527,36340.70231730172,-1.5612305842325052,-7.9608671683824515,360,,,,
0.9895405769348145,17.92625015882352,-80.66860082969781,21.592253083284444,-0.08068557150404627,0.07748234130605824,-0.046427807092616145,0.00020694732666015625,-0.12189215308994453,-0.01792625015882352,0.0806686008296978,0.9784077469167156,-2.6601173984544544,0.0,0.0,1.0,0.0,60068.0058911636,2.1115694526675375,-2.3240467340269424,69.03309742723422,60068.0058911636,2.1115694526675375,-2.3240467340269424,69.03309742723422,,,,
0.9916229248046875,18.668542027710483,-80.16763324630988,25.611878373244007,-0.08855689304341469,0.06248280586190943,-0.023110913196015367,5.078315734863281e-05,-0.12108569113147576,-0.018668542027710483,0.08016763324630988,0.9743881216267559,-1.3241577868248813,0.0,0.0,1.0,0.0,38315.55930514487,-5.623200106452039,-10.448964051664754,931.3747443728812,38315.55930514487,-5.623200106452039,-10.448964051664754,360,,,,
0.993084192276001,19.438606205567794,-80.08652906061644,30.155154054334776,-0.05364738211792995,0.04164179371400456,-0.007806974205884429,5.364418029785156e-05,-0.1204273413305578,-0.019438606205567793,0.08008652906061645,0.9698448459456652,-0.4473066727646752,0.0,0.0,1.0,0.0,16570.797814378187,-0.28871633741739045,-16.909049222838785,913.3488059560228,16570.797814378187,-0.28871633741739045,-16.909049222838785,360,255,86,255,172
0.9944467544555664,20.098002321190002,-79.59864040072758,34.85534159743861,-0.05667418562740853,0.019313449522608165,0.01034145882343381,3.695487976074219e-05,-0.11973191052146993,-0.020098002321190002,0.07959864040072757,0.9651446584025614,0.5925219445910833,0.0,0.0,1.0,0.0,11147.846560699883,-9.80142349927967,-14.046037724522375,1164.9288246865533,11147.846560699883,-9.80142349927967,-14.046037724522375,360,,,,
1.0016911029815674,20.948118201698964,-79.03371464149758,39.988977476478546,-0.0569637740363029,0.013582978645381827,0.019695898550312025,0.002494335174560547,-0.11323654727453711,-0.020948118201698965,0.07903371464149758,0.9600110225235214,1.1284918606507155,0.0,0.0,1.0,0.0,58125.71521951476,0.9857217380961041,-2.4343726910793775,127.60552620834179,58125.71521951476,0.9857217380961041,-2.4343726910793775,127.60552620834179,,,,
1.0117955207824707,21.773567598545572,-78.49395694955653,45.97432910695683,-0.06120456953057583,0.0035850367560155685,0.03759645742875874,0.008768558502197266,-0.09960808831010377,-0.02177356759854557,0.07849395694955653,0.9540256708930431,2.1541183353111464,0.0,0.0,1.0,0.0,59886.98697092188,2.3381455224370606,-0.31434851031891586,184.55875702153222,59886.98697092188,2.3381455224370606,-0.31434851031891586,184.55875702153222,231,139,231,0
1.0220704078674316,22.63235682431368,-77.8441888991586,52.29797511415878,-0.05661674268039118,0.012218129774239393,0.04472434446946327,0.008398771286010742,-0.08270438903976582,-0.02263235682431368,0.07784418889915859,0.9477020248858412,2.5625161795895104,0.0,0.0,1.0,0.0,59305.4783486325,2.3083566127122572,0.35284835515729673,98.05022164544998,59305.4783486325,2.3083566127122572,0.35284835515729673,98.05022164544998,255,21,255,99
1.0318849086761475,23.362896035373186,-77.09647861247333,58.437085401718534,-0.09493585064705425,0.022507784887696367,0.0511856014667197,0.008308649063110352,-0.06522420501467531,-0.023362896035373185,0.07709647861247333,0.9415629145982816,2.932718935881675,0.0,0.0,1.0,0.0,58946.62193323685,2.042642868014083,0.9778099673020841,100.5762497045325,58946.62193323685,2.042642868014083,0.9778099673020841,100.5762497045325,255,117,255,91
1.0421171188354492,24.360925354315725,-76.27738031101136,65.47686804137999,-0.05410216671947708,-0.013417571928170894,0.05253883453018965,0.008891105651855469,-0.04699534293768702,-0.024360925354315725,0.07627738031101136,0.93452313195862,3.010253479116062,0.0,0.0,1.0,0.0,57677.26056538707,1.8733722186705177,0.1986295066191215,56.513166163157166,57677.26056538707,1.8733722186705177,0.1986295066191215,56.513166163157166,255,32,255,136
1.052274227142334,25.474102251894056,-75.4036189508405,72.84570259063881,-0.06403073685304723,-0.02549658095003525,0.06532396573949323,0.008805990219116211,-0.029534647114467925,-0.025474102251894056,0.0754036189508405,0.9271542974093612,3.742787537930148,0.0,0.0,1.0,0.0,56807.25817915122,1.6288201371745796,-0.39003955248359723,164.35025615622965,56807.25817915122,1.6288201371745796,-0.39003955248359723,164.35025615622965,,,,
1.0614097118377686,26.374721072115612,-74.3481944813103,80.35276800718228,-0.0928576446743774,-0.003882692190053196,0.0661773627280001,0.00779271125793457,-0.014787731858352832,-0.026374721072115612,0.0743481944813103,0.9196472319928177,3.7916835836207654,0.0,0.0,1.0,0.0,54938.98825453293,0.6161639140128754,-0.3334989012250267,64.90583093437021,54938.98825453293,0.6161639140128754,-0.3334989012250267,64.90583093437021,255,158,152,104
1.0712668895721436,27.55883232169079,-73.29188609447695,88.67330473741528,-0.10014810216341827,0.017650971457217907,0.07619252453624796,0.008489370346069336,-9.509371803997566e-05,-0.02755883232169079,0.07329188609447695,0.9113266952625847,4.365510086373978,0.0,0.0,1.0,0.0,54317.9818306133,0.786293522031825,-1.4096489520665159,152.81010330948726,54317.9818306133,0.786293522031825,-1.4096489520665159,152.81010330948726,255,43,255,37
1.081660509109497,28.65497657046905,-72.38548200505056,97.46075296382325,-0.07121755907607731,-0.003970214321457611,0.07255497575190603,0.009054899215698242,0.013657082252796762,-0.02865497657046905,0.07238548200505056,0.9025392470361768,4.157093893258242,0.0,0.0,1.0,0.0,54034.213473285854,1.3122396108382746,-1.4081539460272627,32.27792721625325,54034.213473285854,1.3122396108382746,-1.4081539460272627,32.27792721625325,255,194,202,232
1.0918316841125488,29.781661730386098,-70.99090453914076,106.0934162580557,-0.07324241745983277,-0.010754787830767972,0.07318144210652212,0.008831262588500977,0.02530938948172521,-0.029781661730386096,0.07099090453914075,0.8939065837419443,4.192987771384691,0.0,0.0,1.0,0.0,53718.0046603456,-0.4294399467504024,-2.100164625540252,68.18928014664812,53718.0046603456,-0.4294399467504024,-2.100164625540252,68.18928014664812,255,58,156,174
1.101362943649292,30.96066987234869,-69.72322715296532,115.24999254008694,-0.08944730807859054,0.002007716022208122,0.07326337114701724,0.00817561149597168,0.03464547810302621,-0.03096066987234869,0.06972322715296532,0.8847500074599131,4.197681959624617,0.0,0.0,1.0,0.0,51555.78858350799,-0.41921712298287117,-2.9919651817999044,63.703782929610206,51555.78858350799,-0.41921712298287117,-2.9919651817999044,63.703782929610206,255,1,99,151
1.111891269683838,32.25280275688897,-68.50707717464017,124.82567057994333,-0.07363440099583612,0.0098812632133343,0.07487257208838373,0.008578062057495117,0.04320116174394438,-0.032252802756888965,0.06850707717464018,0.8751743294200567,4.2898823819533956,0.0,0.0,1.0,0.0,52138.51074378972,0.0037435419668780945,-3.411119226421768,77.4857748030638,52138.51074378972,0.0037435419668780945,-3.411119226421768,77.4857748030638,255,33,209,197
1.1219415664672852,33.55861550931955,-66.85674585209055,134.47060678148569,-0.11471568314529436,0.03238861303322969,0.07020476485257948,0.00871133804321289,0.0497766589176484,-0.03355861550931955,0.06685674585209056,0.8655293932185143,4.022436727761185,0.0,0.0,1.0,0.0,51013.308701258786,-1.6954256236942684,-4.157427825311078,20.4195209128236,51013.308701258786,-1.6954256236942684,-4.157427825311078,20.4195209128236,255,35,187,203
1.1316447257995605,34.77360746110036,-65.58797698104553,144.59242493684448,-0.09673211531340391,0.028147118728062054,0.06525971079608583,0.007930517196655273,0.05463731500336514,-0.034773607461100364,0.06558797698104553,0.8554075750631555,3.739106000860052,0.0,0.0,1.0,0.0,49286.65568276113,-0.7827841400628768,-4.377103011532661,12.283596973301393,49286.65568276113,-0.7827841400628768,-4.377103011532661,12.283596973301393,255,55,81,127
1.142115831375122,35.92839513656815,-64.05358449676343,154.93744010196804,-0.1172120734456336,0.020555271690119434,0.06294843190366152,0.009134292602539062,0.05831949641708349,-0.03592839513656815,0.06405358449676343,0.8450625598980319,3.6066794750464672,0.0,0.0,1.0,0.0,49924.618825950514,-1.4834068803832898,-4.321663536393286,35.13552718012127,49924.618825950514,-1.4834068803832898,-4.321663536393286,35.13552718012127,195,149,247,197
1.152073621749878,37.31612571422038,-62.42852346943506,165.89711415618785,-0.06586819378382695,0.0007811051690706883,0.04835932556899994,0.008589982986450195,0.06019347831948159,-0.037316125714220376,0.06242852346943507,0.8341028858438121,2.7707852552027847,0.0,0.0,1.0,0.0,47702.01880017482,-2.169406718939686,-5.707692246107367,-84.36288426610508,47702.01880017482,-2.169406718939686,-5.707692246107367,-84.36288426610508,195,65,77,199
1.1618692874908447,38.733636102285274,-60.583751465620146,176.8821998140556,-0.07659008849025545,-0.009639446254306046,0.04428531031248922,0.008450508117675781,0.06058514370794561,-0.03873363610228527,0.060583751465620145,0.8231178001859444,2.5373613753328135,0.0,0.0,1.0,0.0,47039.75451404681,-3.180118407967633,-6.304923431621311,2.3121168021591387,47039.75451404681,-3.180118407967633,-6.304923431621311,2.3121168021591387,93,163,245,27
1.1715288162231445,39.97501257370205,-59.007087959321126,187.89559744105213,-0.0770819565944763,0.009310058749525504,0.038523416879194736,0.008252382278442383,0.05973680160003063,-0.039975012573702055,0.05900708795932113,0.8121044025589479,2.2072291996008957,0.0,0.0,1.0,0.0,46377.71178648237,-2.6157100310251744,-6.049331624315938,-18.163150695239302,46377.71178648237,-2.6157100310251744,-6.049331624315938,-18.163150695239302,146,8,166,24
1.1815426349639893,41.42417271698239,-57.232479877984055,199.74687415759328,-0.05876631390381129,-0.0423069172975145,0.039557509846381234,0.008677959442138672,0.05798130322400187,-0.04142417271698239,0.057232479877984056,0.8002531258424067,2.2664783622448423,0.0,0.0,1.0,0.0,45323.461028640086,-3.212748578648698,-6.813510946327676,42.86595085684206,45323.461028640086,-3.212748578648698,-6.813510946327676,42.86595085684206,66,222,232,244
1.191601037979126,42.7790177031299,-55.36665651081931,211.43640290518417,-0.07303361295840481,-0.027146351885948078,0.03337801733569003,0.008270740509033203,0.05554476782167066,-0.042779017703129904,0.05536665651081931,0.7885635970948158,1.9124195218495352,0.0,0.0,1.0,0.0,45322.43113941826,-3.6768320246866772,-6.679945260898517,-24.119169332272552,45322.43113941826,-3.6768320246866772,-6.679945260898517,-24.119169332272552,179,85,31,125
1.2019898891448975,44.07790496803399,-53.5624511780696,223.51560692198427,-0.048090622306020084,-0.047534820596295546,0.026284868077967195,0.009031534194946289,0.05239799059096946,-0.044077904968033994,0.0535624511780696,0.7764843930780158,1.5060120059256643,0.0,0.0,1.0,0.0,44933.18926857156,-3.4962766701106793,-6.495499955926041,-36.11748653578689,44933.18926857156,-3.4962766701106793,-6.495499955926041,-36.11748653578689,216,66,166,108
1.2118873596191406,45.44378962926978,-51.61611758692863,235.7592087879669,-0.044536390530817815,-0.06897341741005167,0.0224339789868759,0.008558034896850586,0.04896033266230061,-0.04544378962926978,0.051616117586928634,0.764240791212033,1.2853723136331636,0.0,0.0,1.0,0.0,43330.05736828618,-4.378045154215723,-7.053846999988911,-14.163855037029247,43330.05736828618,-4.378045154215723,-7.053846999988911,-14.163855037029247,153,207,207,241
1.221709966659546,46.58992100299405,-49.772822585890445,248.18697128445046,-0.0414700327043663,-0.07893942851584493,0.012826574017776878,0.008415460586547852,0.04505397473674422,-0.046589921002994056,0.04977282258589045,0.7518130287155496,0.7349085568307744,0.0,0.0,1.0,0.0,42512.53406026202,-4.291512702920027,-6.446016613116186,-72.86200821086483,42512.53406026202,-4.291512702920027,-6.446016613116186,-72.86200821086483,131,135,49,217
1.2321951389312744,47.841386182989154,-47.90233452360266,260.6006822063321,0.01164775954285309,-0.10320814526464084,0.014654572488193247,0.009119510650634766,0.04068866508401347,-0.04784138618298915,0.04790233452360266,0.739399317793668,0.8396451541420025,0.0,0.0,1.0,0.0,43442.56791362172,-4.1589180710971645,-6.579968150214622,27.605171710027705,43442.56791362172,-4.1589180710971645,-6.579968150214622,27.605171710027705,57,61,231,171
1.2418415546417236,48.81492091681062,-45.79935411958495,273.54742966529795,-0.04722512942242102,-0.06937818413826954,7.201612564389618e-05,0.00830388069152832,0.03628675097634969,-0.04881492091681062,0.04579935411958495,0.726452570334702,0.004126220056279109,0.0,0.0,1.0,0.0,40402.63939011641,-5.624384280774618,-6.09168658447348,-129.86940686889722,40402.63939011641,-5.624384280774618,-6.09168658447348,-129.86940686889722,69,243,171,93
1.2523009777069092,49.85062886767796,-43.9329353415973,286.2150235433266,-0.0381138196855037,-0.06879899582621736,-0.008804488259609812,0.009123802185058594,0.03095544752862934,-0.049850628867677965,0.0439329353415973,0.7137849764566734,-0.5044600180481257,0.0,0.0,1.0,0.0,42241.8040867331,-4.561268069242424,-6.055574857198039,-80.49729046170941,42241.8040867331,-4.561268069242424,-6.055574857198039,-80.49729046170941,159,103,11,183
1.2621378898620605,51.116389654366145,-41.98414493205992,299.3758991352062,0.009685819970390324,-0.10808889781823604,0.00895934578596489,0.008498668670654297,0.026276854917242617,-0.05111638965436614,0.041984144932059916,0.7006241008647938,0.5133327007341075,0.0,0.0,1.0,0.0,39713.25723369487,-5.235401624790139,-6.972395351489736,162.89626068403135,39713.25723369487,-5.235401624790139,-6.972395351489736,162.89626068403135,1,237,189,89
1.2717156410217285,51.98953537154433,-40.057149912933994,312.7120600157721,-0.010332668946364388,-0.08904583717347006,0.0005712063652977554,0.008213281631469727,0.022096194409136537,-0.051989535371544326,0.04005714991293399,0.6872879399842279,0.03272771396256935,0.0,0.0,1.0,0.0,38358.19972930855,-5.425551500794533,-5.706528743651588,-74.7874254077401,38358.19972930855,-5.425551500794533,-5.706528743651588,-74.7874254077401,,,,
1.2813043594360352,52.711710854629935,-38.2308868534286,325.81238249816505,-0.0174606434767197,-0.0745513505894717,-0.00900925661811469,0.008245706558227539,0.018049278541899035,-0.05271171085462994,0.0382308868534286,0.6741876175018349,-0.516192380768277,0.0,0.0,1.0,0.0,38396.76568934898,-5.174826363941286,-5.155729736029292,-93.62537411088135,38396.76568934898,-5.174826363941286,-5.155729736029292,-93.62537411088135,200,6,144,250
1.291853666305542,53.509519112270965,-36.245463766730275,339.0901591182448,-0.01957154999378423,-0.081680710123308,-0.010760290397801188,0.009212970733642578,0.013730399495749647,-0.05350951911227096,0.036245463766730275,0.6609098408817552,-0.6165192261291538,0.0,0.0,1.0,0.0,39834.73402342396,-5.192638804622674,-5.134480565045685,-23.513206006843635,39834.73402342396,-5.192638804622674,-5.134480565045685,-23.513206006843635,,,,
1.301680088043213,54.14953136279197,-34.53823844427648,352.3417113026513,-0.005162247162556283,-0.0793661929167343,-0.014295705807770108,0.008491754531860352,0.009801276950227047,-0.05414953136279197,0.03453823844427648,0.6476582886973488,-0.8190836079458865,0.0,0.0,1.0,0.0,37893.313121562,-4.814950009465072,-4.762674817326712,-43.20688919700211,37893.313121562,-4.814950009465072,-4.762674817326712,-43.20688919700211,202,220,92,238
1.3113491535186768,54.84626123239047,-32.70610595157446,365.8516408984252,0.002004678079331259,-0.08468395550262331,-0.011700841936860197,0.008327484130859375,0.0061955444011488545,-0.05484626123239047,0.03270610595157446,0.6341483591015747,-0.670408859731769,0.0,0.0,1.0,0.0,36715.46836430065,-5.357124599373329,-4.940942681730641,12.962955001161376,36715.46836430065,-5.357124599373329,-4.940942681730641,12.962955001161376,67,61,7,225
1.3218672275543213,55.39464869294326,-30.89855238607904,379.15233694836786,-0.007944276907172537,-0.08898031295146232,-0.021127383957533236,0.00915670394897461,0.002381452832939045,-0.055394648692943256,0.03089855238607904,0.6208476630516322,-1.210509932919057,0.0,0.0,1.0,0.0,38472.92488355596,-4.900138376999968,-4.280466837173769,-95.32754742247802,38472.92488355596,-4.900138376999968,-4.280466837173769,-95.32754742247802,48,122,160,98
1.3319239616394043,55.86216045235274,-29.201433456131696,392.57143306874997,0.010559606702067171,-0.10085768857910239,-0.018777248075166342,0.008722543716430664,-0.001061734961290116,-0.05586216045235274,0.029201433456131697,0.6074285669312501,-1.0758570655771802,0.0,0.0,1.0,0.0,36911.17764170312,-4.84400009557492,-4.056946705191055,3.951368350116418,36911.17764170312,-4.84400009557492,-4.056946705191055,3.951368350116418,,,,
1.3422613143920898,56.28085912336767,-27.510720920287266,405.88013039932184,0.016137763284356094,-0.09077222640622136,-0.01955249142157779,0.009024381637573242,-0.004302382556798375,-0.05628085912336767,0.027510720920287265,0.5941198696006782,-1.1202752374221545,0.0,0.0,1.0,0.0,37355.59866894318,-4.699004548956384,-3.8179379743427413,-23.236957937583288,37355.59866894318,-4.699004548956384,-3.8179379743427413,-23.236957937583288,162,24,198,160
1.3516931533813477,56.6297209164362,-25.78631087462669,419.1327017241532,-0.0008977781950417491,-0.10027020070422704,-0.016668168677012752,0.00807499885559082,-0.006860108635122865,-0.0566297209164362,0.02578631087462669,0.5808672982758468,-0.9550157174049877,0.0,0.0,1.0,0.0,34875.179654442545,-5.343255963723719,-3.654136267796468,12.004197720885333,34875.179654442545,-5.343255963723719,-3.654136267796468,12.004197720885333,58,170,176,40
1.361860990524292,56.89796986514423,-24.13594390086559,432.32591226099214,-0.0025657950731407093,-0.10116405783077122,-0.018060146899190246,0.008828878402709961,-0.009183016743562086,-0.056897969865144234,0.02413594390086559,0.5676740877390078,-1.0347701947098817,0.0,0.0,1.0,0.0,36354.90662950498,-4.669767435778518,-3.2657726705884964,-27.279532645703632,36354.90662950498,-4.669767435778518,-3.2657726705884964,-27.279532645703632,207,131,255,91
1.3717262744903564,57.02010181126387,-22.582884509401623,445.60217138244764,-0.00029279668049092235,-0.09604310038862778,-0.02243368554976318,0.008076667785644531,-0.011197930628258013,-0.05702010181126387,0.022582884509401623,0.5543978286175524,-1.2853555009250521,0.0,0.0,1.0,0.0,35150.78526631767,-4.528762571447669,-2.7836515221114864,-57.32165259927672,35150.78526631767,-4.528762571447669,-2.7836515221114864,-57.32165259927672,117,137,209,57
1.3821802139282227,56.999839906794634,-21.169021031348336,458.75656020480216,0.03189768745292236,-0.11376154980078877,-0.019587060708142427,0.00908970832824707,-0.013005120187614279,-0.056999839906794636,0.021169021031348337,0.541243439795198,-1.1222559116430866,0.0,0.0,1.0,0.0,36167.53051889924,-3.832866035808599,-2.293615738919049,6.59976085001875,36167.53051889924,-3.832866035808599,-2.293615738919049,6.59976085001875,,,,
1.392451286315918,57.207310740612584,-19.721099527505963,471.83989747967155,0.03460171594283756,-0.11329871025389424,-0.015452615117607378,0.008921384811401367,-0.014326177452402378,-0.05720731074061258,0.01972109952750596,0.5281601025203284,-0.885369628678955,0.0,0.0,1.0,0.0,35542.65286029053,-4.000423932336043,-2.9650902280331994,21.321847580040274,35542.65286029053,-4.000423932336043,-2.9650902280331994,21.321847580040274,65,167,71,9
1.401803970336914,57.017620733616646,-18.257083897962442,484.9131043817168,0.023334644265189133,-0.1169763844659975,-0.016090836892840202,0.008002519607543945,-0.015182902051091891,-0.057017620733616645,0.01825708389796244,0.5150868956182832,-0.9219370427931428,0.0,0.0,1.0,0.0,33034.15929778851,-4.473066816088896,-1.62165676747426,-19.6955967713645,33034.15929778851,-4.473066816088896,-1.62165676747426,-19.6955967713645,168,190,134,108
1.4119670391082764,56.93125742150799,-16.902424803532348,497.63280336653474,0.009558488214596442,-0.09764539353121138,-0.018147336346087603,0.008819580078125,-0.01585926858707105,-0.056931257421507994,0.016902424803532348,0.5023671966334653,-1.0397657820351802,0.0,0.0,1.0,0.0,35138.00096058325,-3.7431379699617846,-1.9851055316706159,-32.9900655310146,35138.00096058325,-3.7431379699617846,-1.9851055316706159,-32.9900655310146,40,162,60,34
1.4214107990264893,56.704014931230404,-15.645885554456076,510.2813880270734,0.012295165868028167,-0.09760294420410405,-0.022383278282523594,0.008102655410766602,-0.01646628051663918,-0.0567040149312304,0.015645885554456077,0.4897186119729266,-1.2824673772554358,0.0,0.0,1.0,0.0,33260.4889474972,-3.774846452169826,-1.470813886893592,-57.79528967850398,33260.4889474972,-3.774846452169826,-1.470813886893592,-57.79528967850398,,,,
1.4321556091308594,56.42752113050545,-14.321356007124464,522.9955789261011,0.029816857064062632,-0.11133771313019308,-0.01693429903257454,0.009408712387084961,-0.01698334493924177,-0.05642752113050545,0.014321356007124465,0.4770044210738989,-0.9702638635789942,0.0,0.0,1.0,0.0,35538.55235903651,-3.483049916602973,-1.3988702797007306,29.026496647737964,35538.55235903651,-3.483049916602973,-1.3988702797007306,29.026496647737964,177,33,155,67
1.4417643547058105,56.11890832448111,-13.155373078899212,535.2957667616758,0.022807517337478662,-0.11108554743869281,-0.0177063302149845,0.008271932601928711,-0.017315153561682752,-0.05611890832448111,0.013155373078899212,0.46470423323832416,-1.0144979919835795,0.0,0.0,1.0,0.0,33519.22862854265,-3.440041231280188,-1.1734598724081184,-22.122933083043897,33519.22862854265,-3.440041231280188,-1.1734598724081184,-22.122933083043897,,,,
1.4520084857940674,55.857624955804766,-12.168113147444553,547.4915408266936,0.04164958825464727,-0.11036759818333387,-0.010052762334330294,0.008905649185180664,-0.01727872151490694,-0.05585762495580476,0.012168113147444553,0.4525084591733064,-0.5759808542052073,0.0,0.0,1.0,0.0,34669.623788168414,-2.6148502719977675,-1.3716512173863054,55.57029201803802,34669.623788168414,-2.6148502719977675,-1.3716512173863054,55.57029201803802,104,246,232,2
1.4613633155822754,55.3429362829768,-11.168035480374307,559.5217572923171,0.037095042441447006,-0.07921612334642407,-0.01615042714862099,0.008016824722290039,-0.017111805639991283,-0.055342936282976804,0.011168035480374308,0.4404782427076829,-0.925351312949487,0.0,0.0,1.0,0.0,32738.202517097252,-2.9420323622040554,-0.39999237326840253,-69.76760427063313,32738.202517097252,-2.9420323622040554,-0.39999237326840253,-69.76760427063313,147,5,67,217
1.4719464778900146,54.785038167674784,-10.070358046551435,571.4907643736626,0.04035984035250334,-0.07881216986084252,-0.013535097344628407,0.009217977523803711,-0.016788771080485196,-0.054785038167674785,0.010070358046551436,0.42850923562633736,-0.7755039531459352,0.0,0.0,1.0,0.0,34922.18708407243,-2.876673838621779,-0.4417636336878221,9.651063480104453,34922.18708407243,-2.876673838621779,-0.4417636336878221,9.651063480104453,19,187,179,7
1.4818251132965088,54.29176568097865,-9.082843720673921,583.3206226062342,0.040620147793955286,-0.09775332381641186,-0.014249924213758022,0.008542537689208984,-0.01643936064802201,-0.05429176568097865,0.009082843720673922,0.41667937739376576,-0.8164605158296127,0.0,0.0,1.0,0.0,33476.24891413701,-2.7822651085944314,-0.5168699358792621,-18.465868302091543,33476.24891413701,-2.7822651085944314,-0.5168699358792621,-18.465868302091543,,,,
1.4918098449707031,53.66111354977093,-8.10592639130493,595.1097465755453,0.0316828416766149,-0.09237529835304734,-0.008080090148911196,0.008650779724121094,-0.015877818228253782,-0.053661113549770934,0.00810592639130493,0.4048902534244547,-0.4629550636178444,0.0,0.0,1.0,0.0,33413.12626246114,-2.709781537013776,-0.06642635836062727,46.1486317528329,33413.12626246114,-2.709781537013776,-0.06642635836062727,46.1486317528329,154,54,24,192
