time,x_pos,y_pos,z_pos,x_rot,y_rot,z_rot,delta_time,z_filtered,x_pos_est,y_pos_est,x_error,y_error,z_error,yaw_error,x_setpoint,y_setpoint,z_setpoint,yaw_setpoint,vicon_available,thrust_cal,pitch_cal,roll_cal,yaw_cal,thrust_lim,pitch_lim,roll_lim,yaw_lim,gyro_x,gyro_y,acc_x,acc_y,acc_z,stateEstimate_az,stateEstimate_vz,stateEstimate_yaw,baro_pressure,pm_vbat
2.523465871810913,1242.8535474822895,1613.9196753348836,681.9967533892894,-0.0814090868565804,0.0029389826006802865,3.124600643237698,0.0003898143768310547,2.485489049851731,1242.8535474822895,1613.9196753348836,-0.4741035474822895,0.05483032466511645,0.6180032466107106,359.02642952138234,0.76875,1.66875,1.3,10313.240312354817,1.0,13187053.389251066,5379.902712143872,8902.026036065,-1227.509661955888,65535,40,40,-360,0.0064153121784329414,0.2948210835456848,0.0123748779296875,-0.0001919269561767578,0.9990234375,0.001575469970703125,0.079345703125,0.09454345703125,1019.6480102539062,3.943359375
2.526087999343872,1242.9533720961879,1613.5268693844291,682.2893387014929,-0.029010707425441755,0.011711762440709537,3.1183888207152375,0.0003914833068847656,2.4902432344957015,1242.8535474822895,1613.9196753348836,-0.4742033720961879,0.05522313061557088,0.6177106612985072,358.6705183077611,0.76875,1.66875,1.3,10313.240312354817,1.0,60629.119104618934,-13.925144319490201,32.356869410087384,-240.66176608390163,60629.119104618934,-13.925144319490201,32.356869410087384,-240.66176608390163,,,,,,,,,,
2.528620719909668,1243.0648843397976,1613.658934968355,682.262564888709,-0.031858422810459246,0.011757563614210773,3.135713243351698,0.00010061264038085938,2.4952209781681303,1242.8535474822895,1613.9196753348836,-0.47431488433979757,0.05509106503164503,0.617737435111291,359.66313460733113,0.76875,1.66875,1.3,10313.240312354817,1.0,62243.60948320804,-9.714945456190264,29.060091906011934,587.7894126573144,62243.60948320804,-9.714945456190264,29.060091906011934,360,,,,,,,,,,
2.5301907062530518,1242.9165207138485,1613.5146221687971,682.2204745631424,-0.03410926896436498,0.013542669164153328,3.121535961370277,7.677078247070312e-05,2.4982943769930186,1242.8535474822895,1613.9196753348836,-0.4741665207138485,0.055235377831202866,0.6177795254368577,358.85083618482884,0.76875,1.66875,1.3,10313.240312354817,1.0,62768.367851600124,-15.11656404132068,28.419236828992616,-805.1714356491827,62768.367851600124,-15.11656404132068,28.419236828992616,-360,,,,,,,,,,
2.5327091217041016,1243.055094220547,1613.646105142243,682.2382298813095,-0.03273710135746304,0.01190243903204893,3.1359402761758757,0.00010061264038085938,2.503538557013815,1243.055094220547,1613.646105142243,-0.47430509422054706,0.05510389485775704,0.6177617701186905,359.67614262996744,0.76875,1.66875,1.3,10313.240312354817,1.0,61963.31356319972,-9.89189818939293,29.179463637278747,462.25073841550363,61963.31356319972,-9.89189818939293,29.179463637278747,360,-0.04334477335214615,-0.1922813355922699,0.01140594482421875,-0.0010089874267578125,1.001953125,0.004184722900390625,0.0789794921875,0.09515380859375,1019.6480102539062,3.943359375
2.535031795501709,1242.8409104401624,1613.5271449488857,681.9309733988006,-0.0707511490023667,0.016200348767539414,3.123866888446958,8.606910705566406e-05,2.507906994961519,1243.055094220547,1613.646105142243,-0.4740909104401624,0.05522285505111427,0.6180690266011994,358.98438846867543,0.76875,1.66875,1.3,10313.240312354817,1.0,64618.47141284512,-14.572273258588675,27.641187504550714,-487.164434148093,64618.47141284512,-14.572273258588675,27.641187504550714,-360,,,,,,,,,,
2.537395477294922,1243.064076706629,1613.5736443051503,682.086830919782,-0.05756274221168578,0.0199776294003034,3.134143082264982,0.00026917457580566406,2.5125995168410253,1243.055094220547,1613.646105142243,-0.47431407670662906,0.05517635569484969,0.6179131690802181,359.5731710039066,0.76875,1.66875,1.3,10313.240312354817,1.0,61124.72172982813,-10.24456232680221,30.50577348128813,368.37492381775326,61124.72172982813,-10.24456232680221,30.50577348128813,360,,,,,,,,,,
2.5426809787750244,1242.8113888483356,1613.7257955612504,681.8723455935658,-0.08144764373794258,0.009695127817102488,3.1114662672479043,8.034706115722656e-05,2.523361151723005,1242.8113888483356,1613.7257955612504,-0.4740613888483356,0.05502420443874962,0.6181276544064342,358.2738852106292,0.76875,1.66875,1.3,10313.240312354817,1.0,62684.961230185414,-12.553737500905935,27.35196668904929,-387.0793941554251,62684.961230185414,-12.553737500905935,27.35196668904929,-360,0.354526162147522,0.29523274302482605,0.0147247314453125,-0.0026721954345703125,1.0029296875,0.004512786865234375,0.05645751953125,0.0947265625,1019.6567993164062,3.943359375
2.544783115386963,1242.8595816350426,1613.9476734016075,682.0322613183961,-0.08251549772182953,0.004557789757575276,3.123260212323961,7.772445678710938e-05,2.5273475716168945,1242.8113888483356,1613.7257955612504,-0.4741095816350426,0.05480232659839248,0.6179677386816039,358.9496284872963,0.76875,1.66875,1.3,10313.240312354817,1.0,60452.24261329602,-9.897902266098958,27.51718242013545,492.66455317011474,60452.24261329602,-9.897902266098958,27.51718242013545,360,,,,,,,,,,
2.5472004413604736,1242.8282433854176,1613.963083399394,682.0021514219668,-0.08265708857903331,0.0034190076522819506,3.1238715894700446,0.0002002716064453125,2.532189403874501,1242.8113888483356,1613.7257955612504,-0.47407824338541765,0.054786916600605993,0.6179978485780332,358.9846578174577,0.76875,1.66875,1.3,10313.240312354817,1.0,62339.35242161224,-12.829049908254847,28.262881924907195,6.47844580990477,62339.35242161224,-12.829049908254847,28.262881924907195,6.47844580990477,,,,,,,,,,
2.5529205799102783,1243.0315509473073,1613.3537108462972,682.1040532479808,-0.028733212284090277,0.020597985735581466,3.117526675127383,0.0002551078796386719,2.543893984772172,1243.0315509473073,1613.3537108462972,-0.47428155094730734,0.05539628915370281,0.6178959467520192,358.62112100425117,0.76875,1.66875,1.3,10313.240312354817,1.0,62317.096134057196,-14.860992966987713,30.884286754708825,-114.1212053900672,62317.096134057196,-14.860992966987713,30.884286754708825,-114.1212053900672,1.8514169454574585,2.349064350128174,0.0027313232421875,0.0050201416015625,1.0009765625,0.0032596588134765625,0.05645751953125,0.09136962890625,1019.6567993164062,3.943359375
2.5554864406585693,1243.0094264602158,1613.5641234289367,682.1953638121853,-0.02890406938355369,0.01564521077946103,3.1315944312408583,0.00031828880310058594,2.548821117630874,1243.0315509473073,1613.3537108462972,-0.47425942646021574,0.055185876571063316,0.6178046361878147,359.42714405677265,0.76875,1.66875,1.3,10313.240312354817,1.0,61226.34135239626,-11.652429295479042,27.023761913428167,484.5089276665054,61226.34135239626,-11.652429295479042,27.023761913428167,360,,,,,,,,,,
2.5570297241210938,1243.0681677847622,1613.6520957645341,682.2499501054209,-0.028996472649468467,0.010696668846186483,3.136242570550279,7.915496826171875e-05,2.551912383306361,1243.0315509473073,1613.3537108462972,-0.47431816778476216,0.05509790423546588,0.617750049894579,359.69346282179134,0.76875,1.66875,1.3,10313.240312354817,1.0,61443.44300807154,-11.717946015875196,28.43310553389179,255.65866678935265,61443.44300807154,-11.717946015875196,28.43310553389179,255.65866678935265,,,,,,,,,,
2.5614686012268066,1242.888946573749,1613.4783156386502,682.2009991569729,-0.030648401373519887,0.011408261730624264,3.123191585564634,0.00018787384033203125,2.5608434122437727,1243.0315509473073,1613.3537108462972,-0.47413894657374905,0.0552716843613498,0.6177990008430271,358.94569646362527,0.76875,1.66875,1.3,10313.240312354817,1.0,62432.63821998533,-15.132792798605834,28.048505781197072,-268.38013744901934,62432.63821998533,-15.132792798605834,28.048505781197072,-268.38013744901934,,,,,,,,,,
2.564955472946167,1243.0647832871657,1613.6710780606452,682.2407023262333,-0.03323730677827067,0.011765686937529449,3.135739967793842,0.0002353191375732422,2.5680938485293363,1243.0647832871657,1613.6710780606452,-0.4743147832871657,0.05507892193935481,0.6177592976737667,359.66466580507586,0.76875,1.66875,1.3,10313.240312354817,1.0,61916.06369673986,-12.090062729950954,28.56830206910862,294.64959334918353,61916.06369673986,-12.090062729950954,28.56830206910862,294.64959334918353,-0.6089441776275635,0.35713160037994385,0.0204925537109375,0.00400543212890625,1.00390625,0.003917694091796875,0.06866455078125,0.0855712890625,1019.65185546875,3.5625
2.56721830368042,1243.0696353305116,1613.6966266081026,682.2280311864638,-0.029383880429265402,0.011251005641736485,3.1367220162488825,8.416175842285156e-05,2.572432495999184,1243.0647832871657,1613.6710780606452,-0.4743196353305116,0.055053373391897364,0.6177719688135362,359.720933036827,0.76875,1.66875,1.3,10313.240312354817,1.0,62246.08174028757,-13.772590177828532,28.041290553989725,34.934651183301305,62246.08174028757,-13.772590177828532,28.041290553989725,34.934651183301305,,,,,,,,,,
2.573721408843994,1243.1334877211561,1613.6629640191882,682.24494155875,-0.03011749491361774,0.010287172018087536,3.1349051804615975,8.082389831542969e-05,2.585528028977754,1243.0647832871657,1613.6710780606452,-0.4743834877211561,0.055087035980811834,0.61775505844125,359.6168360141472,0.76875,1.66875,1.3,10313.240312354817,1.0,62184.10192499823,-14.392546264130814,28.38337664043232,-29.774234970147845,62184.10192499823,-14.392546264130814,28.38337664043232,-29.774234970147845,,,,,,,,,,
2.575895309448242,1243.1086375250352,1613.6829205460474,682.2331225494821,-0.03186322460604763,0.01310175642675864,3.136233382828405,7.677078247070312e-05,2.589908075186892,1243.0647832871657,1613.6710780606452,-0.4743586375250352,0.0550670794539526,0.6177668774505178,359.69293640410456,0.76875,1.66875,1.3,10313.240312354817,1.0,62225.08778078613,-14.544321700672544,27.555891526293237,47.92666126887571,62225.08778078613,-14.544321700672544,27.555891526293237,47.92666126887571,,,,,,,,,,
2.5815045833587646,1243.0935267400525,1613.691996254444,682.2402320519999,-0.03235114619371165,0.012939892663734675,3.137466998819259,7.867813110351562e-05,2.601462666710532,1243.0935267400525,1613.691996254444,-0.47434352674005253,0.055058003745556104,0.6177597679480001,359.7636173939204,0.76875,1.66875,1.3,10313.240312354817,1.0,62153.90669783237,-14.84278906195399,27.750934245027317,14.923602498825797,62153.90669783237,-14.84278906195399,27.750934245027317,14.923602498825797,6.817917346954346,6.122865676879883,0.019775390625,-0.0190277099609375,0.9921875,0.016937255859375,0.047698974609375,0.0889892578125,1019.6598510742188,3.373046875
2.586214303970337,1243.2000311592033,1613.5189014360321,681.997657454019,-0.010174073531142079,0.02894560099800099,3.132559294885044,9.131431579589844e-05,2.610678294893219,1243.0935267400525,1613.691996254444,-0.47445003115920326,0.055231098563967865,0.6180023425459811,359.4824266713901,0.76875,1.66875,1.3,10313.240312354817,1.0,63299.49193032239,-15.604886180473567,28.665738266007956,-99.64575732021862,63299.49193032239,-15.604886180473567,28.665738266007956,-99.64575732021862,,,,,,,,,,
2.5890889167785645,1243.0749077659395,1613.6415151091257,682.250675307553,-0.029185525611574753,0.012114693758161592,3.138737809731867,7.748603820800781e-05,2.6166526949894333,1243.0749077659395,1613.6415151091257,-0.47432490776593955,0.05510848489087425,0.6177493246924469,359.836429495772,0.76875,1.66875,1.3,10313.240312354817,1.0,60459.071976388055,-14.904826615116255,26.042674156506244,176.39436610753566,60459.071976388055,-14.904826615116255,26.042674156506244,176.39436610753566,6.289888381958008,6.388819217681885,0.0188446044921875,0.01080322265625,0.99609375,-0.001117706298828125,0.04730224609375,0.10601806640625,1019.6598510742188,3.357421875
2.5936574935913086,1243.0768964195445,1613.6668497885573,682.2256959388471,-0.029569417371629908,0.010605083572219686,3.137391389151355,7.867813110351562e-05,2.6255918003702736,1243.0749077659395,1613.6415151091257,-0.4743268964195445,0.05508315021144267,0.6177743040611529,359.7592852790591,0.76875,1.66875,1.3,10313.240312354817,1.0,62248.055584228554,-15.271259462401723,27.31731323635596,-29.52920020659697,62248.055584228554,-15.271259462401723,27.31731323635596,-29.52920020659697,,,,,,,,,,
2.595848321914673,1243.064901187308,1613.696140858744,682.2597630854904,-0.029975957728418854,0.012290902829311955,3.1382504423270583,8.559226989746094e-05,2.6299727707739016,1243.0749077659395,1613.6415151091257,-0.4743149011873079,0.055053859141256,0.6177402369145096,359.8085054004042,0.76875,1.66875,1.3,10313.240312354817,1.0,61827.431631813815,-15.284845808054012,26.95489052879917,30.834583047801978,61827.431631813815,-15.284845808054012,26.95489052879917,30.834583047801978,,,,,,,,,,
2.5987045764923096,1243.085139558224,1613.699876661582,682.2538904105462,-0.030005202295454687,0.012564267884562422,3.136889741786574,7.939338684082031e-05,2.6358787860727126,1243.085139558224,1613.699876661582,-0.474335139558224,0.05505012333841796,0.6177461095894538,359.7305430022533,0.76875,1.66875,1.3,10313.240312354817,1.0,62202.00374390543,-15.537117703719801,27.309513739868073,-43.617213818956856,62202.00374390543,-15.537117703719801,27.309513739868073,-43.617213818956856,4.9876508712768555,6.840043067932129,-0.023895263671875,0.0235595703125,0.96484375,-0.01424407958984375,0.04998779296875,0.042266845703125,1019.6590576171875,3.357421875
2.6027772426605225,1243.057456733646,1613.668809462261,682.2495703123292,-0.027612450577822502,0.01116421076082195,3.1379846620167933,7.653236389160156e-05,2.643771343743453,1243.085139558224,1613.699876661582,-0.47430745673364594,0.05508119053773908,0.6177504296876708,359.79327731034834,0.76875,1.66875,1.3,10313.240312354817,1.0,62179.54663918377,-16.03715839243481,26.970843623510408,20.634209211452887,62179.54663918377,-16.03715839243481,26.970843623510408,20.634209211452887,,,,,,,,,,
2.6049349308013916,1242.8998847928567,1613.536398149571,682.2317174004197,-0.033338756865221086,0.012203011090796483,3.1223545848529044,7.534027099609375e-05,2.648063775609298,1243.085139558224,1613.699876661582,-0.4741498847928567,0.05521360185042909,0.6177682825995803,358.8977398553937,0.76875,1.66875,1.3,10313.240312354817,1.0,62351.52675476572,-18.144399102171747,25.975951137483985,-637.7284439771604,62351.52675476572,-18.144399102171747,25.975951137483985,-360,,,,,,,,,,
2.6073150634765625,1243.0745796010344,1613.673597027373,682.2534376493563,-0.02974173680594667,0.010474280107434123,3.136132405100114,0.00019216537475585938,2.6527834432961948,1243.085139558224,1613.699876661582,-0.4743245796010344,0.05507640297262697,0.6177465623506436,359.6871508064487,0.76875,1.66875,1.3,10313.240312354817,1.0,61940.2778253367,-13.696110581261468,27.77747304641276,492.3095901744559,61940.2778253367,-13.696110581261468,27.77747304641276,360,,,,,,,,,,
2.612994909286499,1243.0762193773112,1613.677266816575,682.2159398794538,-0.0305850068129378,0.011483668248429701,3.136872548047323,0.0002467632293701172,2.66421088922119,1243.0762193773112,1613.677266816575,-0.4743262193773112,0.055072733183425045,0.6177840601205462,359.7295578735601,0.76875,1.66875,1.3,10313.240312354817,1.0,62241.52088421536,-16.098012533012653,26.670578876255874,6.9350954061865515,62241.52088421536,-16.098012533012653,26.670578876255874,6.9350954061865515,-0.2575666010379791,-3.289865493774414,-0.00705718994140625,0.02276611328125,0.9365234375,-0.060791015625,0.047698974609375,0.048828125,1019.6590576171875,3.345703125
2.615490436553955,1243.0541860084536,1613.6254567390224,682.2147480707376,-0.029171930550897153,0.012289705423961518,3.1370230580608087,0.00030422210693359375,2.668899646327115,1243.0762193773112,1613.677266816575,-0.4743041860084536,0.05512454326097759,0.6177852519292624,359.7381814621074,0.76875,1.66875,1.3,10313.240312354817,1.0,62166.815305317345,-16.75370744905321,26.510279683173266,1.4863048399351912,62166.815305317345,-16.75370744905321,26.510279683173266,1.4863048399351912,,,,,,,,,,
2.617168664932251,1242.928267115675,1613.505906649909,681.9825680938449,-0.058408802057989706,0.020292434963347813,3.119721510062153,0.00021505355834960938,2.6721816084538106,1243.0762193773112,1613.677266816575,-0.474178267115675,0.05524409335009091,0.6180174319061551,358.74687578274137,0.76875,1.66875,1.3,10313.240312354817,1.0,64658.891490372596,-18.76625052406822,25.486017023972476,-907.983641742105,64658.891490372596,-18.76625052406822,25.486017023972476,-360,,,,,,,,,,
2.6226937770843506,1243.004322831414,1613.5663890955125,682.0903182334478,-0.0518193089244596,0.019950905285584294,3.1321939064714392,7.915496826171875e-05,2.683172692033219,1243.004322831414,1613.5663890955125,-0.4742543228314139,0.05518361090448752,0.6179096817665523,359.4614914574076,0.76875,1.66875,1.3,10313.240312354817,1.0,61751.70159901061,-15.94064764958311,26.434643782995224,182.1797911016385,61751.70159901061,-15.94064764958311,26.434643782995224,182.1797911016385,-4.782132148742676,-6.200796604156494,-0.004154205322265625,-0.0042572021484375,1.0947265625,0.090087890625,0.0125885009765625,0.0222320556640625,1019.6731567382812,3.37890625
2.6249895095825195,1243.199935217145,1613.4151922381652,681.8342642910883,-0.029502473791757113,0.03350680642969019,3.133072424861754,7.700920104980469e-05,2.6874158367894356,1243.004322831414,1613.5663890955125,-0.4744499352171449,0.05533480776183478,0.6181657357089118,359.5118268533972,0.76875,1.66875,1.3,10313.240312354817,1.0,64588.281127062444,-16.94748513517274,28.94110221580576,27.170696463017123,64588.281127062444,-16.94748513517274,28.94110221580576,27.170696463017123,,,,,,,,,,
2.6283180713653564,1242.9045874247095,1613.5880462881114,682.0238686023024,-0.10917229627093085,-0.0030612274596993555,3.0775338174900564,0.00011682510375976562,2.6939031627839025,1243.004322831414,1613.5663890955125,-0.47415458742470945,0.0551619537118886,0.6179761313976976,356.3296990509648,0.76875,1.66875,1.3,10313.240312354817,1.0,60745.92599083508,-16.16154842209125,23.27690417085262,-1470.9114488451705,60745.92599083508,-16.16154842209125,23.27690417085262,-360,,,,,,,,,,
2.6335997581481934,1242.815943693407,1613.7833096681295,682.0462771482242,-0.11533770668340931,-0.010326624370250422,3.0869642328532136,9.608268737792969e-05,2.704222511078651,1242.815943693407,1613.7833096681295,-0.474065943693407,0.054966690331870495,0.6179537228517757,356.87002205032906,0.76875,1.66875,1.3,10313.240312354817,1.0,61830.01222779477,-15.85853311540286,24.970393519804105,103.9545069119161,61830.01222779477,-15.85853311540286,24.970393519804105,103.9545069119161,4.267057418823242,10.455455780029297,0.01702880859375,-0.055694580078125,0.9423828125,-0.055206298828125,0.0118255615234375,0.057373046875,1019.6731567382812,3.404296875
2.6359896659851074,1242.8817234673097,1613.5403741908049,681.927867740407,-0.12125046960862476,-0.008156564399596321,3.084903795111416,8.368492126464844e-05,2.70853605586726,1242.815943693407,1613.7833096681295,-0.4741317234673097,0.05520962580919513,0.618072132259593,356.75196766377456,0.76875,1.66875,1.3,10313.240312354817,1.0,63379.84183101818,-18.698389853344516,27.433380887393703,-126.94417947356254,63379.84183101818,-18.698389853344516,27.433380887393703,-126.94417947356254,,,,,,,,,,
2.6382224559783936,1242.8717450746854,1613.5561746434098,681.9396643597411,-0.11838446531264099,-0.0011078546748943766,3.076886283660778,7.677078247070312e-05,2.7127664238570777,1242.815943693407,1613.7833096681295,-0.47412174507468535,0.0551938253565902,0.618060335640259,356.2925980954552,0.76875,1.66875,1.3,10313.240312354817,1.0,61893.016780362326,-16.40289668684121,25.284936477394723,-364.94458597159235,61893.016780362326,-16.40289668684121,25.284936477394723,-360,,,,,,,,,,
2.6433019638061523,1242.8007603458818,1613.743220910868,682.0589380248988,-0.12369726991653353,-0.010832569505215698,3.086165460970114,8.058547973632812e-05,2.7225200940189818,1242.8007603458818,1613.743220910868,-0.47405076034588184,0.055006779089131895,0.6179410619751012,356.8242557926337,0.76875,1.66875,1.3,10313.240312354817,1.0,61450.79523471795,-15.823080241125671,24.585769510678947,106.10290977914468,61450.79523471795,-15.823080241125671,24.585769510678947,106.10290977914468,3.4848732948303223,-8.325886726379395,0.0157623291015625,-0.03497314453125,1.068359375,0.08343505859375,-0.055328369140625,0.16015625,1019.7006225585938,3.44140625
2.6458370685577393,1242.9052202418889,1613.4529382397307,681.8335053943241,-0.12539689759127304,-0.0034796417851805077,3.083550986602175,8.606910705566406e-05,2.727053554744314,1242.8007603458818,1613.743220910868,-0.47415522024188883,0.05529706176026934,0.6181664946056759,356.6744574457057,0.76875,1.66875,1.3,10313.240312354817,1.0,64105.21271057937,-18.848537862366157,27.380708347901,-142.23489809594147,64105.21271057937,-18.848537862366157,27.380708347901,-142.23489809594147,,,,,,,,,,
2.6486976146698,1243.0005010591715,1613.5016722083637,681.8306092612106,-0.11567674102559121,0.0036152102850910586,3.0827765829977984,8.0108642578125e-05,2.732544011760646,1243.0005010591715,1613.5016722083637,-0.4742505010591715,0.055248327791636256,0.6181693907387894,356.6300873875352,0.76875,1.66875,1.3,10313.240312354817,1.0,61976.1578841912,-15.60646232098442,25.530872544332237,-72.85232203270111,61976.1578841912,-15.60646232098442,25.530872544332237,-72.85232203270111,27.79115867614746,9.652775764465332,-0.030975341796875,-0.02789306640625,1.0244140625,0.0267181396484375,-0.05609130859375,0.370849609375,1019.7006225585938,3.47265625
2.6527769565582275,1243.0574970598107,1613.6656350603087,682.2282873715244,-0.03179137073709184,0.012470976133026244,3.1372328674491397,7.891654968261719e-05,2.739830202101732,1243.0005010591715,1613.5016722083637,-0.4743074970598107,0.05508436493969134,0.6177717126284756,359.7502026545609,0.76875,1.66875,1.3,10313.240312354817,1.0,60074.12317004336,-15.424636524549985,24.78525583693414,1181.572037307726,60074.12317004336,-15.424636524549985,24.78525583693414,360,,,,,,,,,,
2.6549506187438965,1243.0710068075539,1613.7133199111845,682.2434990543117,-0.03156022921229447,0.012458141758503662,3.1365210559243963,7.534027099609375e-05,2.743789049529285,1243.0005010591715,1613.5016722083637,-0.4743210068075539,0.0550366800888155,0.6177565009456883,359.70941885838437,0.76875,1.66875,1.3,10313.240312354817,1.0,61727.24731648128,-15.797643362001189,24.612666103750346,-32.515137529982994,61727.24731648128,-15.797643362001189,24.612666103750346,-32.515137529982994,,,,,,,,,,
2.6574325561523438,1242.9535075467654,1613.5492845967156,682.2073921945195,-0.032889552853400124,0.014505600893035965,3.121763223859011,0.00019431114196777344,2.7482823234392675,1243.0005010591715,1613.5016722083637,-0.47420350754676543,0.055200715403284445,0.6177926078054805,358.86385736627494,0.76875,1.66875,1.3,10313.240312354817,1.0,62259.33098735037,-18.411224478448897,24.095060999453402,-527.678818609427,62259.33098735037,-18.411224478448897,24.095060999453402,-360,,,,,,,,,,
2.6631133556365967,1243.0102786790787,1613.5865404568992,682.1436860891715,-0.031600990247873106,0.019166176014425978,3.117855840173998,0.00023412704467773438,2.758646973525898,1243.0102786790787,1613.5865404568992,-0.4742602786790787,0.05516345954310077,0.6178563139108285,358.6399807721854,0.76875,1.66875,1.3,10313.240312354817,1.0,62064.65254952964,-16.104762789783216,24.568428155449315,-78.38990269298384,62064.65254952964,-16.104762789783216,24.568428155449315,-78.38990269298384,38.82863235473633,10.041969299316406,-0.000640869140625,-0.0195770263671875,1.15234375,0.09893798828125,-0.1861572265625,0.49462890625,1019.7521362304688,3.47265625
2.66562819480896,1242.8653481411777,1613.6939041277753,682.2745872706646,-0.03788656035664585,0.014055095900725187,3.1174288297923205,0.0003311634063720703,2.7629078872210724,1243.0102786790787,1613.5865404568992,-0.47411534814117773,0.05505609587222466,0.6177254127293355,358.61551487950703,0.76875,1.66875,1.3,10313.240312354817,1.0,60634.66908034556,-15.69455012894425,22.297726836962422,-35.96835198879191,60634.66908034556,-15.69455012894425,22.297726836962422,-35.96835198879191,,,,,,,,,,
2.667231559753418,1243.0504812570557,1613.5685967256748,682.1476859601688,-0.03405277286561159,0.019365539259969422,3.116627348664975,7.987022399902344e-05,2.7657126257428652,1243.0102786790787,1613.5865404568992,-0.4743004812570557,0.05518140327432525,0.6178523140398312,358.56959339355075,0.76875,1.66875,1.3,10313.240312354817,1.0,63744.522899529904,-16.999187440847543,27.677928477531253,-64.73246343894732,63744.522899529904,-16.999187440847543,27.677928477531253,-64.73246343894732,,,,,,,,,,
2.672790288925171,1243.040553454752,1613.628207800149,682.1793700180276,-0.03228842991063907,0.020597843755264425,3.1281685520275775,8.225440979003906e-05,2.775584922196274,1243.040553454752,1613.628207800149,-0.47429055345475196,0.055121792199850916,0.6178206299819724,359.2308556367301,0.76875,1.66875,1.3,10313.240312354817,1.0,61671.42149414804,-15.925572134930443,23.813492023143656,163.22139572982184,61671.42149414804,-15.925572134930443,23.813492023143656,163.22139572982184,63.93534469604492,-1.6945579051971436,-0.006801605224609375,0.04278564453125,1.40234375,0.403564453125,-0.1536865234375,0.78466796875,1019.7521362304688,3.505859375
2.6751198768615723,1242.8779340029798,1613.6100389046578,682.2040914237275,-0.03543340240794694,0.015177767568395797,3.121639608293178,8.273124694824219e-05,2.779401213544793,1243.040553454752,1613.628207800149,-0.4741279340029798,0.05513996109534219,0.6177959085762725,358.8567747160706,0.76875,1.66875,1.3,10313.240312354817,1.0,61456.52270472168,-16.88966177770624,22.054885072034946,-269.69840101756415,61456.52270472168,-16.88966177770624,22.054885072034946,-269.69840101756415,,,,,,,,,,
2.6775588989257812,1242.9651961034153,1613.6252874548668,682.2215066250543,-0.03810995634922368,0.019315213578439405,3.116215733026136,0.00019240379333496094,2.7835612368385054,1243.040553454752,1613.628207800149,-0.47421519610341534,0.05512471254513321,0.6177784933749457,358.54600955466367,0.76875,1.66875,1.3,10313.240312354817,1.0,61688.811125291075,-15.509803910960024,24.48379090653586,-213.32375023717228,61688.811125291075,-15.509803910960024,24.48379090653586,-213.32375023717228,,,,,,,,,,
2.6844875812530518,1243.045517144435,1613.6231891896336,682.2065050072928,-0.03552238013166004,0.019973340031241453,3.130181685843346,7.653236389160156e-05,2.7952146899238826,1243.040553454752,1613.628207800149,-0.4742955171444351,0.05512681081036635,0.6177934949927072,359.3461997079687,0.76875,1.66875,1.3,10313.240312354817,1.0,61795.505493055076,-15.841159560969448,23.772516112427184,163.48093246215436,61795.505493055076,-15.841159560969448,23.772516112427184,163.48093246215436,,,,,,,,,,
2.6866631507873535,1242.9692877704415,1613.53340297835,682.0758838957072,-0.020991112537619767,0.028422571006152128,3.1139997001077733,7.748603820800781e-05,2.798821179789068,1243.040553454752,1613.628207800149,-0.4742192877704415,0.05521659702164993,0.6179241161042928,358.41904022117944,0.76875,1.66875,1.3,10313.240312354817,1.0,62755.95811943084,-16.78097305564821,22.72427466636048,-654.3287876139018,62755.95811943084,-16.78097305564821,22.72427466636048,-360,,,,,,,,,,
2.69455885887146,1243.050845489683,1613.5596126769794,682.179196376831,-0.02379574538388178,0.020432313764640775,3.1264076597520662,8.034706115722656e-05,2.8118823941209614,1243.050845489683,1613.5596126769794,-0.47430084548968304,0.05519038732302056,0.617820803623169,359.1299639411661,0.76875,1.66875,1.3,10313.240312354817,1.0,61463.75663742919,-15.60115380788007,23.327653788206675,120.56395661271293,61463.75663742919,-15.60115380788007,23.327653788206675,120.56395661271293,138.7827606201172,-5.966023921966553,-0.048370361328125,-0.0335693359375,1.3369140625,0.33447265625,-0.2010498046875,1.1767578125,1019.7949829101562,3.525390625
2.6969501972198486,1243.0513196600173,1613.7121148153117,682.2213801661235,-0.03202664056951063,0.013464394213434053,3.1376583233687425,8.0108642578125e-05,2.8155313304792045,1243.050845489683,1613.5596126769794,-0.47430131966001726,0.05503788518468832,0.6177786198338765,359.77457948312303,0.76875,1.66875,1.3,10313.240312354817,1.0,61131.13069466489,-13.800219086698764,22.31038949626903,420.9302970949361,61131.13069466489,-13.800219086698764,22.31038949626903,360,,,,,,,,,,
2.703944206237793,1243.0727532972066,1613.680566460649,682.2681090720258,-0.03072375544281526,0.012232556440460991,3.1367446282352693,7.796287536621094e-05,2.826561673211078,1243.050845489683,1613.5596126769794,-0.47432275329720663,0.05506943353935094,0.6177318909279742,359.7222286082134,0.76875,1.66875,1.3,10313.240312354817,1.0,61506.1416034934,-15.477464212881229,22.821588064359425,-15.399585646260405,61506.1416034934,-15.477464212881229,22.821588064359425,-15.399585646260405,,,,,,,,,,
2.7061514854431152,1243.068206724829,1613.684575454729,682.2373796718105,-0.0318046515579072,0.015389814280328274,3.135218032132494,7.939338684082031e-05,2.829991014840844,1243.050845489683,1613.5596126769794,-0.474318206724829,0.05506542454527107,0.6177626203281895,359.63476109450323,0.76875,1.66875,1.3,10313.240312354817,1.0,61803.49154525224,-15.143987681288912,22.454131890573827,-64.84190763174993,61803.49154525224,-15.143987681288912,22.454131890573827,-64.84190763174993,,,,,,,,,,
2.708972215652466,1243.0595817794879,1613.6987749891555,682.2422374458675,-0.03252301080228839,0.013247624729618539,3.135724933849931,7.367134094238281e-05,2.834495160173947,1243.0595817794879,1613.6987749891555,-0.4743095817794879,0.05505122501084452,0.6177577625541325,359.6638044235403,0.76875,1.66875,1.3,10313.240312354817,1.0,61508.45879247652,-15.024079505055791,22.319488804002148,9.850279062382294,61508.45879247652,-15.024079505055791,22.319488804002148,9.850279062382294,166.65072631835938,-20.119525909423828,-0.08648681640625,-0.018890380859375,1.4326171875,0.42041015625,-0.2281494140625,1.5576171875,1019.8164672851562,3.541015625
2.7135164737701416,1243.091290556927,1613.6871398549526,682.239972330681,-0.03074573710240242,0.01172575221983822,3.13647332266188,8.153915405273438e-05,2.8412303786181563,1243.0595817794879,1613.6987749891555,-0.4743412905569271,0.055062860145047354,0.617760027669319,359.70668394389975,0.76875,1.66875,1.3,10313.240312354817,1.0,61564.265268431336,-15.007132933136866,22.497951782558676,10.091026502464997,61564.265268431336,-15.007132933136866,22.497951782558676,10.091026502464997,,,,,,,,,,
2.715684413909912,1243.102774908843,1613.6793573845534,682.2743852352654,-0.027795778107604835,0.011167871248320107,3.136189884254287,8.368492126464844e-05,2.844486433154317,1243.0595817794879,1613.6987749891555,-0.474352774908843,0.05507064261544656,0.6177256147647345,359.6904441193928,0.76875,1.66875,1.3,10313.240312354817,1.0,61254.92917803456,-14.929739325824311,22.342854999003915,-15.879689394989805,61254.92917803456,-14.929739325824311,22.342854999003915,-15.879689394989805,,,,,,,,,,
2.7185428142547607,1243.0563372932675,1613.4837433894475,682.0288499640636,-0.01998560042744788,0.028811064681578166,3.116168394522264,7.534027099609375e-05,2.8488902666367877,1243.0563372932675,1613.4837433894475,-0.4743063372932675,0.055266256610552546,0.6179711500359364,358.5432972581833,0.76875,1.66875,1.3,10313.240312354817,1.0,63097.69502874344,-16.568666773574236,22.200265187878543,-602.6668941642323,63097.69502874344,-16.568666773574236,22.200265187878543,-360,181.33236694335938,-60.062034606933594,0.01111602783203125,0.01236724853515625,1.375,0.364501953125,-0.2479248046875,1.7685546875,1019.8351440429688,3.541015625
2.722952127456665,1243.1213636708487,1613.7478622046297,681.9789996548817,-0.051282650918803394,0.016313507636109358,3.1095479905779326,7.939338684082031e-05,2.855207274402696,1243.0563372932675,1613.4837433894475,-0.4743713636708487,0.055002137795370346,0.6180210003451183,358.1639760535014,0.76875,1.66875,1.3,10313.240312354817,1.0,61572.73062645324,-13.052081540873136,21.8953724543012,-159.6968919875537,61572.73062645324,-13.052081540873136,21.8953724543012,-159.6968919875537,,,,,,,,,,
2.7251031398773193,1243.061489846579,1613.7945940927486,681.9918499573195,-0.05601109858258796,0.014687685947198015,3.114277858807968,7.724761962890625e-05,2.8583240078994203,1243.0563372932675,1613.4837433894475,-0.474311489846579,0.05495540590725136,0.6180081500426805,358.4349775407354,0.76875,1.66875,1.3,10313.240312354817,1.0,61251.41272387907,-14.216457165561032,21.01339397759075,165.69518711716557,61251.41272387907,-14.216457165561032,21.01339397759075,165.69518711716557,,,,,,,,,,
2.728039503097534,1243.0910491769123,1613.7260556856181,681.991661909531,-0.051758302132012636,0.017976500314736278,3.108554316962481,0.00011348724365234375,2.862578108179979,1243.0563372932675,1613.4837433894475,-0.4743410491769123,0.05502394431438188,0.618008338090469,358.10704274912257,0.76875,1.66875,1.3,10313.240312354817,1.0,61525.99684255074,-14.928489119869642,22.19096493816166,-193.80663426235148,61525.99684255074,-14.928489119869642,22.19096493816166,-193.80663426235148,,,,,,,,,,
2.7341692447662354,1242.9506444515862,1613.5502404310346,682.1801249719972,-0.04772674848322773,0.018430205635031702,3.136065934998785,9.441375732421875e-05,2.8713696550632664,1242.9506444515862,1613.5502404310346,-0.47420064445158616,0.05519975956896542,0.6178198750280028,359.68334235017875,0.76875,1.66875,1.3,10313.240312354817,1.0,60918.39681395081,-15.232835404173567,21.277498742946314,374.9438288421179,60918.39681395081,-15.232835404173567,21.277498742946314,360,186.6551055908203,-89.8321533203125,-0.0205078125,0.0386962890625,1.3759765625,0.361083984375,-0.2109375,2.01953125,1019.8351440429688,3.546875
2.7362406253814697,1242.8441379316791,1613.5355734779794,682.1192943537154,-0.043188181533615595,0.02365451911282181,-3.134579824967405,0.0002999305725097656,2.8746630117866627,1242.9506444515862,1613.5502404310346,-0.47409413793167915,0.05521442652202063,0.6178807056462846,0.40180548251137793,0.76875,1.66875,1.3,10313.240312354817,1.0,62196.85496269896,-18.428945388756855,20.748220284215837,559.6313914468464,62196.85496269896,-18.428945388756855,20.748220284215837,360,,,,,,,,,,
2.7378594875335693,1242.8883572456723,1613.3918050065267,682.0877823183542,-0.04168223804119368,0.02122148560553776,3.1415796123907085,7.843971252441406e-05,2.8774513402204662,1242.9506444515862,1613.5502404310346,-0.47413835724567227,0.05535819499347326,0.6179122176816457,359.9992527943326,0.76875,1.66875,1.3,10313.240312354817,1.0,62462.4299448838,-20.471673837603873,23.382397469595112,-374.9952953456531,62462.4299448838,-20.471673837603873,23.382397469595112,-360,,,,,,,,,,
2.7434089183807373,1243.0105258486456,1613.4658249197803,682.0781945909964,-0.0403891962503913,0.017230791584212958,3.1294502263788706,8.273124694824219e-05,2.8856423209027264,1243.0105258486456,1613.4658249197803,-0.47426052584864553,0.05528417508021971,0.6179218054090035,359.3042901677693,0.76875,1.66875,1.3,10313.240312354817,1.0,61506.38953164539,-14.647153935535602,21.944197091814125,-194.65772495323327,61506.38953164539,-14.647153935535602,21.944197091814125,-194.65772495323327,193.1178741455078,-128.40379333496094,-0.08526611328125,-0.034576416015625,1.3583984375,0.252197265625,-0.2213134765625,2.12890625,1019.8452758789062,3.541015625
2.7457284927368164,1243.0660884213187,1613.4611958078854,682.1418633902941,-0.0352605906908331,0.020971818713508242,3.1226679268383406,8.320808410644531e-05,2.8887891961639958,1243.0105258486456,1613.4658249197803,-0.47431608842131867,0.05528880419211464,0.6178581366097059,358.91569302870346,0.76875,1.66875,1.3,10313.240312354817,1.0,60985.44289475906,-14.73970051550485,21.996620029969105,-279.1225555595131,60985.44289475906,-14.73970051550485,21.996620029969105,-279.1225555595131,,,,,,,,,,
2.7481529712677,1243.0869286099087,1613.4927560894998,682.1167461233302,-0.005796401178934897,0.032763881921281775,3.115153306617199,0.00018978118896484375,2.8921930193837735,1243.0105258486456,1613.4658249197803,-0.47433692860990867,0.055257243910500166,0.6178832538766698,358.48513700538837,0.76875,1.66875,1.3,10313.240312354817,1.0,61587.5737278698,-14.414562994689847,21.422391913237792,-290.26114503985315,61587.5737278698,-14.414562994689847,21.422391913237792,-290.26114503985315,,,,,,,,,,
2.75366473197937,1242.914951277494,1613.6469024724565,682.3010006952326,-0.01396819743670836,0.017607673299862348,3.1225984319771865,7.891654968261719e-05,2.899962246853296,1242.914951277494,1613.6469024724565,-0.4741649512774941,0.05510309752754347,0.6176989993047675,358.91171126646145,0.76875,1.66875,1.3,10313.240312354817,1.0,60691.31228658154,-14.108947985328879,20.216219333501456,97.44790157455668,60691.31228658154,-14.108947985328879,20.216219333501456,97.44790157455668,188.6874237060547,-153.7194061279297,-0.01934814453125,-0.0288848876953125,1.4140625,0.361328125,-0.185791015625,2.236328125,1019.8452758789062,3.537109375
2.7559702396392822,1242.7604749842972,1613.8199436817454,682.3690714439277,-0.03132288882284581,0.00555831449405073,3.1140869196302425,8.320808410644531e-05,2.9029424273295708,1242.914951277494,1613.6469024724565,-0.47401047498429716,0.05493005631825463,0.6176309285560723,358.4240375317081,0.76875,1.66875,1.3,10313.240312354817,1.0,60506.996404969614,-12.780708143521277,18.772007290847146,-356.053071320839,60506.996404969614,-12.780708143521277,18.772007290847146,-356.053071320839,,,,,,,,,,
2.758415937423706,1242.5743409922914,1613.995307271228,682.522442782772,-0.04306637193264338,0.0015266893001369191,3.115366469029686,0.0001919269561767578,2.9062186805788377,1242.914951277494,1613.6469024724565,-0.47382434099229137,0.05475469272877194,0.617477557217228,358.49735031197474,0.76875,1.66875,1.3,10313.240312354817,1.0,59940.21780069902,-12.886741798389412,18.598174598396092,22.534439306337696,59940.21780069902,-12.886741798389412,18.598174598396092,22.534439306337696,,,,,,,,,,
2.765266180038452,1242.3209313201692,1614.1532421267195,682.8961535737641,-0.04887489445226288,-0.007926553717819227,3.123466970238814,7.939338684082031e-05,2.915242006434285,1242.914951277494,1613.6469024724565,-0.47357093132016914,0.054596757873280465,0.617103846426236,358.96147484319835,0.76875,1.66875,1.3,10313.240312354817,1.0,60231.860658158854,-13.659954576986447,19.76171066047557,85.57284547996663,60231.860658158854,-13.659954576986447,19.76171066047557,85.57284547996663,,,,,,,,,,
2.767552375793457,1242.035132535904,1614.4361924483376,683.5621984739573,-0.054326906921183735,-0.02513903526374227,3.132832798275359,7.653236389160156e-05,2.918135754013762,1242.914951277494,1613.6469024724565,-0.47328513253590404,0.05431380755166242,0.6164378015260427,359.4980972613377,0.76875,1.66875,1.3,10313.240312354817,1.0,55578.627959210935,-11.295472475997062,16.75199884060122,349.734562871111,55578.627959210935,-11.295472475997062,16.75199884060122,349.734562871111,,,,,,,,,,
2.7726500034332275,1241.7978667498933,1614.3481276874436,684.2397277676873,-0.05503704685752374,-0.04781576389859494,3.1265566742040676,8.177757263183594e-05,2.9247001092760683,1241.7978667498933,1614.3481276874436,-0.4730478667498933,0.05440187231255641,0.6157602722323127,359.1385018403522,0.76875,1.66875,1.3,10313.240312354817,1.0,58888.63446356474,-14.239621192785219,19.534405097930907,-116.33604687621559,58888.63446356474,-14.239621192785219,19.534405097930907,-116.33604687621559,178.34571838378906,-178.34632873535156,0.00894927978515625,0.048980712890625,1.2041015625,0.15576171875,-0.1502685546875,2.142578125,1019.8502807617188,3.568359375
2.774956226348877,1240.9903508219027,1614.5267932948793,685.850049209169,-0.007512971519887956,-0.0836896348270207,-3.0845675407674387,7.653236389160156e-05,2.928157120278365,1241.7978667498933,1614.3481276874436,-0.4722403508219027,0.05422320670512067,0.614149950790831,3.2672982909782604,0.76875,1.66875,1.3,10313.240312354817,1.0,48043.46025003783,-17.49593494140359,11.077150741843777,2873.4240880506586,48043.46025003783,-17.49593494140359,11.077150741843777,360,,,,,,,,,,
2.7770802974700928,1240.6848104666026,1614.8702032606216,686.9240161194006,-0.04610473402215216,-0.1166600258029997,3.1345206239131906,7.939338684082031e-05,2.931486574848776,1241.7978667498933,1614.3481276874436,-0.4719348104666026,0.053879796739378434,0.6130759838805995,359.5948025469394,0.76875,1.66875,1.3,10313.240312354817,1.0,52042.409258024214,-14.102219915117324,16.26481401932504,-2596.3633187250457,52042.409258024214,-14.102219915117324,16.26481401932504,-360,,,,,,,,,,
2.784363269805908,1240.145650418828,1615.2095020760216,688.6731888066533,-0.05275494412493539,-0.17072461371600886,3.1413811361318564,9.131431579589844e-05,2.9402264460649565,1241.7978667498933,1614.3481276874436,-0.4713956504188279,0.053540497923978365,0.6113268111933466,359.9878809423669,0.76875,1.66875,1.3,10313.240312354817,1.0,56612.27757750502,-12.266944344804205,18.138365421356536,80.6839334927415,56612.27757750502,-12.266944344804205,18.138365421356536,80.6839334927415,,,,,,,,,,
2.788562774658203,1239.1787420225112,1615.5147953174578,690.1019789227965,-0.062260250417674405,-0.2039359568807706,-3.128747945998935,8.463859558105469e-05,3.076903299748993,1241.7978667498933,1614.3481276874436,-0.47042874202251117,0.05323520468254219,0.6098980210772035,0.7359475340358301,0.76875,1.66875,1.3,10313.240312354817,1.0,-58429.063954850426,-400.99673721928315,20.817503943996716,278.5867115356277,10000,-40,20.817503943996716,278.5867115356277,,,,,,,,,,
2.796457290649414,1237.1567385183002,1615.7089331710329,693.7685213035936,-0.07515418152891883,-0.21129858326170112,-3.093831464170486,8.821487426757812e-05,3.085923101566663,1237.1567385183002,1615.7089331710329,-0.4684067385183002,0.05304106682896713,0.6062314786964064,2.736514578251189,0.76875,1.66875,1.3,10313.240312354817,1.0,52416.39177080358,-14.655890330924656,11.508059361020008,415.7680001269514,52416.39177080358,-14.655890330924656,11.508059361020008,360,157.62461853027344,-193.26751708984375,0.003955841064453125,0.003757476806640625,1.19921875,0.10321044921875,-0.0362548828125,1.814453125,1019.8143310546875,3.599609375
2.8021585941314697,1235.7054831866071,1616.4056548300755,696.2873451464802,-0.07236626064983906,-0.24514064041042744,-3.0783663341759486,0.00023555755615234375,3.0920730546641977,1235.7054831866071,1616.4056548300755,-0.4669554831866071,0.052344345169924505,0.6037126548535198,3.6226012565593635,0.76875,1.66875,1.3,10313.240312354817,1.0,52416.07231910257,-11.547312135873621,11.174751508619401,288.1410381724147,52416.07231910257,-11.547312135873621,11.174751508619401,288.1410381724147,144.59735107421875,-189.4375,-0.0176239013671875,-0.0640869140625,1.3251953125,0.1593017578125,0.0003814697265625,1.572265625,1019.8018798828125,3.57421875
2.804654836654663,1234.4082347827743,1617.2104829010618,699.2315455361739,-0.1577271992758469,-0.3078067220922305,-3.1336184689182094,0.0002727508544921875,3.0945957433628513,1235.7054831866071,1616.4056548300755,-0.46565823478277435,0.05153951709893818,0.6007684544638261,0.456887126739673,0.76875,1.66875,1.3,10313.240312354817,1.0,38491.01752074811,-5.96755342038964,3.389519874695207,-1977.8951889971481,38491.01752074811,-5.96755342038964,3.389519874695207,-360,,,,,,,,,,
2.806182861328125,1232.245956847169,1617.8461530152983,702.3414939687603,-0.2044616782567358,-0.3420350625503862,-3.139225468826256,8.106231689453125e-05,3.0961901085038037,1235.7054831866071,1616.4056548300755,-0.46349595684716904,0.050903846984701656,0.5976585060312396,0.135629696278329,0.76875,1.66875,1.3,10313.240312354817,1.0,25893.690628915698,-4.651668132778093,-18.473090269016254,-305.32215255165926,25893.690628915698,-4.651668132778093,-18.473090269016254,-305.32215255165926,,,,,,,,,,
2.8084187507629395,1229.1725746282996,1618.9998553809926,706.4005137942598,-0.13607128860710865,-0.337467226446405,-3.0996342190827573,7.43865966796875e-05,3.098481813998053,1235.7054831866071,1616.4056548300755,-0.46042257462829955,0.04975014461900742,0.5935994862057402,2.404041212229231,0.76875,1.66875,1.3,10313.240312354817,1.0,28006.84402098457,-1.7420880948213209,-19.390469067245412,1590.3637376016914,28006.84402098457,-1.7420880948213209,-19.390469067245412,360,,,,,,,,,,
2.8135135173797607,1226.432883674268,1619.7069402595241,710.1222699543131,-0.21868141753433512,-0.3951035434729036,-3.1025428950066427,7.82012939453125e-05,3.1037062431125015,1226.432883674268,1619.7069402595241,-0.45768288367426796,0.04904305974047588,0.5898777300456869,2.2373863578192754,0.76875,1.66875,1.3,10313.240312354817,1.0,47092.46048438047,-10.304747614255351,3.762924953173174,-14.418964103110412,47092.46048438047,-10.304747614255351,3.762924953173174,-14.418964103110412,128.8619842529297,-184.59878540039062,-0.01727294921875,-0.0190277099609375,1.2255859375,0.07403564453125,0.00762939453125,1.220703125,1019.8018798828125,3.599609375
2.8160462379455566,1223.0138640188143,1620.891736810293,713.6548539786723,-0.22295036712861754,-0.42236561040051457,-3.0953643042622043,8.153915405273438e-05,3.1060727478529127,1226.432883674268,1619.7069402595241,-0.4542638640188143,0.04785826318970703,0.5863451460213277,2.648689310327285,0.76875,1.66875,1.3,10313.240312354817,1.0,34668.360724970196,-1.5252093170664471,-19.67281282748147,294.0741993339176,34668.360724970196,-1.5252093170664471,-19.67281282748147,294.0741993339176,,,,,,,,,,
2.818890333175659,1219.0319318462005,1622.611554221005,717.7366004807768,-0.28343165185019514,-0.4398191844237752,-3.1130222600833095,7.43865966796875e-05,3.108889511657858,1219.0319318462005,1622.611554221005,-0.45028193184620047,0.046138445778994994,0.5822633995192232,1.6369629669494827,0.76875,1.66875,1.3,10313.240312354817,1.0,35646.06984273107,1.4442914317288282,-18.44009903467248,-491.72682513663153,35646.06984273107,1.4442914317288282,-18.44009903467248,-360,110.31358337402344,-171.63943481445312,0.014068603515625,-0.0499267578125,1.1376953125,-0.048858642578125,0.00762939453125,1.0185546875,1019.7781982421875,3.630859375
2.8234751224517822,1214.3272255748934,1624.366048424847,722.1905693873914,-0.27966190036699534,-0.46553724845518263,-3.0977919021727356,7.700920104980469e-05,3.113064813133089,1219.0319318462005,1622.611554221005,-0.44557722557489343,0.044383951575153104,0.5778094306126086,2.5095981956990556,0.76875,1.66875,1.3,10313.240312354817,1.0,41962.93403059949,-2.805464467904925,-10.469502038428015,329.5022550963424,41962.93403059949,-2.805464467904925,-10.469502038428015,329.5022550963424,,,,,,,,,,
2.825627326965332,1209.7292200378436,1626.4968339810257,726.4120358093176,-0.31574881941236344,-0.48998177509315005,-3.133582186160815,7.891654968261719e-05,3.1150221623799133,1219.0319318462005,1622.611554221005,-0.44097922003784357,0.042253166018974296,0.5735879641906825,0.45896597560746955,0.76875,1.66875,1.3,10313.240312354817,1.0,26976.507551092138,12.444206884788494,-39.159914259328886,-1419.0065785454337,26976.507551092138,12.444206884788494,-39.159914259328886,-360,,,,,,,,,,
2.8353655338287354,1203.7075531664952,1629.1337137873804,730.737895019467,-0.29578038089606107,-0.5197932278102588,-3.0963412932872028,0.0075566768646240234,3.1236018494417044,1203.7075531664952,1629.1337137873804,-0.43495755316649526,0.03961628621261957,0.569262104980533,2.592711962564266,0.76875,1.66875,1.3,10313.240312354817,1.0,51027.708728241356,-4.5819933795965335,0.7848375237036151,361.6384072865974,51027.708728241356,-4.5819933795965335,0.7848375237036151,360,88.83292388916016,-157.93409729003906,0.041107177734375,-0.05108642578125,1.1552734375,-0.004024505615234375,0.064453125,0.796875,1019.7781982421875,3.642578125
2.845513343811035,1197.6469662094628,1631.9229761551837,734.7788641378633,-0.31385139722459415,-0.5251574696847316,-3.0915140476906156,0.008477210998535156,3.1316352492721498,1197.6469662094628,1631.9229761551837,-0.42889696620946277,0.036827023844816266,0.5652211358621367,2.8692927619218267,0.76875,1.66875,1.3,10313.240312354817,1.0,51493.22721815634,-3.285033336060346,0.7871593033181519,84.15794171600152,51493.22721815634,-3.285033336060346,0.7871593033181519,84.15794171600152,53.310142517089844,-128.43955993652344,-0.07861328125,-0.0360107421875,1.0703125,-0.1278076171875,0.059906005859375,0.650390625,1019.744140625,3.642578125
2.855461835861206,1191.3255790371957,1634.8496444328105,738.5527791747933,-0.31910950855191383,-0.5143800796905531,-3.07390820999963,0.008056402206420898,3.138881977830462,1191.3255790371957,1634.8496444328105,-0.42257557903719567,0.03390035556718954,0.5614472208252067,3.878032956407651,0.76875,1.66875,1.3,10313.240312354817,1.0,51720.15493346526,-1.8336409029468015,-0.2893942561126721,210.34151408042172,51720.15493346526,-1.8336409029468015,-0.2893942561126721,210.34151408042172,18.679283142089844,-107.47965240478516,0.0169219970703125,0.0227813720703125,0.955078125,-0.2078857421875,0.138427734375,0.74267578125,1019.744140625,3.720703125
2.8657548427581787,1184.3554266001313,1638.239560741417,742.5411412123276,-0.329573949837666,-0.51815194739739,-3.0689528893859253,0.008662939071655273,-3.1372706573542595,1184.3554266001313,1638.239560741417,-0.4156054266001313,0.03051043925858289,0.5574588587876724,4.1619519137070995,0.76875,1.66875,1.3,10313.240312354817,1.0,51467.37873153007,-0.16014283674690888,-1.5516652760216552,103.78754745798804,51467.37873153007,-0.16014283674690888,-1.5516652760216552,103.78754745798804,-12.811884880065918,-63.44009780883789,0.04095458984375,0.0025196075439453125,1.041015625,-0.10858154296875,0.11749267578125,1.2080078125,1019.7265625,3.736328125
2.875194787979126,1177.257967111242,1641.4982698005736,746.2509670580205,-0.31909903203102236,-0.5025052182467912,-3.058867259140351,0.007842779159545898,-3.131538358727345,1177.257967111242,1641.4982698005736,-0.4085079671112419,0.027251730199426446,0.5537490329419795,4.739815960507997,0.76875,1.66875,1.3,10313.240312354817,1.0,51301.7065264389,1.3609888090896953,-3.6709366505142427,162.68806483286775,51301.7065264389,1.3609888090896953,-3.6709366505142427,162.68806483286775,-45.236358642578125,-35.50498962402344,0.0439453125,-0.034515380859375,0.9951171875,-0.14208984375,0.1533203125,1.5703125,1019.7265625,3.658203125
2.8861100673675537,1169.3477791005084,1645.6681319657528,749.7769462602529,-0.3081938385343268,-0.47774444708939096,-3.0415701064470992,0.009297847747802734,-3.1254843864457906,1169.3477791005084,1645.6681319657528,-0.4005977791005084,0.023081868034247235,0.5502230537397471,5.730869807424682,0.76875,1.66875,1.3,10313.240312354817,1.0,52362.446591796375,3.168173229252866,-3.1421197069228377,222.5375350315319,52362.446591796375,3.168173229252866,-3.1421197069228377,222.5375350315319,-89.33588409423828,22.191082000732422,0.007511138916015625,-0.0281219482421875,0.986328125,-0.19091796875,0.13623046875,2.265625,1019.7069091796875,3.626953125
2.895019769668579,1161.1067340272573,1649.7894951376163,753.400180776541,-0.2889216515647191,-0.4436603596476393,-3.024839790991814,0.007337093353271484,-3.1209581221501717,1161.1067340272573,1649.7894951376163,-0.3923567340272573,0.018960504862383685,0.546599819223459,6.689446272935015,0.76875,1.66875,1.3,10313.240312354817,1.0,51016.79385618826,6.159249388016928,-8.542311246255476,261.8532542277633,51016.79385618826,6.159249388016928,-8.542311246255476,261.8532542277633,-115.31575775146484,63.00773620605469,0.019195556640625,0.0198822021484375,1.1171875,-0.0693359375,0.1708984375,2.841796875,1019.7069091796875,3.60546875
2.912673234939575,1153.292257671199,1653.999974234714,756.388538913073,-0.32277762232691315,-0.4080235068759399,-3.0504567594734433,0.016086339950561523,-3.1128800448716203,1153.292257671199,1653.999974234714,-0.384542257671199,0.014750025765285954,0.5436114610869269,5.221702095018003,0.76875,1.66875,1.3,10313.240312354817,1.0,54784.30432041276,0.8362257905306747,3.694193310079207,-46.35713869734418,54784.30432041276,0.8362257905306747,3.694193310079207,-46.35713869734418,-168.9462127685547,177.88746643066406,0.0543212890625,-0.0362548828125,1.04296875,-0.1260986328125,0.192626953125,4.74609375,1019.6945190429688,3.59375
2.9144673347473145,1144.292391513945,1658.6652031591998,759.785761600361,-0.31220689546018304,-0.37309191158165605,-3.039333118509565,0.00021409988403320312,-3.1121684114250763,1153.292257671199,1653.999974234714,-0.375542391513945,0.010084796840800209,0.540214238399639,5.85903977506706,0.76875,1.66875,1.3,10313.240312354817,1.0,58939.70709337252,71.0440513676853,-122.15617616471306,656.084827343127,58939.70709337252,40,-40,360,,,,,,,,,,
2.9253246784210205,1135.0712943078763,1663.6383985367834,763.7629024144487,-0.2611395468156225,-0.3249720272174582,-3.023864935411618,0.00941610336303711,-3.1077689669033797,1153.292257671199,1653.999974234714,-0.3663212943078763,0.0051116014632166295,0.5362370975855513,6.745301383315024,0.76875,1.66875,1.3,10313.240312354817,1.0,51427.299171096725,7.974980502967963,-7.196291518880042,223.25404375483305,51427.299171096725,7.974980502967963,-7.196291518880042,223.25404375483305,,,,,,,,,,
2.936105728149414,1125.3980332854264,1668.6523599491036,767.279759115804,-0.22710599899006526,-0.29265790446257,-3.009080305716583,0.009243249893188477,-3.1036596123236118,1125.3980332854264,1668.6523599491036,-0.35664803328542644,9.764005089641614e-05,0.532720240884196,7.59239826650429,0.76875,1.66875,1.3,10313.240312354817,1.0,52107.07010286808,8.705317796286254,-8.55542844517515,230.6170228919574,52107.07010286808,8.705317796286254,-8.55542844517515,230.6170228919574,-199.86647033691406,255.58468627929688,-0.0184326171875,0.0091552734375,1.1796875,0.1357421875,0.192626953125,6.6484375,1019.6890258789062,3.58984375
2.9450976848602295,1115.1197466549734,1674.2150276572409,771.4004134229533,-0.18578436108015187,-0.25326486209594246,-3.0088033273283705,0.007352590560913086,-3.100510834778646,1125.3980332854264,1668.6523599491036,-0.3463697466549734,-0.005465027657240853,0.5285995865770466,7.608267959165232,0.76875,1.66875,1.3,10313.240312354817,1.0,50114.69305682984,13.897501714111943,-15.732814152398442,116.80957194839735,50114.69305682984,13.897501714111943,-15.732814152398442,116.80957194839735,,,,,,,,,,
2.95449161529541,1104.894507977974,1679.7930603508346,774.8401855294371,-0.15750832651305016,-0.20721975868487583,-2.99752314730047,0.007926702499389648,-3.0972831633559013,1104.894507977974,1679.7930603508346,-0.33614450797797396,-0.011043060350834594,0.5251598144705629,8.25457466691168,0.76875,1.66875,1.3,10313.240312354817,1.0,51649.24805627968,13.267393411125488,-13.889360714205381,225.7874294500135,51649.24805627968,13.267393411125488,-13.889360714205381,225.7874294500135,-201.04481506347656,269.249755859375,0.04986572265625,0.037322998046875,1.0673828125,0.07623291015625,0.1990966796875,7.921875,1019.686279296875,3.599609375
2.971820116043091,1095.1007828025727,1684.7658578984679,778.5470161872313,-0.09423409181536962,-0.15654731696736807,-2.9952697694259394,0.015413761138916016,-3.0916866743798406,1095.1007828025727,1684.7658578984679,-0.3263507828025727,-0.016015857898467857,0.5214529838127687,8.383683708770462,0.76875,1.66875,1.3,10313.240312354817,1.0,53391.367624935025,5.350174736887439,-1.2757235601880073,136.93188449703968,53391.367624935025,5.350174736887439,-1.2757235601880073,136.93188449703968,-165.47804260253906,256.1144714355469,0.03338623046875,0.014373779296875,1.1943359375,0.2308349609375,0.2174072265625,8.296875,1019.6842041015625,3.599609375
2.982063055038452,1084.4687155791999,1690.5809862550668,782.751114998769,-0.04568931340865889,-0.12656489415814728,-2.9997805978406817,0.008372783660888672,-3.0885071734736442,1084.4687155791999,1690.5809862550668,-0.31571871557919984,-0.02183098625506682,0.517248885001231,8.125232278498032,0.76875,1.66875,1.3,10313.240312354817,1.0,50575.13381515238,13.735885628041803,-13.513262861529016,84.03377436747974,50575.13381515238,13.735885628041803,-13.513262861529016,84.03377436747974,-149.76385498046875,224.58648681640625,0.0293121337890625,0.0850830078125,1.033203125,0.05987548828125,0.2373046875,8.1484375,1019.6918334960938,3.599609375
2.9927423000335693,1074.2648777981085,1696.0475290134164,787.0977233642093,-0.019112015712576105,-0.09508615104848524,-2.996429339666458,0.00883030891418457,-3.0852571644201374,1074.2648777981085,1696.0475290134164,-0.3055148777981085,-0.027297529013416352,0.5129022766357907,8.317245227939765,0.76875,1.66875,1.3,10313.240312354817,1.0,50358.42738577129,12.583535393443674,-11.75306919288176,151.7250836792171,50358.42738577129,12.583535393443674,-11.75306919288176,151.7250836792171,-131.6986541748047,210.8006134033203,0.013458251953125,0.0631103515625,1.080078125,0.06744384765625,0.2200927734375,7.90625,1019.6918334960938,3.611328125
3.001697301864624,1063.9507119388147,1701.4456586024876,791.9465709033286,0.00462888261575511,-0.06116703799663107,-3.0055708839092286,0.007367372512817383,-3.0825709505119328,1063.9507119388147,1701.4456586024876,-0.2952007119388147,-0.03269565860248758,0.5080534290966714,7.793473324596903,0.76875,1.66875,1.3,10313.240312354817,1.0,48341.38067272325,15.618081317820696,-17.004389089792294,29.2404818242655,48341.38067272325,15.618081317820696,-17.004389089792294,29.2404818242655,-100.90552520751953,163.20162963867188,0.0130615234375,0.014312744140625,1.1650390625,0.1605224609375,0.2200927734375,7.3984375,1019.6817016601562,3.615234375
3.0052707195281982,1053.012075039611,1707.5922287308927,797.1609824550677,0.014461294673791822,-0.03766275520637001,-3.016439178844344,0.001972675323486328,-3.0815472327642066,1063.9507119388147,1701.4456586024876,-0.2842620750396111,-0.03884222873089266,0.5028390175449323,7.170765894311387,0.76875,1.66875,1.3,10313.240312354817,1.0,40806.83186042664,49.88189301473414,-68.16474229399346,-163.91910187805945,40806.83186042664,40,-40,-163.91910187805945,,,,,,,,,,
3.0152676105499268,1041.9519973442252,1713.5710254741648,802.227873447881,0.03917273618200605,-0.029814103078998743,-3.0382302974887367,0.008514404296875,-3.078607382119601,1063.9507119388147,1701.4456586024876,-0.27320199734422523,-0.0448210254741648,0.49777212655211894,5.922226765118836,0.76875,1.66875,1.3,10313.240312354817,1.0,48632.70808354343,16.23389389445862,-16.528888376334198,-98.37177001018719,48632.70808354343,16.23389389445862,-16.528888376334198,-98.37177001018719,,,,,,,,,,
3.0329535007476807,1031.847213118896,1718.132541435037,808.2159340204773,0.06735829283160777,-0.06062726997352894,-3.0488283363659807,0.01616692543029785,-3.0735407895585913,1031.847213118896,1718.132541435037,-0.263097213118896,-0.04938254143503695,0.4917840659795227,5.315003866337179,0.76875,1.66875,1.3,10313.240312354817,1.0,50487.06243579001,6.8503213872806015,-3.3977353053448347,28.70655997984354,50487.06243579001,6.8503213872806015,-3.3977353053448347,28.70655997984354,-71.37821197509766,85.70674133300781,0.028961181640625,-0.0131378173828125,1.3046875,0.28662109375,0.26513671875,6.25,1019.68359375,3.615234375
3.0421531200408936,1021.4461503475626,1723.2311282169321,814.2218202751363,0.09066629442497497,-0.08354621468978037,-3.0652104782742278,0.007546186447143555,-3.071092842551158,1031.847213118896,1718.132541435037,-0.2526961503475626,-0.05448112821693212,0.48577817972486365,4.376376275610227,0.76875,1.66875,1.3,10313.240312354817,1.0,45649.01577610329,16.314735752073826,-18.334718269144766,-89.98724083961392,45649.01577610329,16.314735752073826,-18.334718269144766,-89.98724083961392,,,,,,,,,,
3.0449557304382324,1011.0337832717419,1728.9060848225106,819.9584010438739,0.11740393464675751,-0.0778903362130951,-3.0602428764753222,0.0012750625610351562,-3.0703580923470843,1031.847213118896,1718.132541435037,-0.24228378327174188,-0.06015608482251059,0.4800415989561261,4.660998892989113,0.76875,1.66875,1.3,10313.240312354817,1.0,31902.07262195003,59.6651344040104,-83.03114584340052,223.14882507240807,31902.07262195003,40,-40,223.14882507240807,,,,,,,,,,
