time,x_pos,y_pos,z_pos,x_rot,y_rot,z_rot,delta_time,z_filtered,x_error,y_error,z_error,yaw_error,x_setpoint,y_setpoint,z_setpoint,yaw_setpoint,thrust_cal,pitch_cal,roll_cal,yaw_cal,thrust_lim,pitch_lim,roll_lim,yaw_lim,gyro_x,gyro_y,gyro_z,acc_x,acc_y,acc_z,stateEstimate_yaw,baro_pressure,pm_vbat
0.7560250759124756,886.9432069902773,1474.0275909674451,683.993332445826,-0.15743270196651077,0.061581648024139894,-0.04095065062032642,0.0003390312194824219,-0.03516935632958957,-0.1181932069902773,0.1947224090325549,0.616006667554174,-2.3462994488594906,0.76875,1.66875,1.3,0.0,-19144318.632105872,6764.487911006402,-4404.9941294572345,-3892.4298576392775,10000,40,-40,-360,0.005677920300513506,-0.09400735795497894,0.11857732385396957,0.00135040283203125,0.00815582275390625,1.001953125,-2.365234375,1022.357177734375,3.912109375
0.7576191425323486,886.9547325064123,1474.025245197729,683.990793496135,-0.16022395572083376,0.06610130700664338,-0.04107671516333085,7.486343383789062e-05,-0.03530750620766466,-0.11820473250641225,0.19472475480227103,0.616009206503865,-2.3535224151198895,0.76875,1.66875,1.3,0.0,60029.25391456311,7.300907436832812,-5.783597867257934,-42.30267825033254,60029.25391456311,7.300907436832812,-5.783597867257934,-42.30267825033254,,,,,,,,,
0.7591016292572021,886.8350717612044,1473.9989360473205,683.9003893467435,-0.15402563257152263,0.06128705784107544,-0.04453709415925555,5.53131103515625e-05,-0.035437825112394856,-0.1180850717612044,0.1947510639526795,0.6160996106532565,-2.5517875271020927,0.76875,1.66875,1.3,0.0,61032.88396319905,7.932051337539926,-2.9242637528089954,-243.50488601793387,61032.88396319905,7.932051337539926,-2.9242637528089954,-243.50488601793387,,,,,,,,,
0.7631995677947998,887.0341798931205,1473.9756038238622,684.0441338417851,-0.16321093757063293,0.06647118296739846,-0.04140671865878152,0.0002872943878173828,-0.03580728145861668,-0.1182841798931205,0.19477439617613776,0.615955866158215,-2.3724302226337777,0.76875,1.66875,1.3,0.0,59444.73624256322,7.3832539599862805,-7.110332979804986,29.86326473606941,59444.73624256322,7.3832539599862805,-7.110332979804986,29.86326473606941,-0.2669413089752197,-0.057967767119407654,-0.1669020652770996,0.004322052001953125,0.00925445556640625,1.0009765625,-2.365234375,1022.357177734375,3.912109375
0.7660322189331055,886.9792428308211,1474.0068910172033,683.9829053686974,-0.16317399024563276,0.0666744504652993,-0.04174089813902031,0.00010919570922851562,-0.03606606284947319,-0.11822924283082113,0.19474310898279668,0.6160170946313026,-2.3915772964513358,0.76875,1.66875,1.3,0.0,60333.09794929101,6.923083099409377,-4.9313363198334885,-45.91558779387897,60333.09794929101,6.923083099409377,-4.9313363198334885,-45.91558779387897,,,,,,,,,
0.7676095962524414,887.020423658176,1473.9550033658318,684.036927609307,-0.16321882089505482,0.06565303388522858,-0.04151954469774266,7.200241088867188e-05,-0.03620799736336989,-0.11827042365817601,0.19479499663416822,0.615963072390693,-2.37889467848543,0.76875,1.66875,1.3,0.0,59458.31559459124,8.287131357051868,-6.4553160766400115,-23.407707423849722,59458.31559459124,8.287131357051868,-6.4553160766400115,-23.407707423849722,,,,,,,,,
0.7690715789794922,886.9784129822694,1474.0124506245431,683.9871270175624,-0.16453420576111413,0.06826794244358247,-0.041137223071433394,6.031990051269531e-05,-0.03634047204142337,-0.11822841298226945,0.19473754937545687,0.6160128729824376,-2.356989262881331,0.76875,1.66875,1.3,0.0,60517.415119768884,6.018108325233241,-4.594272884159021,-12.758190568912354,60517.415119768884,6.018108325233241,-4.594272884159021,-12.758190568912354,,,,,,,,,
0.7732164859771729,886.9810420527253,1474.0186981158995,683.9981185089389,-0.16645636600896915,0.06913659138004723,-0.040777101865732544,8.797645568847656e-05,-0.036711214635546906,-0.11823104205272535,0.1947313018841005,0.6160018814910612,-2.3363558376815097,0.76875,1.66875,1.3,0.0,59947.3556921128,7.20456419014152,-5.572728525771718,-27.61166140568725,59947.3556921128,7.20456419014152,-5.572728525771718,-27.61166140568725,0.1047312468290329,-0.10743052512407303,-0.07617563754320145,0.00260162353515625,0.00954437255859375,1.0009765625,-2.36328125,1022.3561401367188,3.912109375
0.7747318744659424,886.9914589602715,1474.004852819506,683.9824285294046,-0.16495068697818893,0.06930422384883658,-0.041120602043545604,7.843971252441406e-05,-0.03684516800806532,-0.11824145896027152,0.1947451471804941,0.6160175714705954,-2.3560369481321914,0.76875,1.66875,1.3,0.0,60186.63808362344,7.539796647494452,-5.783481706622785,-54.85865643377426,60186.63808362344,7.539796647494452,-5.783481706622785,-54.85865643377426,,,,,,,,,
0.7777283191680908,887.0262649666255,1473.9672455369869,684.0420290486272,-0.16324219241071766,0.06577283041155688,-0.041165096980693615,7.104873657226562e-05,-0.037103728894758395,-0.1182762649666255,0.19478275446301313,0.6159579709513727,-2.358586320240472,0.76875,1.66875,1.3,0.0,59675.68759069333,7.651919939120226,-5.929991782392785,-36.65712926179436,59675.68759069333,7.651919939120226,-5.929991782392785,-36.65712926179436,,,,,,,,,
0.7829554080963135,886.9644326472613,1474.02079024904,684.0014866001897,-0.16608437864576875,0.06918987320732642,-0.041633184205032106,7.295608520507812e-05,-0.03753465926164854,-0.11821443264726134,0.19472920975096009,0.6159985133998104,-2.385405742639061,0.76875,1.66875,1.3,0.0,60105.82985203234,6.961744593918399,-5.128867088148134,-43.48017429281348,60105.82985203234,6.961744593918399,-5.128867088148134,-43.48017429281348,-0.42911916971206665,0.2351936399936676,-3.214754819869995,0.0022182464599609375,0.0050201416015625,0.99853515625,-2.36328125,1022.3561401367188,3.7265625
0.7846732139587402,886.9128980304013,1474.0620925668725,684.0401895910326,-0.18080126269843594,0.08433849703927039,-0.03963420340665387,7.748603820800781e-05,-0.03767316587248255,-0.11816289803040127,0.19468790743312753,0.6159598104089674,-2.2708725795642963,0.76875,1.66875,1.3,0.0,59562.21678758658,6.547885010465965,-4.518777538258962,65.97583342588945,59562.21678758658,6.547885010465965,-4.518777538258962,65.97583342588945,,,,,,,,,
0.7861495018005371,887.0385376862548,1473.908049990315,684.0190003262093,-0.17135740973201763,0.07395835123951605,-0.04107877255545911,7.05718994140625e-05,-0.03779162077823702,-0.11828853768625482,0.194841950009685,0.6159809996737907,-2.3536402950056425,0.76875,1.66875,1.3,0.0,60452.95428477519,10.475683487388526,-8.304232732761243,-118.02572276023162,60452.95428477519,10.475683487388526,-8.304232732761243,-118.02572276023162,,,,,,,,,
0.7892818450927734,886.9687887897986,1474.0027558602753,684.0023048428536,-0.16365295799709711,0.06676661296242063,-0.04210692015132314,7.271766662597656e-05,-0.03802826724151228,-0.11821878878979862,0.19474724413972466,0.6159976951571464,-2.4125488129651735,0.76875,1.66875,1.3,0.0,60037.548239535914,6.351017893399796,-4.730147898012931,-64.63185067242074,60037.548239535914,6.351017893399796,-4.730147898012931,-64.63185067242074,2.3833699226379395,2.279970645904541,-1.2388867139816284,0.0007357597351074219,-0.0005750656127929688,0.99365234375,-2.3671875,1022.3567504882812,3.7265625
0.7939636707305908,886.9736834960909,1474.016422648808,683.9835924508682,-0.16340909215885976,0.06922526307042068,-0.04135075343344062,0.00022172927856445312,-0.03836333771387677,-0.11822368349609087,0.19473357735119204,0.6160164075491318,-2.369223651422246,0.76875,1.66875,1.3,0.0,60059.02496999303,7.221720777519471,-5.4871713229638335,-21.72642938292618,60059.02496999303,7.221720777519471,-5.4871713229638335,-21.72642938292618,,,,,,,,,
0.7955644130706787,887.0246968687451,1473.9813890923822,684.0473403121213,-0.16317380767411588,0.0643038062972538,-0.04109336317499198,0.00014019012451171875,-0.038475498227172326,-0.11827469686874509,0.19476861090761782,0.6159526596878787,-2.3544762759253572,0.76875,1.66875,1.3,0.0,59378.82526553737,7.976382755063521,-6.47405253062405,-21.793974913672315,59378.82526553737,7.976382755063521,-6.47405253062405,-21.793974913672315,,,,,,,,,
0.7982645034790039,886.9940597113216,1473.9898237833675,683.9803893670307,-0.1637746984143889,0.06795496782947637,-0.0410401834042218,0.00010657310485839844,-0.03865454013842003,-0.1182440597113216,0.19476017621663255,0.6160196106329693,-2.3514292995047525,0.76875,1.66875,1.3,0.0,60410.467941364084,7.246472833931911,-5.064258686254282,-33.5575442683181,60410.467941364084,7.246472833931911,-5.064258686254282,-33.5575442683181,,,,,,,,,
0.8058710098266602,886.9831120510795,1473.9977071461162,683.9804262655467,-0.16263179015497997,0.06679966192497061,-0.041627633239238286,9.870529174804688e-05,-0.039101858485640024,-0.1182331120510795,0.19475229285388376,0.6160195737344533,-2.385087695726854,0.76875,1.66875,1.3,0.0,59991.24474168432,7.331544949648483,-5.340172036911543,-42.406048971544045,59991.24474168432,7.331544949648483,-5.340172036911543,-42.406048971544045,1.7009068727493286,0.5814789533615112,3.0755655765533447,0.0121917724609375,0.004150390625,1.021484375,-2.365234375,1022.3567504882812,3.345703125
0.8074612617492676,886.963404427482,1474.0327263769725,683.9946732677305,-0.16395302488510646,0.06757943026290951,-0.0411364005843148,9.298324584960938e-05,-0.03919223089627445,-0.11821340442748203,0.1947172736230275,0.6160053267322695,-2.356942137840732,0.76875,1.66875,1.3,0.0,59806.818009577,6.673481623254958,-4.951092299022059,-8.59732653180108,59806.818009577,6.673481623254958,-4.951092299022059,-8.59732653180108,,,,,,,,,
0.8144245147705078,886.9714969585193,1474.0275696557005,683.997108338868,-0.1658031212998941,0.06880330310347002,-0.041053037436824924,0.00034427642822265625,-0.0395351865499635,-0.11822149695851931,0.19472243034429948,0.616002891661132,-2.3521657813226353,0.76875,1.66875,1.3,0.0,59988.58932144263,7.420210122713159,-5.369824477032554,-34.25540910435258,59988.58932144263,7.420210122713159,-5.369824477032554,-34.25540910435258,1.6755131483078003,2.590892791748047,0.7320162057876587,0.007709503173828125,0.0034580230712890625,1.0390625,-2.37890625,1022.357421875,3.298828125
0.817162036895752,886.977061036122,1474.0060754340393,683.9904233726965,-0.16404352681547124,0.06776732969572814,-0.04169629052952457,0.00011801719665527344,-0.03966302436806701,-0.11822706103612199,0.1947439245659607,0.6160095766273035,-2.389021468693062,0.76875,1.66875,1.3,0.0,60044.87251179415,7.656500708742833,-5.3925552906556975,-55.94424020234949,60044.87251179415,7.656500708742833,-5.3925552906556975,-55.94424020234949,,,,,,,,,
0.8187820911407471,886.9156707985527,1473.941307304153,683.9520330690048,-0.14918535444538675,0.05433595297509183,-0.043800178235040746,9.870529174804688e-05,-0.039736058369698395,-0.1181656707985527,0.19480869269584697,0.6160479669309953,-2.509565354788602,0.76875,1.66875,1.3,0.0,60431.3166649927,8.756125957200094,-4.134738146527185,-151.27796570377384,60431.3166649927,8.756125957200094,-4.134738146527185,-151.27796570377384,,,,,,,,,
0.8237032890319824,887.0342099936947,1473.9488538937203,684.0438755565485,-0.15935100746842976,0.0619929701142899,-0.040569876064482084,0.00036978721618652344,-0.039935980390192964,-0.11828420999369472,0.19480114610627972,0.6159561244434515,-2.3244826738636415,0.76875,1.66875,1.3,0.0,59691.85702563885,7.353652555627956,-6.0491523511498295,21.277385899828772,59691.85702563885,7.353652555627956,-6.0491523511498295,21.277385899828772,3.452061891555786,5.328211307525635,-2.931749105453491,0.0059814453125,0.01486968994140625,1.0146484375,-2.369140625,1022.357421875,3.2578125
0.8260078430175781,887.0265115191673,1473.964163584433,684.0624291068245,-0.16417907934833784,0.06632928905159012,-0.04180517994447511,8.440017700195312e-05,-0.040024991826834375,-0.11827651151916735,0.19478583641556702,0.6159375708931755,-2.395260372603377,0.76875,1.66875,1.3,0.0,59842.39290130677,7.231290348682453,-5.159779001304576,-82.50785720017004,59842.39290130677,7.231290348682453,-5.159779001304576,-82.50785720017004,,,,,,,,,
0.8275129795074463,887.039570236246,1473.935444667922,684.023346459454,-0.1617217983993683,0.06571973431479453,-0.0422825961837481,6.556510925292969e-05,-0.04008111157538071,-0.11828957023624605,0.19481455533207803,0.615976653540546,-2.4226143081847273,0.76875,1.66875,1.3,0.0,60470.14349487401,8.050481811614135,-5.574920905468083,-63.945259238892206,60470.14349487401,8.050481811614135,-5.574920905468083,-63.945259238892206,,,,,,,,,
0.8336410522460938,886.9711067721616,1473.9963498809138,683.9890372825023,-0.16589946567676586,0.06955577181132278,-0.04224058018518385,0.0007576942443847656,-0.040293908264484674,-0.11822110677216165,0.19475365011908616,0.6160109627174977,-2.4202069687949677,0.76875,1.66875,1.3,0.0,60069.50551485831,7.151172867126192,-4.8802964855179765,-35.71569878232244,60069.50551485831,7.151172867126192,-4.8802964855179765,-35.71569878232244,2.9545745849609375,4.702084541320801,0.3823065459728241,-0.0083465576171875,0.0070648193359375,1.02734375,-2.38671875,1022.3693237304688,3.236328125
0.8351588249206543,886.9887532418726,1473.9781851802716,683.9756893264755,-0.1655790029686836,0.0703123204864783,-0.041841335384492535,7.677078247070312e-05,-0.0403453036468189,-0.1182387532418726,0.19477181481972844,0.6160243106735245,-2.397331926722814,0.76875,1.66875,1.3,0.0,60166.82341559482,7.8258688437738755,-5.635641696958243,-13.238583148536545,60166.82341559482,7.8258688437738755,-5.635641696958243,-13.238583148536545,,,,,,,,,
0.8378324508666992,886.9687136901993,1474.0145457748881,684.0145482208881,-0.163196257737116,0.06650524509094577,-0.04121361705419729,7.939338684082031e-05,-0.04043175051135909,-0.11821871369019925,0.19473545422511188,0.6159854517791119,-2.361366315673897,0.76875,1.66875,1.3,0.0,59724.67864658841,7.037090131688593,-4.978994826073723,-15.271246344425105,59724.67864658841,7.037090131688593,-4.978994826073723,-15.271246344425105,,,,,,,,,
0.8393547534942627,887.0354220278543,1473.9683132772964,684.0339589632663,-0.1624029252385319,0.06636842572537618,-0.04094964126609404,6.4849853515625e-05,-0.040479023588972214,-0.11828542202785433,0.19478168672270363,0.6159660410367337,-2.346241617121941,0.76875,1.66875,1.3,0.0,59844.79994769123,8.390876744081847,-6.690200274555983,-20.12054086495604,59844.79994769123,8.390876744081847,-6.690200274555983,-20.12054086495604,,,,,,,,,
0.8442995548248291,886.9683410662092,1474.0220115644747,683.994713818338,-0.1633874505190324,0.06698883378177638,-0.04121031766094326,0.0003478527069091797,-0.040615187077518364,-0.11821834106620918,0.19472798843552527,0.616005286181662,-2.3611772743654877,0.76875,1.66875,1.3,0.0,60106.26331412735,7.151795081892296,-4.761777237263037,-39.927715769135055,60106.26331412735,7.151795081892296,-4.761777237263037,-39.927715769135055,8.597900390625,7.98449182510376,-7.604262351989746,-0.01953125,0.00695037841796875,0.998046875,-2.43359375,1022.3693237304688,3.24609375
0.8465919494628906,886.9643445736514,1474.04712212349,684.000744517236,-0.1649731332786528,0.06781725091011653,-0.04080762488468733,8.988380432128906e-05,-0.040673814449696935,-0.11821434457365138,0.19470287787651,0.615999255482764,-2.338104677845617,0.76875,1.66875,1.3,0.0,59934.40598820169,7.138803805260788,-5.12660071508624,-19.982149605260105,59934.40598820169,7.138803805260788,-5.12660071508624,-19.982149605260105,,,,,,,,,
0.8481438159942627,887.0189323736045,1473.988279750327,684.0639797772325,-0.16270911436903168,0.06512470860249434,-0.040953128600496214,8.96453857421875e-05,-0.0407111659298833,-0.11826893237360446,0.1947617202496731,0.6159360202227675,-2.3464414266649367,0.76875,1.66875,1.3,0.0,59364.98049439386,8.667043655869008,-6.372273176979357,-43.30456519032841,59364.98049439386,8.667043655869008,-6.372273176979357,-43.30456519032841,,,,,,,,,
0.853208065032959,886.9868975134852,1474.0003481151518,683.9838039481947,-0.16754378831155553,0.07024252123481972,-0.0410077925707751,0.00037980079650878906,-0.04081200538164915,-0.11823689751348525,0.19474965188484816,0.6160161960518054,-2.349573441453346,0.76875,1.66875,1.3,0.0,60255.34290239321,7.442474772491424,-4.959097457917141,-36.16932431430348,60255.34290239321,7.442474772491424,-4.959097457917141,-36.16932431430348,8.217093467712402,6.2304558753967285,-3.469682216644287,0.006153106689453125,-0.0188446044921875,0.99462890625,-2.48046875,1022.37841796875,3.24609375
0.8555176258087158,886.9621086608233,1474.039854144019,684.0272598867464,-0.1632124250293035,0.06701662402447017,-0.04092467157471245,9.036064147949219e-05,-0.0408538691163869,-0.11821210866082334,0.19471014585598095,0.6159727401132536,-2.344810959190032,0.76875,1.66875,1.3,0.0,59647.843452631445,6.988214199118442,-4.789423642292669,-32.10533249323243,59647.843452631445,6.988214199118442,-4.789423642292669,-32.10533249323243,,,,,,,,,
0.8571000099182129,887.0194759673486,1473.9595234825367,683.9579906116402,-0.16762287871444578,0.07251249544876806,-0.04122502844818077,0.00010275840759277344,-0.04088007016012487,-0.11826947596734863,0.19479047651746328,0.6160420093883598,-2.3620201403875116,0.76875,1.66875,1.3,0.0,60844.90567561783,9.119575848195858,-6.388526788034475,-51.94758758254334,60844.90567561783,9.119575848195858,-6.388526788034475,-51.94758758254334,,,,,,,,,
0.8592879772186279,886.9761612348711,1473.9984468924372,683.9803073101489,-0.16420524909906706,0.06840672590529161,-0.041915450458811315,0.00010991096496582031,-0.04091399148879898,-0.11822616123487115,0.1947515531075628,0.6160196926898511,-2.4015784076795783,0.76875,1.66875,1.3,0.0,59788.029390457195,6.98754035856436,-4.484856876772812,-62.99366940781144,59788.029390457195,6.98754035856436,-4.484856876772812,-62.99366940781144,-3.667673110961914,-14.772869110107422,-4.9787116050720215,0.0059051513671875,0.0038318634033203125,0.98291015625,-2.517578125,1022.37841796875,3.2890625
0.863053560256958,887.0306338460092,1473.9517167627594,684.041383257566,-0.1626981741409703,0.0654761403950705,-0.041619039806580084,0.0003209114074707031,-0.04096583274852305,-0.1182806338460092,0.19479828323724063,0.6159586167424339,-2.384595328304009,0.76875,1.66875,1.3,0.0,59739.07558204572,7.914861555539257,-5.610319011460741,-28.984049518419514,59739.07558204572,7.914861555539257,-5.610319011460741,-28.984049518419514,,,,,,,,,
0.8666636943817139,886.9717094874411,1474.0281122261138,683.9915286555657,-0.1651392402903024,0.0695482762445606,-0.041739805297108606,0.00011944770812988281,-0.04101186004237884,-0.11822170948744111,0.19472188777388624,0.6160084713444343,-2.3915146812221204,0.76875,1.66875,1.3,0.0,60193.0113450465,6.886285603952525,-4.5749556477275135,-38.72901602784366,60193.0113450465,6.886285603952525,-4.5749556477275135,-38.72901602784366,,,,,,,,,
0.8692817687988281,886.8359878134917,1474.0126949509383,683.9068691099433,-0.15818226017534381,0.06328584515323628,-0.04410434216633501,0.0002689361572265625,-0.04104669453043627,-0.11808598781349167,0.19473730504906167,0.6160931308900567,-2.5269926643318703,0.76875,1.66875,1.3,0.0,60518.145229958565,7.7912865834317175,-3.4780791366731676,-115.07589672855747,60518.145229958565,7.7912865834317175,-3.4780791366731676,-115.07589672855747,,,,,,,,,
0.8713395595550537,886.9810244454402,1474.0180535322463,683.9906055750557,-0.16614621001444868,0.06846590451631608,-0.040375161103583225,0.00015091896057128906,-0.04107359248093019,-0.1182310244454402,0.19473194646775369,0.6160093944249443,-2.313326328396082,0.76875,1.66875,1.3,0.0,59345.4368611979,7.357622451335899,-7.407944948158828,123.2082868221184,59345.4368611979,7.357622451335899,-7.407944948158828,123.2082868221184,11.62205696105957,-15.563411712646484,-9.818341255187988,0.002872467041015625,-0.0369873046875,1.052734375,-2.591796875,1022.4150390625,3.3203125
0.8734064102172852,886.9756111766096,1474.00427797839,684.0011347105471,-0.16309649900365508,0.06661069982069225,-0.04160451088958896,0.00022554397583007812,-0.04110035782085294,-0.11822561117660962,0.19474572202160995,0.6159988652894528,-2.383762882679522,0.76875,1.66875,1.3,0.0,59912.03819588075,7.7524431694815545,-5.048725134182449,-86.55874543735827,59912.03819588075,7.7524431694815545,-5.048725134182449,-86.55874543735827,,,,,,,,,
0.8766577243804932,887.042208994063,1473.9393374738872,684.0213690172319,-0.16232918374996264,0.06557535689034469,-0.04083522942715951,7.510185241699219e-05,-0.04113844596576194,-0.11829220899406301,0.19481066252611276,0.6159786309827681,-2.339686301624662,0.76875,1.66875,1.3,0.0,59923.408816644274,8.162351703697128,-5.810489261258236,-14.434746890851535,59923.408816644274,8.162351703697128,-5.810489261258236,-14.434746890851535,,,,,,,,,
0.8781282901763916,886.97480055786,1474.0553191236254,683.9977742303577,-0.16524938495384256,0.06695882774719888,-0.04103938490318571,7.843971252441406e-05,-0.04115496720338978,-0.11822480055786003,0.1946946808763746,0.6160022257696424,-2.351383548765448,0.76875,1.66875,1.3,0.0,60164.788264172086,5.066869931709547,-3.5351456503932406,-47.27217457971726,60164.788264172086,5.066869931709547,-3.5351456503932406,-47.27217457971726,,,,,,,,,
0.8856673240661621,887.0349784418321,1473.9708855691824,684.0531285181069,-0.1628256414805778,0.06518670787244321,-0.04079670408739964,0.00017833709716796875,-0.04121005992975264,-0.1182849784418321,0.19477911443081758,0.6159468714818931,-2.337478962252114,0.76875,1.66875,1.3,0.0,59884.65148841302,7.9073920171478385,-5.362357177763137,-32.298724292044454,59884.65148841302,7.9073920171478385,-5.362357177763137,-32.298724292044454,4.497908592224121,23.406675338745117,-11.964448928833008,-0.000705718994140625,0.01499176025390625,1.205078125,-2.67578125,1022.4150390625,3.3515625
0.8876137733459473,886.9865271267663,1474.0227972722962,683.9760580078348,-0.16503086752882185,0.06758084094716336,-0.04138668880404187,7.343292236328125e-05,-0.04122265860968167,-0.1182365271267663,0.1947272027277038,0.6160239419921651,-2.371282596492936,0.76875,1.66875,1.3,0.0,60618.89529252754,6.747607459177723,-4.260567672650818,-61.429413736575015,60618.89529252754,6.747607459177723,-4.260567672650818,-61.429413736575015,,,,,,,,,
0.8914835453033447,886.9586617299556,1474.035960508651,684.0167469390295,-0.16366750747719905,0.06626830506233,-0.04061562971370452,5.53131103515625e-05,-0.04123947534241642,-0.11820866172995556,0.19471403949134902,0.6159832530609705,-2.3271041648614093,0.76875,1.66875,1.3,0.0,59802.437490308075,7.469343328572501,-4.835475947454709,-17.648154602150715,59802.437490308075,7.469343328572501,-4.835475947454709,-17.648154602150715,-23.190828323364258,76.94548797607422,-12.178924560546875,-0.0064697265625,-0.0038700103759765625,1.1875,-2.83203125,1022.4462890625,3.3984375
0.8931114673614502,886.9802416578162,1474.0083536624247,683.9797985499114,-0.16376624082385444,0.0679696982390679,-0.041637051832635684,0.00021886825561523438,-0.04124551657894449,-0.11823024165781623,0.19474164633757526,0.6160202014500886,-2.3856273413774742,0.76875,1.66875,1.3,0.0,60408.90749718395,8.096580835494771,-5.513956713902133,-89.56705546554323,60408.90749718395,8.096580835494771,-5.513956713902133,-89.56705546554323,,,,,,,,,
0.8951690196990967,887.0642355606201,1473.8917201409658,684.0041043687582,-0.16294886392550195,0.06485178113461679,-0.041587866486515086,5.125999450683594e-05,-0.041251894670216165,-0.1183142355606201,0.19485827985903414,0.6159958956312418,-2.382809228630874,0.76875,1.66875,1.3,0.0,59894.951755100454,9.345238246294265,-6.454504167811731,-33.679067409184626,59894.951755100454,9.345238246294265,-6.454504167811731,-33.679067409184626,,,,,,,,,
0.8965451717376709,887.0497329268004,1473.9126063863348,684.0217152084839,-0.1631671537979894,0.06626662129971128,-0.041524599183152475,4.982948303222656e-05,-0.04125572507985762,-0.1182997329268004,0.1948373936136652,0.6159782847915161,-2.3791842791670224,0.76875,1.66875,1.3,0.0,59749.59726860289,7.108180673755145,-4.708677760139134,-31.728352719788774,59749.59726860289,7.108180673755145,-4.708677760139134,-31.728352719788774,,,,,,,,,
0.8979954719543457,886.9869823966552,1474.004498069672,683.9966572676983,-0.16527472861694698,0.06877694870056061,-0.04162263664246642,5.626678466796875e-05,-0.041259422567621176,-0.11823698239665521,0.1947455019303279,0.6160033427323017,-2.384801411819897,0.76875,1.66875,1.3,0.0,60197.49012860803,5.6175349133351,-3.6016591418691304,-41.556919349130645,60197.49012860803,5.6175349133351,-3.6016591418691304,-41.556919349130645,,,,,,,,,
0.9029653072357178,887.0320168836566,1473.970834100643,684.0562158666066,-0.16362155692955285,0.06619130653348476,-0.04054954830220655,5.078315734863281e-05,-0.04126370977985479,-0.11828201688365664,0.19477916589935693,0.6159437841333933,-2.323317978878308,0.76875,1.66875,1.3,0.0,59800.537324823024,7.790719490510889,-5.352950248114632,-16.268719001987368,59800.537324823024,7.790719490510889,-5.352950248114632,-16.268719001987368,-6.087021827697754,73.75237274169922,-6.015479564666748,-0.01204681396484375,-0.00897979736328125,1.185546875,-2.90234375,1022.4462890625,3.416015625
0.9043550491333008,887.018078901177,1474.0094872419947,684.0625579955561,-0.16259716840159535,0.06554888278038112,-0.04065994157316757,4.482269287109375e-05,-0.0412642126106954,-0.11826807890117698,0.19474051275800525,0.6159374420044439,-2.3296430473910186,0.76875,1.66875,1.3,0.0,59876.02311008704,6.708236698143054,-4.6920026900155625,-41.789140076999395,59876.02311008704,6.708236698143054,-4.6920026900155625,-41.789140076999395,,,,,,,,,
0.9057724475860596,886.8080544179472,1473.9818743500116,683.8998225524143,-0.154319589658609,0.059955550742569134,-0.043843828186934615,5.14984130859375e-05,-0.041264778061517134,-0.11805805441794723,0.1947681256499884,0.6161001774475857,-2.5120663128080696,0.76875,1.66875,1.3,0.0,61916.337688815205,8.403140615645071,-0.349171454619956,-229.92688208704533,61916.337688815205,8.403140615645071,-0.349171454619956,-229.92688208704533,,,,,,,,,
0.9085721969604492,887.0135979418175,1473.982748003046,684.0389676287733,-0.15853318989655754,0.06296093334038497,-0.041401878002474454,5.221366882324219e-05,-0.041266211978342356,-0.11826359794181747,0.19476725199695397,0.6159610323712267,-2.3721528734573094,0.76875,1.66875,1.3,0.0,59205.64800443858,7.479885469155947,-7.399296057648365,39.41636477357499,59205.64800443858,7.479885469155947,-7.399296057648365,39.41636477357499,1.081257700920105,71.90154266357422,1.4062241315841675,-0.017791748046875,-0.0208740234375,1.216796875,-2.921875,1022.4622192382812,3.416015625
0.912919282913208,886.8402791930479,1473.9523843281988,683.8859998465297,-0.15231868157086637,0.057879405947671964,-0.044571448831913905,5.555152893066406e-05,-0.04128539321372966,-0.11809027919304788,0.19479761567180118,0.6161140001534703,-2.5537559048519696,0.76875,1.66875,1.3,0.0,60579.4478260734,7.848255835783646,-3.803462326910817,-100.92197300507652,60579.4478260734,7.848255835783646,-3.803462326910817,-100.92197300507652,,,,,,,,,
0.9145612716674805,886.9706743182284,1473.9992352020367,683.9897121792756,-0.16383173029185144,0.06890105491957657,-0.04196401898526781,0.00015306472778320312,-0.04129480818435478,-0.11822067431822836,0.19475076479796324,0.6160102878207244,-2.404361179262705,0.76875,1.66875,1.3,0.0,58962.682962137456,6.556099673474892,-7.562831711254446,99.32933060793827,58962.682962137456,6.556099673474892,-7.562831711254446,99.32933060793827,,,,,,,,,
0.9166345596313477,886.9754651520631,1474.0418498855845,684.0202304289718,-0.1651411884152643,0.06747716645230775,-0.04063073310680718,4.792213439941406e-05,-0.041308229954021,-0.11822546515206307,0.1947081501144155,0.6159797695710282,-2.327969525542519,0.76875,1.66875,1.3,0.0,59717.95663982278,6.894620113439032,-5.133299846416739,20.790985475247176,59717.95663982278,6.894620113439032,-5.133299846416739,20.790985475247176,,,,,,,,,
0.9179956912994385,886.9807652547106,1474.0075251805954,683.9788690975187,-0.16443512590323198,0.0694788345009623,-0.04182053484555084,4.1484832763671875e-05,-0.04131772271048264,-0.1182307652547106,0.1947424748194046,0.6160211309024813,-2.3961401436298573,0.76875,1.66875,1.3,0.0,60547.518008866056,8.364901641805297,-5.248241465273594,-111.47793240969517,60547.518008866056,8.364901641805297,-5.248241465273594,-111.47793240969517,,,,,,,,,
0.9236946105957031,887.0274737365563,1474.005540253593,684.0687233256737,-0.16295817482716854,0.06582555903316638,-0.04064510566687988,0.0001990795135498047,-0.041351934934357105,-0.11827747373655631,0.19474445974640708,0.6159312766743263,-2.3287930125754825,0.76875,1.66875,1.3,0.0,59728.34801575249,7.563631178389596,-5.347510557163001,-17.23743633308926,59728.34801575249,7.563631178389596,-5.347510557163001,-17.23743633308926,6.922382831573486,63.2764892578125,4.904840469360352,-0.035064697265625,-0.0090484619140625,1.3095703125,-2.892578125,1022.4622192382812,3.44140625
0.9257476329803467,886.9662697380257,1474.0128998257048,683.993525288232,-0.16449786755136062,0.06879822694905081,-0.04140279751971241,5.054473876953125e-05,-0.04136344923377854,-0.11821626973802575,0.19473710017429516,0.616006474711768,-2.372205557914234,0.76875,1.66875,1.3,0.0,60594.86898148545,7.489395762564471,-4.122320289631267,-67.32371310105054,60594.86898148545,7.489395762564471,-4.122320289631267,-67.32371310105054,,,,,,,,,
0.9271140098571777,886.9049591449221,1473.9290734584329,683.958217582769,-0.15033796206435152,0.05395898994104406,-0.04409753978333374,4.00543212890625e-05,-0.04137131325561657,-0.11815495914492215,0.19482092654156713,0.6160417824172311,-2.5266029164952664,0.76875,1.66875,1.3,0.0,60491.503285815386,9.604509895424197,-3.7145810805448027,-208.8872831469691,60491.503285815386,9.604509895424197,-3.7145810805448027,-208.8872831469691,,,,,,,,,
0.9288222789764404,887.0257518602733,1473.9822555465023,684.052125420953,-0.16267466203625963,0.0648320096089091,-0.041071845672784726,4.744529724121094e-05,-0.041381243550719225,-0.11827575186027332,0.1947677444534977,0.615947874579047,-2.353243413863218,0.76875,1.66875,1.3,0.0,59084.73859386972,6.479899072290765,-7.295075858983315,116.29046387077545,59084.73859386972,6.479899072290765,-7.295075858983315,116.29046387077545,7.54672908782959,54.138797760009766,11.320873260498047,-0.020904541015625,-0.0236663818359375,1.2998046875,-2.7890625,1022.4789428710938,3.453125
0.9328274726867676,886.9542671405261,1474.0360097572975,684.0042681259846,-0.16621413618653533,0.06890527737277433,-0.04186813671479927,0.0001266002655029297,-0.04140494557650162,-0.11820426714052609,0.1947139902427025,0.6159957318740154,-2.398867529834726,0.76875,1.66875,1.3,0.0,60169.069873626526,7.157691473129823,-4.495226064000116,-53.0302939888346,60169.069873626526,7.157691473129823,-4.495226064000116,-53.0302939888346,,,,,,,,,
0.935178279876709,886.9831460574902,1474.004320657757,683.9974226998346,-0.16246842626440527,0.06712006801318252,-0.04115842570496067,8.273124694824219e-05,-0.0414183763743875,-0.11823314605749022,0.19474567934224296,0.6160025773001654,-2.3582040842970065,0.76875,1.66875,1.3,0.0,60066.57824480731,7.976916633731436,-5.490835408552561,-9.554888047282972,60066.57824480731,7.976916633731436,-5.490835408552561,-9.554888047282972,,,,,,,,,
0.9365854263305664,886.975100122244,1474.0097437212808,683.9899966034308,-0.16298428485265173,0.06720347606124145,-0.04181132071793212,4.57763671875e-05,-0.04142611250683048,-0.11822510012224405,0.19474025627871924,0.6160100033965692,-2.3956122130054096,0.76875,1.66875,1.3,0.0,60075.90287283034,7.447028051198817,-4.890466240751399,-76.46313029534898,60075.90287283034,7.447028051198817,-4.890466240751399,-76.46313029534898,,,,,,,,,
0.937936544418335,886.9727420349196,1473.9933715282657,683.9855382662117,-0.16415965656180462,0.07004255044293757,-0.04207870524712159,3.838539123535156e-05,-0.041433578665409525,-0.11822274203491963,0.1947566284717343,0.6160144617337883,-2.4109322180350587,0.76875,1.66875,1.3,0.0,60062.52250531864,7.956689325294375,-5.041309576578419,-53.250517141083634,60062.52250531864,7.956689325294375,-5.041309576578419,-53.250517141083634,,,,,,,,,
0.940864086151123,887.0392911382987,1473.942903614196,684.0520193736928,-0.16350671865600983,0.06687859281640668,-0.041077823894038135,4.410743713378906e-05,-0.041448380094526914,-0.11828929113829872,0.194807096385804,0.6159479806263072,-2.3535859407100337,0.76875,1.66875,1.3,0.0,59643.307695087875,8.086947521574416,-5.825566487895674,-6.1135317842594965,59643.307695087875,8.086947521574416,-5.825566487895674,-6.1135317842594965,,,,,,,,,
0.9433941841125488,886.9872396183018,1473.9906067529798,683.9704952430723,-0.16548012794509243,0.06891672063589303,-0.041232886834177994,0.00019598007202148438,-0.04145959788982452,-0.11823723961830183,0.19475939324702016,0.6160295047569277,-2.3624703927389374,0.76875,1.66875,1.3,0.0,60510.201844256684,6.9924143136159,-4.390355722281275,-40.72024483474746,60510.201844256684,6.9924143136159,-4.390355722281275,-40.72024483474746,10.726640701293945,48.207950592041016,16.245683670043945,-0.0325927734375,-0.0146331787109375,1.328125,-2.67578125,1022.4789428710938,3.47265625
0.9454662799835205,887.038209575566,1473.9489236371542,684.0530504037009,-0.16345867486157412,0.06707009088179161,-0.04142559536382661,4.839897155761719e-05,-0.04146783477833452,-0.11828820957556604,0.19480107636284583,0.615946949596299,-2.3735117781639747,0.76875,1.66875,1.3,0.0,59351.82633088145,8.185051021085682,-5.889702134310541,-43.615872033016025,59351.82633088145,8.185051021085682,-5.889702134310541,-43.615872033016025,,,,,,,,,
0.9468233585357666,886.9290853801646,1474.3427880725583,684.1443341113707,-0.1647567744345753,0.05770313580120555,-0.026028746456078125,4.124641418457031e-05,-0.04146939148048959,-0.11817908538016457,0.19440721192744173,0.6158556658886294,-1.4913373179493752,0.76875,1.66875,1.3,0.0,58736.89349112408,-1.6425553056001396,-2.2594664887448426,897.9021671854772,58736.89349112408,-1.6425553056001396,-2.2594664887448426,360,,,,,,,,,
0.9486188888549805,886.8604322586602,1474.451257153982,684.0838252314041,-0.16676206313243236,0.04879387084953307,-0.026433722324369996,4.887580871582031e-05,-0.04145873479018221,-0.11811043225866023,0.19429874284601806,0.6159161747685958,-1.5145407260071453,0.76875,1.66875,1.3,0.0,60505.99803052574,5.7190371763423204,-3.6423737186127765,-43.00764818621643,60505.99803052574,5.7190371763423204,-3.6423737186127765,-43.00764818621643,13.493152618408203,41.39860153198242,23.40459632873535,-0.023895263671875,-0.03240966796875,1.4150390625,-2.431640625,1022.4866333007812,3.47265625
0.9525225162506104,887.1037352160547,1474.4460046065544,684.2836297022125,-0.1567217693614982,0.04651125505075734,-0.019739238810671186,0.00012421607971191406,-0.04131735743804754,-0.1183537352160547,0.1943039953934456,0.6157163702977876,-1.1309750746522935,0.76875,1.66875,1.3,0.0,59163.46724990556,7.676518586974196,-6.822800982665244,130.1270731737905,59163.46724990556,7.676518586974196,-6.822800982665244,130.1270731737905,,,,,,,,,
0.954749345779419,887.0591356534806,1474.4912945670283,684.1541238549925,-0.1645654471220969,0.041911929847892535,-0.021710092594414934,5.054473876953125e-05,-0.04119328912245522,-0.11830913565348056,0.19425870543297175,0.6158458761450075,-1.2438966784981995,0.76875,1.66875,1.3,0.0,60946.03423097444,7.169424679373531,-4.041926918373049,-94.8533560168068,60946.03423097444,7.169424679373531,-4.041926918373049,-94.8533560168068,,,,,,,,,
0.9561169147491455,887.1781838131848,1474.487867882793,684.017189864927,-0.1540542597253129,0.04901062819717507,-0.02042442129051914,4.5299530029296875e-05,-0.0410997761546232,-0.11842818381318478,0.1942621321172071,0.6159828101350731,-1.1702331389438891,0.76875,1.66875,1.3,0.0,61783.47013733636,7.811758212898766,-7.432805048701827,63.54027682838817,61783.47013733636,7.811758212898766,-7.432805048701827,63.54027682838817,,,,,,,,,
0.9574861526489258,886.3558912240389,1474.491252636032,685.6267506063756,0.025246176872808945,-0.04457726750673003,0.03175846916870715,3.910064697265625e-05,-0.040976149794804004,-0.11760589122403894,0.19425874736396803,0.6143732493936244,1.8196262471632678,0.76875,1.66875,1.3,0.0,40121.12997593335,8.648919011508177,14.82609177679656,3317.581042978079,40121.12997593335,8.648919011508177,14.82609177679656,360,,,,,,,,,
0.9619283676147461,886.3082394105458,1474.7401618437684,685.6512520249926,-0.0027647650482266802,-0.035740102928848536,0.024687934012351746,5.221366882324219e-05,-0.040076097759799,-0.11755823941054576,0.19400983815623157,0.6143487479750074,1.4145144238052314,0.76875,1.66875,1.3,0.0,59785.00149204424,6.603046010442762,-3.371207008582726,-115.23194431730764,59785.00149204424,6.603046010442762,-3.371207008582726,-115.23194431730764,,,,,,,,,
0.9651956558227539,886.344623282871,1475.0057712669218,686.5184014809221,-0.019130443959570656,-0.01762485254803084,0.020110871412901753,6.580352783203125e-05,-0.03912564595996246,-0.117594623282871,0.19374422873307823,0.6134815985190779,1.1522680542895691,0.76875,1.66875,1.3,0.0,55326.63864014153,6.1136871993119986,-3.4988019476689596,-102.928109966533,55326.63864014153,6.1136871993119986,-3.4988019476689596,-102.928109966533,6.17511510848999,22.68360137939453,28.146459579467773,-0.0241851806640625,-0.00634765625,1.41015625,-2.220703125,1022.4866333007812,3.484375
0.9666926860809326,886.4559811302445,1475.0725455657457,686.815028138703,-0.04578900144169478,-0.009521498678542979,0.02409005284020771,8.797645568847656e-05,-0.03861516557317805,-0.11770598113024448,0.1936774544342543,0.613184971861297,1.3802583559910435,0.76875,1.66875,1.3,0.0,56625.33282397604,7.409799818554305,-5.257482141878987,242.71145181124024,56625.33282397604,7.409799818554305,-5.257482141878987,242.71145181124024,,,,,,,,,
0.968177318572998,886.823488702586,1475.2216186470246,687.5000605293578,-0.05728757512097847,0.0006532386989146059,0.016122303524522423,4.315376281738281e-05,-0.038078786817657355,-0.11807348870258602,0.19352838135297543,0.6124999394706422,0.9237399479840268,0.76875,1.66875,1.3,0.0,51826.01848111941,5.412249498444052,-10.840134856688476,-465.6373026443788,51826.01848111941,5.412249498444052,-10.840134856688476,-360,,,,,,,,,
0.9722754955291748,886.9977062598383,1475.5103877946378,688.5072505291846,-0.06115090547057736,0.005155649542805644,0.016899637405612417,0.0005869865417480469,-0.03614865165197993,-0.11824770625983831,0.19323961220536218,0.6114927494708154,0.9682778986430076,0.76875,1.66875,1.3,0.0,55650.391085178395,7.1400014056150365,-3.4452895413864013,30.72025869993,55650.391085178395,7.1400014056150365,-3.4452895413864013,30.72025869993,-10.118318557739258,7.374025821685791,26.426313400268555,-0.002521514892578125,-0.0183563232421875,1.404296875,-1.87890625,1022.4774780273438,3.5
0.974198579788208,887.4272206059067,1475.6993177698046,689.7625156426385,-0.14248621064668382,0.06967581580998229,0.019075109976348408,0.0004630088806152344,-0.03516919104616827,-0.11867722060590666,0.19305068223019545,0.6102374843573615,1.0929232953926553,0.76875,1.66875,1.3,0.0,48672.48027557088,6.187017228351337,-8.996207186074331,114.30882374140943,48672.48027557088,6.187017228351337,-8.996207186074331,114.30882374140943,,,,,,,,,
0.9765136241912842,887.3157348786452,1475.7518626210308,691.2929418709633,-0.13321885698256208,0.01952187707644899,0.04351642873760142,5.173683166503906e-05,-0.03385585527064486,-0.11856573487864523,0.1929981373789692,0.6087070581290367,2.4933077061463704,0.76875,1.66875,1.3,0.0,48483.21872603858,9.157465167445851,-0.002153545753848185,946.0688506729427,48483.21872603858,9.157465167445851,-0.002153545753848185,360,,,,,,,,,
0.977881908416748,888.0996795829725,1476.2409889726518,693.4035446229612,-0.12464686459820286,0.02181013035162189,0.03979075663255902,4.0531158447265625e-05,-0.03303635544091019,-0.1193496795829725,0.19250901102734816,0.6065964553770388,2.27984241867782,0.76875,1.66875,1.3,0.0,33598.34073577677,-2.1661132247836132,-19.454171785919037,-201.50040928595013,33598.34073577677,-2.1661132247836132,-19.454171785919037,-201.50040928595013,,,,,,,,,
0.9795846939086914,888.0915742195775,1476.7680391786334,695.8721497029946,-0.13224069935767988,0.03673999407009214,0.033847335415559024,4.887580871582031e-05,-0.031940058545274166,-0.11934157421957753,0.19198196082136657,0.6041278502970053,1.9393094670752125,0.76875,1.66875,1.3,0.0,34894.68214068801,0.24105087451249751,-0.6813308632250745,-269.71762180948326,34894.68214068801,0.24105087451249751,-0.6813308632250745,-269.71762180948326,-12.085563659667969,4.799877166748047,25.47441864013672,0.0196533203125,0.0003330707550048828,1.3408203125,-1.669921875,1022.4774780273438,3.5
0.9847815036773682,888.5126641341822,1477.697490333588,698.4877530874463,-0.12878721588683395,0.025429032680272575,0.06094176941303192,0.0001239776611328125,-0.027889473651547068,-0.11976266413418216,0.1910525096664121,0.6015122469125537,3.491706183426181,0.76875,1.66875,1.3,0.0,50882.46503461784,4.833083890425177,-2.739109339571658,499.9644124877293,50882.46503461784,4.833083890425177,-2.739109339571658,360,,,,,,,,,
0.9870238304138184,888.8091222346842,1478.0346545233613,701.7125897131248,-0.12429094941983927,0.040749414804069135,0.048664823583922344,5.364418029785156e-05,-0.026021935277332625,-0.12005912223468419,0.19071534547663874,0.5982874102868753,2.7882890021074633,0.76875,1.66875,1.3,0.0,34844.46217082487,5.906884930419716,-4.0980362211819745,-429.4266761398006,34844.46217082487,5.906884930419716,-4.0980362211819745,-360,,,,,,,,,
0.9883847236633301,889.2736530503797,1479.117266038351,704.5831769347614,-0.10464395532134758,0.027902410279017353,0.060964534108396605,3.528594970703125e-05,-0.02485155001015305,-0.12052365305037972,0.1896327339616489,0.5954168230652387,3.493010504392479,0.76875,1.66875,1.3,0.0,23281.190993144788,-15.01333498820031,-10.180162715819405,836.7086767380214,23281.190993144788,-15.01333498820031,-10.180162715819405,360,,,,,,,,,
0.9948904514312744,889.6349863975163,1479.996085674877,709.0534653346194,-0.10957734776054523,-0.0004333547820523768,0.05747204995116715,0.0009963512420654297,-0.018465815465511945,-0.12088498639751628,0.18875391432512312,0.5909465346653806,3.2929059021669267,0.76875,1.66875,1.3,0.0,47491.59173923258,7.019604364511103,-0.8087736084449899,3.3793597203853523,47491.59173923258,7.019604364511103,-0.8087736084449899,3.3793597203853523,-18.437530517578125,1.845446228981018,31.65866470336914,0.0111541748046875,-0.032379150390625,1.3544921875,-1.3388671875,1022.4548950195312,3.541015625
1.0061683654785156,890.0659492962372,1480.8231696503094,713.2051397617342,-0.10830774318103238,0.01111896335338187,0.06387397199446387,0.009337186813354492,-0.00638394395280657,-0.12131594929623725,0.1879268303496906,0.5867948602382658,3.659709016019597,0.76875,1.66875,1.3,0.0,52849.0098631993,9.354352983605477,0.3069253680863442,103.65177593722345,52849.0098631993,9.354352983605477,0.3069253680863442,103.65177593722345,-19.274991989135742,0.5848046541213989,30.249300003051758,-0.00258636474609375,0.0023956298828125,1.3759765625,-1.0810546875,1022.4548950195312,3.541015625
1.0154049396514893,890.4545886612578,1482.1617166021667,717.5128845263598,-0.10189762101573459,-0.025349786320140323,0.07404089756695562,0.007883787155151367,0.0038216809709594683,-0.12170458866125784,0.18658828339783326,0.5824871154736402,4.242230941947002,0.76875,1.66875,1.3,0.0,50964.96505519224,7.147633542335288,0.43731834952108173,158.27287190215608,50964.96505519224,7.147633542335288,0.43731834952108173,158.27287190215608,-22.78922462463379,2.48171067237854,32.85731506347656,0.0164337158203125,-0.013946533203125,1.2841796875,-0.71337890625,1022.4393310546875,3.59375
1.0248253345489502,890.9157620349093,1483.5173070886951,722.2544233514049,-0.09779044666666407,-0.025163400010537795,0.06555393478732484,0.00807499885559082,0.013796641100230336,-0.12216576203490934,0.18523269291130487,0.5777455766485952,3.755963793789541,0.76875,1.66875,1.3,0.0,50189.65956208212,6.961149577870311,-0.054426045221819486,-21.106012218999176,50189.65956208212,6.961149577870311,-0.054426045221819486,-21.106012218999176,-29.90535545349121,3.9213602542877197,35.49045944213867,0.002376556396484375,-0.01346588134765625,1.3056640625,-0.434814453125,1022.4393310546875,3.62109375
1.0350584983825684,891.862418603662,1484.1073419803126,728.1754338578912,-0.0695752836027146,-0.05116248555043157,0.0718991712749785,0.008893251419067383,0.02379428906661336,-0.12311241860366204,0.18464265801968735,0.5718245661421087,4.11951906454451,0.76875,1.66875,1.3,0.0,48815.00148730786,9.436355058143073,-1.8893589539618594,115.07608062008768,48815.00148730786,9.436355058143073,-1.8893589539618594,115.07608062008768,-23.380857467651367,18.756874084472656,34.00502395629883,-0.0008826255798339844,-0.0362548828125,1.3466796875,-0.0142669677734375,1022.4342651367188,3.62109375
1.0448243618011475,891.5632433109745,1488.0995355837877,734.0110509180633,-0.09407801984230907,-0.10494171663653945,0.1071302955188415,0.00842738151550293,0.03348286791845838,-0.12281324331097448,0.18065046441621235,0.5659889490819366,6.138113791218894,0.76875,1.66875,1.3,0.0,48157.462435310976,-1.9809532492738562,1.8449503812658508,402.1051493579427,48157.462435310976,-1.9809532492738562,1.8449503812658508,360,-12.58348274230957,37.602169036865234,26.659570693969727,-0.002048492431640625,-0.0311737060546875,1.330078125,0.220458984375,1022.4342651367188,3.57421875
1.0556817054748535,892.463504588174,1488.5910252915153,739.4178192042161,-0.048889243656734443,-0.07516670364047048,0.11441846480157604,0.009509563446044922,0.04461083203370791,-0.12371350458817404,0.18015897470848471,0.5605821807957839,6.5556951314964715,0.76875,1.66875,1.3,0.0,49863.1630677072,9.88477890297225,-1.259812865090372,156.02778563504552,49863.1630677072,9.88477890297225,-1.259812865090372,156.02778563504552,-3.2278943061828613,47.27449035644531,27.144990921020508,-0.00977325439453125,-0.0283660888671875,1.29296875,0.53564453125,1022.4194946289062,3.57421875
1.0649824142456055,893.0059926204002,1490.3665309979306,745.1524993819565,-0.08138970916439965,-0.07904406233618297,0.11381660689198506,0.007962226867675781,0.0540883770405182,-0.12425599262040021,0.17838346900206944,0.5548475006180434,6.521211213410342,0.76875,1.66875,1.3,0.0,47533.45732187891,5.13396565772483,-0.7043053218738358,92.25595686039142,47533.45732187891,5.13396565772483,-0.7043053218738358,92.25595686039142,4.007944107055664,51.15561294555664,20.136781692504883,-0.016510009765625,-0.0106353759765625,1.2783203125,0.72021484375,1022.4194946289062,3.57421875
1.0751769542694092,893.1737645629098,1491.9495714604025,751.2809158871147,-0.10376921718601871,-0.023030382068692408,0.08250626989798926,0.008137941360473633,0.06285158072204539,-0.12442376456290981,0.17680042853959754,0.5487190841128853,4.727261048522053,0.76875,1.66875,1.3,0.0,47639.1739391492,5.572260275356028,-0.26894094149324044,-192.62331852516752,47639.1739391492,5.572260275356028,-0.26894094149324044,-192.62331852516752,10.234566688537598,50.269378662109375,7.458395004272461,-0.00933837890625,-0.0303497314453125,1.2158203125,0.87890625,1022.3955078125,3.58984375
1.084681749343872,893.5178741018876,1494.0658140715489,757.4380804555464,-0.1314394885503013,-0.022185513747869846,0.09254155715095153,0.008118152618408203,0.06957103491596145,-0.12476787410188762,0.17468418592845114,0.5425619195444537,5.302240654318226,0.76875,1.66875,1.3,0.0,46613.74247279799,2.8374881459568604,-1.9683614707703576,170.22174164971443,46613.74247279799,2.8374881459568604,-1.9683614707703576,170.22174164971443,16.35151481628418,42.60421371459961,-2.1575052738189697,-0.011138916015625,-0.033172607421875,1.2158203125,0.88330078125,1022.3955078125,3.583984375
1.095306396484375,894.106800074564,1495.9755135170583,763.8436985601296,-0.16369952675441066,-0.020440600326435125,0.0874888979677459,0.009239435195922852,0.07524613368761945,-0.12535680007456404,0.17277448648294172,0.5361563014398704,5.012744607802524,0.76875,1.66875,1.3,0.0,47183.80889082473,3.5702745114063315,-3.5475949224284253,34.238911920242195,47183.80889082473,3.5702745114063315,-3.5475949224284253,34.238911920242195,18.97060203552246,30.57489585876465,-8.578847885131836,-0.02001953125,-0.02069091796875,1.1962890625,0.80419921875,1022.3748779296875,3.583984375
1.1056196689605713,894.670903240039,1498.3539506309714,770.3751262982008,-0.134861557827693,-0.01715906363502425,0.09304903595325671,0.00896906852722168,0.07948016824601495,-0.12592090324003902,0.17039604936902855,0.5296248737017992,5.331317047882666,0.76875,1.66875,1.3,0.0,46482.35615793439,1.4425286412811271,-4.420189203162781,126.31052216472327,46482.35615793439,1.4425286412811271,-4.420189203162781,126.31052216472327,16.039134979248047,14.559239387512207,-3.7281556129455566,-0.0059051513671875,-0.05828857421875,1.212890625,0.7490234375,1022.3748779296875,3.599609375
1.1153044700622559,894.9185356811525,1500.7303539747643,777.3247905345793,-0.13596221779925427,-0.012899550684106875,0.0718983466942026,0.00834345817565918,0.08191735145936281,-0.12616853568115255,0.16801964602523572,0.5226752094654207,4.119471819546184,0.76875,1.66875,1.3,0.0,44840.621402656885,0.25311056585570846,-4.488406324764438,-125.87766456888897,44840.621402656885,0.25311056585570846,-4.488406324764438,-125.87766456888897,8.657209396362305,-5.192193508148193,-10.653946876525879,-0.0078125,-0.046630859375,1.185546875,0.66748046875,1022.3630981445312,3.58984375
1.125241994857788,895.5493789061974,1503.3421363159425,784.3639657973341,-0.14837433976990227,-0.012014093009686522,0.06806683770415212,0.008216142654418945,0.08284369728224356,-0.12679937890619739,0.16540786368405747,0.5156360342026659,3.899942525249858,0.76875,1.66875,1.3,0.0,44829.21004016273,-0.8650142236548684,-6.696671567598923,25.365903003459792,44829.21004016273,-0.8650142236548684,-6.696671567598923,25.365903003459792,-3.088141918182373,-24.99860954284668,-17.376789093017578,0.004535675048828125,-0.083251953125,1.126953125,0.5390625,1022.3630981445312,3.599609375
1.1347205638885498,895.8560108175787,1506.1458542966284,791.3848040307723,-0.14951184023974437,-0.014650395875373718,0.07232715873698349,0.008135318756103516,0.08273922750250023,-0.12710601081757875,0.16260414570337162,0.5086151959692277,4.144040939801912,0.76875,1.66875,1.3,0.0,44067.35229811695,-2.485871355526709,-6.405173471431865,100.79252702998994,44067.35229811695,-2.485871355526709,-6.405173471431865,100.79252702998994,-14.503904342651367,-41.75017166137695,-24.35777473449707,0.00437164306640625,-0.044647216796875,1.10546875,0.28271484375,1022.3558349609375,3.59375
1.1458196640014648,896.2969095192598,1508.9908378294328,799.0932546436206,-0.1640438561760724,-0.001637142673209309,0.07121879002620643,0.009755134582519531,0.08179521194909152,-0.12754690951925976,0.15975916217056715,0.5009067453563794,4.08053609053003,0.76875,1.66875,1.3,0.0,44629.075392274004,-1.5945996897632941,-6.969585529574973,52.62450289186931,44629.075392274004,-1.5945996897632941,-6.969585529574973,52.62450289186931,-28.588258743286133,-54.03378677368164,-23.843894958496094,-0.023040771484375,-0.01274871826171875,1.1064453125,0.075927734375,1022.3558349609375,3.599609375
1.1546273231506348,896.7425293189068,1512.0646782212693,806.5191237776032,-0.15206487697705176,-0.010292862501838439,0.07692874617871584,0.007469654083251953,0.08089718397102941,-0.1279925293189068,0.15668532177873068,0.4934808762223968,4.407692479273577,0.76875,1.66875,1.3,0.0,41920.1573296292,-4.71446620408289,-7.666613015287344,121.8412379823385,41920.1573296292,-4.71446620408289,-7.666613015287344,121.8412379823385,-42.6566276550293,-62.33864974975586,-24.981088638305664,-0.0242767333984375,-0.046661376953125,1.111328125,-0.214111328125,1022.3411254882812,3.599609375
1.1651160717010498,896.9642295500704,1515.0052827029047,813.9473733644987,-0.1492774762800756,-0.026739810526349272,0.08403855176090515,0.009154081344604492,0.08015799458944953,-0.1282142295500704,0.15374471729709535,0.48605262663550125,4.815054332291577,0.76875,1.66875,1.3,0.0,43945.68418365436,-2.6062473517096434,-6.387476721819008,130.47881921978632,43945.68418365436,-2.6062473517096434,-6.387476721819008,130.47881921978632,-53.8431396484375,-64.69116973876953,-29.791763305664062,-0.0159149169921875,-0.031951904296875,1.1083984375,-0.432861328125,1022.3411254882812,3.60546875
1.174849271774292,897.4239686580354,1517.7879031222571,821.4620054356294,-0.1279673334322398,-0.02167065185990503,0.05000591576151185,0.008150577545166016,0.07876540435562496,-0.1286739686580354,0.15096209687774284,0.4785379945643706,2.865127923821351,0.76875,1.66875,1.3,0.0,42688.13901176199,-3.0908031941582816,-7.625779454635738,-256.99315723942163,42688.13901176199,-3.0908031941582816,-7.625779454635738,-256.99315723942163,-59.2923698425293,-60.693519592285156,-33.533843994140625,-0.01544189453125,0.005191802978515625,1.0693359375,-0.802734375,1022.3287353515625,3.611328125
1.1844987869262695,897.8711454443661,1521.0945529563396,828.9345165910779,-0.11902979719995221,-0.032596734333647216,0.04072680423250147,0.008249998092651367,0.07630347749983077,-0.12912114544436612,0.14765544704366038,0.47106548340892207,2.333473995577872,0.76875,1.66875,1.3,0.0,42435.46214051551,-5.502053052482905,-8.328232339770112,-47.74068033896043,42435.46214051551,-5.502053052482905,-8.328232339770112,-47.74068033896043,-63.243309020996094,-54.552127838134766,-38.19682312011719,-0.01287841796875,0.004291534423828125,1.10546875,-1.0791015625,1022.3287353515625,3.62109375
1.1946496963500977,898.1677207650793,1524.4682355136817,836.937908205682,-0.12068162959988032,-0.0384477409528594,0.039691979469628394,0.007922172546386719,0.07272361943391085,-0.12941772076507926,0.14428176448631824,0.463062091794318,2.274182904129619,0.76875,1.66875,1.3,0.0,41965.86007728672,-5.74146030595652,-8.22088102968687,25.347386674977166,41965.86007728672,-5.74146030595652,-8.22088102968687,25.347386674977166,-60.16802978515625,-45.369117736816406,-43.64780807495117,-0.01055145263671875,0.00931549072265625,1.119140625,-1.55078125,1022.3141479492188,3.62109375
1.2050182819366455,898.8864528352888,1526.6821305085248,845.3670032900509,0.03188219954375185,-0.17511747366400265,0.020638258642416127,0.0064356327056884766,0.067807556807497,-0.13013645283528877,0.14206786949147523,0.4546329967099491,1.18248511670984,0.76875,1.66875,1.3,0.0,41314.37224200049,-2.44266634286128,-9.80153742387515,-140.05831207580246,41314.37224200049,-2.44266634286128,-9.80153742387515,-140.05831207580246,-54.606605529785156,-33.928443908691406,-31.99847412109375,-0.0242919921875,-0.020050048828125,1.091796875,-1.8408203125,1022.3141479492188,3.615234375
1.2151398658752441,898.972685913409,1530.4090174141659,853.2062495716945,0.019560302978657924,-0.17015246082795704,0.029599290874028662,0.00875544548034668,0.06252250239530334,-0.13022268591340902,0.13834098258583413,0.44679375042830555,1.695914443661936,0.76875,1.66875,1.3,0.0,41762.61392996355,-7.916820714936993,-8.373647285217565,101.57462114095742,41762.61392996355,-7.916820714936993,-8.373647285217565,101.57462114095742,-48.00187301635742,-25.53318214416504,-22.147384643554688,-0.02642822265625,-0.029022216796875,1.064453125,-2.1171875,1022.3147583007812,3.615234375
1.22538423538208,898.5691725512143,1533.6054415829292,861.3970849757418,0.012266839098450421,-0.16157297390339395,-0.009695728100806015,0.008901357650756836,0.05582435830696069,-0.12981917255121425,0.13514455841707082,0.4386029150242582,-0.5555242994825779,0.76875,1.66875,1.3,0.0,41041.073367677905,-6.904137757257281,-7.233031219588764,-338.09256159825685,41041.073367677905,-6.904137757257281,-7.233031219588764,-338.09256159825685,-43.08049011230469,-24.050710678100586,-19.425506591796875,-0.0245819091796875,-0.029632568359375,1.0791015625,-2.259765625,1022.3147583007812,3.62109375
1.2354099750518799,898.517091211887,1536.7730076218916,868.7296832525336,0.02788406218754573,-0.15965812588638684,-0.012491874035667976,0.008682966232299805,0.0481735739554412,-0.12976709121188695,0.13197699237810842,0.4312703167474664,-0.7157316604528302,0.76875,1.66875,1.3,0.0,42040.202317811534,-7.579427756991032,-8.711927878795114,-34.706522658711876,42040.202317811534,-7.579427756991032,-8.711927878795114,-34.706522658711876,-40.72366714477539,-21.99897575378418,-14.123398780822754,-0.030975341796875,0.0208282470703125,1.0048828125,-2.4375,1022.3048706054688,3.626953125
1.2453882694244385,898.579660320761,1541.7561017549747,876.1243617687629,-0.17424825885957645,-0.03229801513897169,0.01005767588996801,0.008638381958007812,0.040807277441266755,-0.12982966032076104,0.12699389824502533,0.4238756382312371,0.5762623802056511,0.76875,1.66875,1.3,0.0,41866.38484798292,-13.593744538968373,-9.084668837071364,202.85532909595156,41866.38484798292,-13.593744538968373,-9.084668837071364,202.85532909595156,-39.963096618652344,-24.689245223999023,-16.932607650756836,-0.0172882080078125,-0.035491943359375,1.0146484375,-2.541015625,1022.3048706054688,3.626953125
1.2553246021270752,898.5470448910363,1545.079214551125,884.3436560040117,-0.11281092772128372,-0.05505177078628174,0.02463956489232943,0.008594751358032227,0.0347906389475357,-0.1297970448910363,0.123670785448875,0.41565634399598833,1.4117430773691908,0.76875,1.66875,1.3,0.0,39945.32707081255,-7.9727719884719095,-7.833104958808898,147.07167320244565,39945.32707081255,-7.9727719884719095,-7.833104958808898,147.07167320244565,-33.45361328125,-33.45256042480469,-4.335362434387207,-0.00907135009765625,-0.052490234375,1.048828125,-2.6328125,1022.2975463867188,3.626953125
1.2648701667785645,898.2040858971525,1548.4883248133667,891.9606399611004,-0.0985126149185006,-0.04697800540524978,0.025447634414809118,0.00818181037902832,0.030476755673565028,-0.1294540858971525,0.12026167518663328,0.4080393600388996,1.458042050560429,0.76875,1.66875,1.3,0.0,40137.46171676356,-8.3321826115793,-6.0787949769624685,29.158659998745076,40137.46171676356,-8.3321826115793,-6.0787949769624685,29.158659998745076,-31.630762100219727,-40.31977844238281,-0.8203316926956177,-0.006923675537109375,-0.061370849609375,1.02734375,-2.609375,1022.2975463867188,3.626953125
1.2747063636779785,897.8490796073055,1552.235793612584,900.5516120693634,-0.07786975001512372,-0.08525192619693045,0.03764389319223416,0.00835418701171875,0.027811981800335377,-0.1290990796073055,0.11651420638741593,0.39944838793063664,2.156836204356269,0.76875,1.66875,1.3,0.0,38629.338120793866,-8.490010276022025,-5.291347539930895,138.75474717637672,38629.338120793866,-8.490010276022025,-5.291347539930895,138.75474717637672,-28.513107299804688,-52.9540901184082,-10.432746887207031,-0.00040459632873535156,-0.07025146484375,1.033203125,-2.61328125,1022.2894287109375,3.626953125
1.2853469848632812,897.4600026160059,1555.6290893095706,908.608428170911,-0.054336586170839404,-0.07575690674470448,0.031233857735363496,0.009255647659301758,0.026432800479966538,-0.1287100026160059,0.11312091069042936,0.391391571829089,1.7895682261483676,0.76875,1.66875,1.3,0.0,40271.068036622935,-6.103436954860521,-4.624314537569396,-24.97291248569188,40271.068036622935,-6.103436954860521,-4.624314537569396,-24.97291248569188,-26.77204132080078,-66.53832244873047,-19.62213897705078,-0.007415771484375,-0.005260467529296875,1.0361328125,-2.69140625,1022.2894287109375,3.62109375
1.2954075336456299,896.8296062492886,1558.7754716013517,916.4132347105602,-0.048032911119521175,-0.07042818990614921,0.019527315325859867,0.008702754974365234,0.025629961428967375,-0.12807960624928866,0.10997452839864831,0.38358676528943975,1.1188327533929001,0.76875,1.66875,1.3,0.0,39709.70277833068,-5.850603427737511,-3.557649567268199,-83.25313155327451,39709.70277833068,-5.850603427737511,-3.557649567268199,-83.25313155327451,-17.107097625732422,-71.04281616210938,-22.690202713012695,-0.01139068603515625,-0.03375244140625,1.0126953125,-2.859375,1022.29248046875,3.630859375
