time,x_pos,y_pos,z_pos,x_rot,y_rot,z_rot,delta_time,z_filtered,x_pos_est,y_pos_est,z_pos_est,z_rot_est,x_error,y_error,z_error,yaw_error,x_setpoint,y_setpoint,z_setpoint,yaw_setpoint,vicon_available,thrust_cal,pitch_cal,roll_cal,yaw_cal,thrust_lim,pitch_lim,roll_lim,yaw_lim,gyro_x,gyro_y,acc_x,acc_y,acc_z,stateEstimate_az,stateEstimate_vz,stateEstimate_yaw,range_zrange,motion_deltaX,motion_deltaY
1.4157688617706299,871.8895287098752,1623.9277556933093,725.637107673559,-0.09306110105292491,0.04530560311330758,3.1163223739442136,0.00057220458984375,2.0970558996878177,871.8895287098752,1623.9277556933093,-24.030052863550452,3.1163223739442136,-0.10313952870987521,0.04482224430669066,0.5743628923264411,358.55211962919293,0.76875,1.66875,1.3,10313.240312354817,1.0,-9166738.175572887,702.1516723405697,951.5303445592289,-894.4213715130895,10000,40,40,-360,-0.303955078125,0.056671142578125,-0.0026149749755859375,-0.004863739013671875,0.998046875,-0.0016937255859375,0.001522064208984375,0.0019474029541015625,23.0,0.0,0.0
1.4188311100006104,871.94029350334,1623.9942919052842,725.7411005566751,-0.0870738540701757,0.04135847459231464,3.1140503937603836,9.465217590332031e-05,2.102100197366877,871.94029350334,1623.9942919052842,-19.530832125881616,3.1140503937603836,-0.10319029350333994,0.04475570809471583,0.574258899443325,358.4219447535221,0.76875,1.66875,1.3,10313.240312354817,1.0,57679.23585562361,-3.185666796384086,8.29900171850841,-139.0864857699575,57679.23585562361,-3.185666796384086,8.29900171850841,-139.0864857699575,0.1593017578125,-0.2474365234375,-0.001739501953125,-0.005252838134765625,0.99755859375,-0.0023899078369140625,0.0012722015380859375,0.001987457275390625,23.0,0.0,0.0
1.4221138954162598,871.9107926871848,1623.9027427050153,725.593179842537,-0.09612788062853317,0.047216452706845054,3.115661658912781,7.462501525878906e-05,2.111453235901557,871.94029350334,1623.9942919052842,-19.530832125881616,3.1140503937603836,-0.10316079268718477,0.044847257294984726,0.574406820157463,358.514263446431,0.76875,1.66875,1.3,10313.240312354817,1.0,59606.83123302039,-5.027773060349142,9.272925527158131,21.718724362119602,59606.83123302039,-5.027773060349142,9.272925527158131,21.718724362119602,,,,,,,,,,,
1.424206018447876,872.0431637974218,1623.930253317219,725.729111717886,-0.08873524009456295,0.04140038592459489,3.1169155144239467,7.462501525878906e-05,2.117684559768999,871.94029350334,1623.9942919052842,-19.530832125881616,3.1140503937603836,-0.10329316379742182,0.044819746682780985,0.574270888282114,358.58610407534,0.76875,1.66875,1.3,10313.240312354817,1.0,57651.55609587525,-2.94189139031205,9.301663812347606,30.470289210743893,57651.55609587525,-2.94189139031205,9.301663812347606,30.470289210743893,,,,,,,,,,,
1.426750659942627,871.9035574651915,1624.0086721979537,725.6946319219761,-0.09040481913018401,0.044152259118562104,3.1135603493755024,5.650520324707031e-05,2.125962861984104,871.9035574651915,1624.0086721979537,-15.39802395968126,3.1135603493755024,-0.10315355746519152,0.044741327802046274,0.5743053680780239,358.3938672784943,0.76875,1.66875,1.3,10313.240312354817,1.0,58950.57113913708,-5.340079118304802,7.3978604756290345,-128.28300985563163,58950.57113913708,-5.340079118304802,7.3978604756290345,-128.28300985563163,0.06011962890625,-0.04888916015625,-0.0019435882568359375,-0.00885009765625,0.9970703125,-0.002735137939453125,0.0010194778442382812,0.0015459060668945312,23.0,0.0,0.0
1.4317011833190918,872.0646215677016,1623.8070352967618,725.6606341706472,-0.09317501750872101,0.043741141579550356,3.120546183476859,7.176399230957031e-05,2.140207235170906,871.9035574651915,1624.0086721979537,-15.39802395968126,3.1135603493755024,-0.10331462156770158,0.044942964703238206,0.5743393658293529,358.79412608888066,0.76875,1.66875,1.3,10313.240312354817,1.0,58952.29250240815,-4.6070853051897265,10.114986874638067,108.79306703522823,58952.29250240815,-4.6070853051897265,10.114986874638067,108.79306703522823,,,,,,,,,,,
1.4336133003234863,871.8971654217203,1623.9917467835196,725.6376458435784,-0.08988089103121404,0.04545870765449003,3.114150806222894,6.937980651855469e-05,2.145978011834285,871.9035574651915,1624.0086721979537,-15.39802395968126,3.1135603493755024,-0.10314716542172027,0.0447582532164804,0.5743623541564216,358.4276979638345,0.76875,1.66875,1.3,10313.240312354817,1.0,58888.43802758066,-5.436977492607486,5.311282984742325,-311.9355531679444,58888.43802758066,-5.436977492607486,5.311282984742325,-311.9355531679444,,,,,,,,,,,
1.4364709854125977,872.0479868372723,1623.9068013100905,725.7268960278734,-0.0888805378927555,0.039618992786204205,3.118451859409148,5.745887756347656e-05,2.1550058561706154,872.0479868372723,1623.9068013100905,-11.693121718144221,3.118451859409148,-0.10329798683727233,0.04484319868990951,0.5742731039721266,358.67413015886814,0.76875,1.66875,1.3,10313.240312354817,1.0,58303.32673507192,-4.257409084301468,9.988706541125405,104.22476954902483,58303.32673507192,-4.257409084301468,9.988706541125405,104.22476954902483,0.0054931640625,-0.010772705078125,-0.0033321380615234375,-0.007701873779296875,0.9951171875,-0.003826141357421875,0.0007586479187011719,0.0013341903686523438,23.0,0.0,0.0
1.4454066753387451,871.9325621782668,1623.9819377544973,725.6735018756808,-0.09196575905797422,0.043202224334048044,3.115178555980183,7.224082946777344e-05,2.1819162702308526,872.0479868372723,1623.9068013100905,-11.693121718144221,3.118451859409148,-0.10318256217826684,0.044768062245502734,0.5743264981243192,358.48658368732276,0.76875,1.66875,1.3,10313.240312354817,1.0,58871.518363419964,-5.35109778055337,8.230513715507193,-54.59928404251387,58871.518363419964,-5.35109778055337,8.230513715507193,-54.59928404251387,,,,,,,,,,,
1.4473137855529785,871.9188841713348,1624.0045555676631,725.7340955088719,-0.08852645575687403,0.041649175210787384,3.114807011157719,5.459785461425781e-05,2.187746911628607,872.0479868372723,1623.9068013100905,-11.693121718144221,3.118451859409148,-0.10316888417133475,0.044745444432336856,0.5742659044911281,358.46529573709563,0.76875,1.66875,1.3,10313.240312354817,1.0,58217.76460996526,-5.322505388828469,8.16783351016888,-39.8716210880296,58217.76460996526,-5.322505388828469,8.16783351016888,-39.8716210880296,,,,,,,,,,,
1.4506394863128662,872.0507383644339,1623.9001459924068,725.6985554606035,-0.09063122553919983,0.04140927887474946,3.1189438416134303,5.4836273193359375e-05,2.1983599028059086,872.0507383644339,1623.9001459924068,-8.426623032998979,3.1189438416134303,-0.10330073836443388,0.04484985400759319,0.5743014445393965,358.702318662769,0.76875,1.66875,1.3,10313.240312354817,1.0,58996.69887419557,-5.08110542334933,9.714682102508007,83.52665147032738,58996.69887419557,-5.08110542334933,9.714682102508007,83.52665147032738,-2.716796875,-1.658203125,-0.0011348724365234375,-0.00213623046875,0.984375,-0.0152130126953125,0.000701904296875,-0.005451202392578125,23.0,0.0,0.0
1.4532785415649414,871.910557868214,1623.9767897146346,725.673029811917,-0.09262733825032224,0.04303768374224912,3.116026716472176,8.988380432128906e-05,2.206144350962523,872.0507383644339,1623.9001459924068,-8.426623032998979,3.1189438416134303,-0.10316055786821403,0.04477321028536539,0.574326970188083,358.5351797038637,0.76875,1.66875,1.3,10313.240312354817,1.0,58919.43503360151,-6.217300308798442,6.9562387224262086,-121.11876925804361,58919.43503360151,-6.217300308798442,6.9562387224262086,-121.11876925804361,,,,,,,,,,,
1.4551823139190674,872.0440490753123,1623.910488669409,725.733475039765,-0.08789043348166663,0.04045711621352563,3.11855939221417,5.507469177246094e-05,2.212054787041802,872.0507383644339,1623.9001459924068,-8.426623032998979,3.1189438416134303,-0.10329404907531227,0.044839511330591,0.574266524960235,358.6802913347551,0.76875,1.66875,1.3,10313.240312354817,1.0,58293.18823807714,-4.691091811624884,10.249707751390583,94.41045469000773,58293.18823807714,-4.691091811624884,10.249707751390583,94.41045469000773,,,,,,,,,,,
1.4586172103881836,871.9230422708209,1623.9887212379517,725.7279029082483,-0.09194977514847928,0.043533909082038885,3.114930329531876,6.747245788574219e-05,2.223162204989102,871.9230422708209,1623.9887212379517,-5.997038096034119,3.114930329531876,-0.10317304227082093,0.04476127876204828,0.5742720970917516,358.4723613594713,0.76875,1.66875,1.3,10313.240312354817,1.0,58781.63218984209,-6.04350590851276,7.400810073396494,-109.73891693980306,58781.63218984209,-6.04350590851276,7.400810073396494,-109.73891693980306,1.796875,1.4189453125,-0.00891876220703125,-0.01229095458984375,0.9912109375,-0.003662109375,-0.01088714599609375,0.002559661865234375,17.0,0.0,0.0
1.4649746417999268,871.9130922720059,1623.897852088259,725.6082167233261,-0.09781883699705958,0.04721472066348822,3.1164687348270625,7.152557373046875e-05,2.2423953891490553,871.9230422708209,1623.9887212379517,-5.997038096034119,3.114930329531876,-0.10316309227200589,0.04485214791174098,0.5743917832766738,358.560505490066,0.76875,1.66875,1.3,10313.240312354817,1.0,59133.421608870325,-6.122688788650563,8.59145993556282,-0.2559966073001547,59133.421608870325,-6.122688788650563,8.59145993556282,-0.2559966073001547,,,,,,,,,,,
1.4669981002807617,871.9221872045051,1623.9991794818895,725.6876254644197,-0.0900336829168888,0.04152087284293275,3.115499728258007,5.8650970458984375e-05,2.2486700314909647,871.9230422708209,1623.9887212379517,-5.997038096034119,3.114930329531876,-0.10317218720450512,0.04475082051811046,0.5743123745355803,358.5049855033387,0.76875,1.66875,1.3,10313.240312354817,1.0,58055.35112685586,-5.055586756982903,7.295795518271781,-63.81165745177882,58055.35112685586,-5.055586756982903,7.295795518271781,-63.81165745177882,,,,,,,,,,,
1.4697113037109375,872.0651931931156,1623.8592106642118,725.7263251461683,-0.09141025706602236,0.042204416480529396,3.1198854692975644,0.00011110305786132812,2.257614377043336,872.0651931931156,1623.8592106642118,-3.8348817363093013,3.1198854692975644,-0.10331519319311565,0.04489078933578821,0.5742736748538317,358.7562699549426,0.76875,1.66875,1.3,10313.240312354817,1.0,58620.8637748674,-5.819271932927009,10.000672441567367,112.41228599717115,58620.8637748674,-5.819271932927009,10.000672441567367,112.41228599717115,1.1123046875,0.17236328125,-0.00012803077697753906,-0.007049560546875,1.01953125,0.01480865478515625,-0.01187896728515625,0.00708770751953125,17.0,0.0,0.0
1.4724533557891846,871.8578499938083,1623.9985808040424,725.6237200791697,-0.09262857964427353,0.047448339494758636,3.114540216055142,6.794929504394531e-05,2.265670914986989,872.0651931931156,1623.8592106642118,-3.8348817363093013,3.1198854692975644,-0.10310784999380826,0.044751419195957626,0.5743762799208303,358.4500095037232,0.76875,1.66875,1.3,10313.240312354817,1.0,59407.44749483215,-6.808531965348308,5.736267137226889,-200.78824806304354,59407.44749483215,-6.808531965348308,5.736267137226889,-200.78824806304354,,,,,,,,,,,
1.475154161453247,871.9133682401042,1623.9981962329493,725.6905618516626,-0.09151570337340306,0.04456401332153241,3.115646022500107,9.846687316894531e-05,2.274605846422611,871.9133682401042,1623.9981962329493,-1.8158546086232858,3.115646022500107,-0.1031633682401042,0.04475180376705066,0.5743094381483375,358.5133675459781,0.76875,1.66875,1.3,10313.240312354817,1.0,58387.7573336791,-5.783158410697107,8.422571200227615,10.846558016944307,58387.7573336791,-5.783158410697107,8.422571200227615,10.846558016944307,5.1640625,5.31640625,0.0014142990112304688,-0.01538848876953125,1.0205078125,0.007411956787109375,-0.01154327392578125,-0.00786590576171875,17.0,0.0,0.0
1.4777922630310059,872.0525856511298,1623.890431331712,725.7519532205735,-0.08907540681925559,0.040688167290171946,3.1188766350329598,7.343292236328125e-05,2.2823180001972414,871.9133682401042,1623.9981962329493,-1.8158546086232858,3.115646022500107,-0.10330258565112979,0.04485956866828792,0.5742480467794265,358.6984680093526,0.76875,1.66875,1.3,10313.240312354817,1.0,58421.20091676199,-5.867184966941323,9.86705380500138,92.72294022706937,58421.20091676199,-5.867184966941323,9.86705380500138,92.72294022706937,,,,,,,,,,,
1.4842121601104736,872.0512377279608,1623.9130947033814,725.7148395109062,-0.08842743051058548,0.0413425050784836,3.116821916796118,6.198883056640625e-05,2.3023675132590773,871.9133682401042,1623.9981962329493,-1.8158546086232858,3.115646022500107,-0.10330123772796082,0.04483690529661862,0.5742851604890937,358.580741326293,0.76875,1.66875,1.3,10313.240312354817,1.0,58879.35075568735,-6.327393702774945,7.908107448257118,-48.74966338069074,58879.35075568735,-6.327393702774945,7.908107448257118,-48.74966338069074,,,,,,,,,,,
1.4874958992004395,871.914976121499,1623.9458698567842,725.6025787943465,-0.09425553976739127,0.04531965071070483,3.115600471769399,6.008148193359375e-05,2.3130929455034956,871.914976121499,1623.9458698567842,-0.11028773596598862,3.115600471769399,-0.10316497612149897,0.044804130143215846,0.5743974212056535,358.51075768135473,0.76875,1.66875,1.3,10313.240312354817,1.0,59331.69600415933,-7.067759907980319,6.985809111257598,-52.8133733489347,59331.69600415933,-7.067759907980319,6.985809111257598,-52.8133733489347,1.513671875,2.9296875,-0.0128936767578125,-0.00040149688720703125,0.98095703125,-0.024383544921875,-0.01116943359375,-0.0098419189453125,17.0,0.0,0.0
1.4899775981903076,871.9408498303399,1623.996833679906,725.7224305041765,-0.0893904207397386,0.0427265527335864,3.1159752745304417,6.580352783203125e-05,2.3202697601032396,871.914976121499,1623.9458698567842,-0.11028773596598862,3.115600471769399,-0.10319084983033985,0.0447531663200939,0.5742775694958235,358.5322322977123,0.76875,1.66875,1.3,10313.240312354817,1.0,57871.16632000522,-5.917672473424296,7.570224814698172,-8.054894791255222,57871.16632000522,-5.917672473424296,7.570224814698172,-8.054894791255222,,,,,,,,,,,
1.4918699264526367,871.8713317064736,1623.9796208794173,725.6568358408415,-0.09002354010969826,0.044855859836584626,3.1157345680804265,6.127357482910156e-05,2.326141341430861,871.914976121499,1623.9458698567842,-0.11028773596598862,3.115600471769399,-0.1031213317064736,0.044770379120582675,0.5743431641591585,358.5184408340249,0.76875,1.66875,1.3,10313.240312354817,1.0,59388.39671888534,-7.433740277794978,7.268902607193562,-33.19145561818648,59388.39671888534,-7.433740277794978,7.268902607193562,-33.19145561818648,,,,,,,,,,,
1.4940195083618164,871.844203357159,1624.005024368425,725.6174491098657,-0.09355603835970856,0.0455418130179418,3.115680139286272,7.677078247070312e-05,2.3328184635879348,871.914976121499,1623.9458698567842,-0.11028773596598862,3.115600471769399,-0.10309420335715902,0.044744975631575014,0.5743825508901343,358.5153222938359,0.76875,1.66875,1.3,10313.240312354817,1.0,59082.92161796741,-6.6322234227070025,7.249321206108217,-24.446073143018474,59082.92161796741,-6.6322234227070025,7.249321206108217,-24.446073143018474,,,,,,,,,,,
1.4973697662353516,871.9339668564289,1623.9069173342575,725.6362982370352,-0.09283351615657583,0.044808731721561725,3.114635314829085,5.9604644775390625e-05,2.343692050022717,871.9339668564289,1623.9069173342575,2.2817218628321436,3.114635314829085,-0.10318396685642893,0.04484308266574249,0.5743637017629648,358.45545826210696,0.76875,1.66875,1.3,10313.240312354817,1.0,58729.01306730963,-6.6983467057300405,8.629248457177944,-48.7719276730938,58729.01306730963,-6.6983467057300405,8.629248457177944,-48.7719276730938,1.3623046875,1.392578125,-0.02484130859375,0.0257720947265625,0.998046875,0.007503509521484375,0.00128936767578125,0.01006317138671875,25.0,0.0,0.0
1.5015795230865479,871.9081409955797,1623.9943110668364,725.7283800682134,-0.08877356130831036,0.041177275169915546,3.1144194275130266,6.842613220214844e-05,2.356246782238817,871.9339668564289,1623.9069173342575,2.2817218628321436,3.114635314829085,-0.10315814099557974,0.04475568893316358,0.5742716199317867,358.44308883004646,0.76875,1.66875,1.3,10313.240312354817,1.0,58368.32734861733,-6.464118214435362,7.040076649919014,-27.92442624503878,58368.32734861733,-6.464118214435362,7.040076649919014,-27.92442624503878,,,,,,,,,,,
1.5034923553466797,872.0430727170443,1623.9059825289003,725.739454158888,-0.09006683091297567,0.04161439478499993,3.1175619572934017,6.127357482910156e-05,2.3621379949343364,871.9339668564289,1623.9069173342575,2.2817218628321436,3.114635314829085,-0.10329307271704431,0.044844017471099736,0.5742605458411121,358.6231425234561,0.76875,1.66875,1.3,10313.240312354817,1.0,58750.2045561405,-6.352484126709612,9.652314555335128,121.12434557704509,58750.2045561405,-6.352484126709612,9.652314555335128,121.12434557704509,,,,,,,,,,,
1.506408452987671,871.8832779669417,1623.9698006132608,725.6596720090336,-0.09243378711815166,0.04382052651454082,3.1152055529329714,6.389617919921875e-05,2.371681052798888,871.8832779669417,1623.9698006132608,4.471844001489622,3.1152055529329714,-0.1031332779669417,0.044780199386739244,0.5743403279909665,358.4881304987772,0.76875,1.66875,1.3,10313.240312354817,1.0,59197.10456281583,-7.3856571461541325,6.091860780708905,-88.0031377070212,59197.10456281583,-7.3856571461541325,6.091860780708905,-88.0031377070212,0.62548828125,2.345703125,-0.01285552978515625,0.00748443603515625,1.0263671875,0.022003173828125,0.0014448165893554688,0.031707763671875,25.0,0.0,0.0
1.5090951919555664,871.8747522777977,1624.0104035087634,725.6174642868498,-0.09311717427250872,0.046303380163382424,3.1146089332092592,6.508827209472656e-05,2.3793864959972995,871.8832779669417,1623.9698006132608,4.471844001489622,3.1152055529329714,-0.10312475227779772,0.04473959649123663,0.5743825357131502,358.45394670663427,0.76875,1.66875,1.3,10313.240312354817,1.0,59048.96196043457,-6.618268438362724,6.999016448230925,-43.63820614895188,59048.96196043457,-6.618268438362724,6.999016448230925,-43.63820614895188,,,,,,,,,,,
1.5131714344024658,871.914872104816,1623.9150410080226,725.6182511625459,-0.09648458852819987,0.04649045416742506,3.116933223871136,6.651878356933594e-05,2.391881822971085,871.8832779669417,1623.9698006132608,4.471844001489622,3.1152055529329714,-0.10316487210481602,0.044834958991977376,0.5743817488374541,358.5871187519215,0.76875,1.66875,1.3,10313.240312354817,1.0,58805.69329364644,-7.188586256016173,7.883872609870886,27.763545527653108,58805.69329364644,-7.188586256016173,7.883872609870886,27.763545527653108,,,,,,,,,,,
1.5153017044067383,871.9414389333311,1623.995348609274,725.7457170182398,-0.09001263636399175,0.04153317889918119,3.115487414536319,7.724761962890625e-05,2.3983578152160905,871.8832779669417,1623.9698006132608,4.471844001489622,3.1152055529329714,-0.10319143893333114,0.04475465139072594,0.5742542829817602,358.5042799790558,0.76875,1.66875,1.3,10313.240312354817,1.0,57707.52066378449,-6.0138602677577975,6.775780802126482,-81.09381883733242,57707.52066378449,-6.0138602677577975,6.775780802126482,-81.09381883733242,,,,,,,,,,,
1.5187296867370605,872.0350027116539,1623.9017831257513,725.6812836931367,-0.09093961581916339,0.04280344035157656,3.118762313347694,0.0002422332763671875,2.4097143368048672,872.0350027116539,1623.9017831257513,6.43906745088449,3.118762313347694,-0.10328500271165388,0.04484821687424869,0.5743187163068633,358.69191785928,0.76875,1.66875,1.3,10313.240312354817,1.0,59102.32874931143,-7.03323483879897,8.054513745964822,55.63794596926101,59102.32874931143,-7.03323483879897,8.054513745964822,55.63794596926101,2.275390625,2.3125,-0.0196990966796875,-0.042572021484375,1.0029296875,0.00830078125,0.004436492919921875,0.07080078125,25.0,0.0,0.0
1.5228488445281982,871.9555986234063,1623.984101939877,725.7462783388853,-0.0892716696284982,0.04165205438408627,3.1145966825916633,6.866455078125e-05,2.421272619022275,872.0350027116539,1623.9017831257513,6.43906745088449,3.118762313347694,-0.10320559862340634,0.04476589806012293,0.5742537216611147,358.4532447979496,0.76875,1.66875,1.3,10313.240312354817,1.0,58456.81902610735,-6.980811231728116,6.266240577304552,-116.98691692249413,58456.81902610735,-6.980811231728116,6.266240577304552,-116.98691692249413,,,,,,,,,,,
1.5250089168548584,871.9196869112468,1623.9833991819446,725.7052897825517,-0.09075130893867325,0.04331763544919501,3.1148708765442765,7.224082946777344e-05,2.427780744444891,872.0350027116539,1623.9017831257513,6.43906745088449,3.118762313347694,-0.1031696869112468,0.0447666008180554,0.5742947102174483,358.46895495420233,0.76875,1.66875,1.3,10313.240312354817,1.0,59094.92010247882,-7.342199379079477,6.641431607539289,-12.050186253809684,59094.92010247882,-7.342199379079477,6.641431607539289,-12.050186253809684,,,,,,,,,,,
1.5276026725769043,872.0717042796332,1623.9154577031602,725.7521860080382,-0.08729095151730175,0.03983901885283782,3.118045199421469,5.53131103515625e-05,2.4361433847966794,872.0717042796332,1623.9154577031602,8.26688386181121,3.118045199421469,-0.10332170427963319,0.0448345422968398,0.5742478139919618,358.65083025787726,0.76875,1.66875,1.3,10313.240312354817,1.0,58519.08454830346,-6.634523928476899,8.39592003219242,77.68803970961814,58519.08454830346,-6.634523928476899,8.39592003219242,77.68803970961814,9.09375,8.125,-0.017303466796875,-0.00830841064453125,1.0517578125,0.0396728515625,0.0036869049072265625,0.1871337890625,25.0,0.0,0.0
1.5340752601623535,871.9348410782786,1623.9654474112024,725.7384546731081,-0.08889096399688134,0.04156122601313768,3.114155414520772,8.678436279296875e-05,2.4548672362557413,872.0717042796332,1623.9154577031602,8.26688386181121,3.118045199421469,-0.10318484107827862,0.04478455258879763,0.5742615453268919,358.42796199985366,0.76875,1.66875,1.3,10313.240312354817,1.0,58795.1096458847,-7.338425692981957,6.2261720769977,-76.78965618738393,58795.1096458847,-7.338425692981957,6.2261720769977,-76.78965618738393,,,,,,,,,,,
1.537419319152832,871.9036344090111,1623.9789723743845,725.6830479861317,-0.09135533245945424,0.04347539945400497,3.1170679923097184,6.079673767089844e-05,2.465264019859486,871.9036344090111,1623.9789723743845,9.165872239174025,3.1170679923097184,-0.10315363440901115,0.04477102762561549,0.5743169520138683,358.59484041466385,0.76875,1.66875,1.3,10313.240312354817,1.0,59027.35712094368,-7.201894928587139,6.407614508738772,49.68544265104401,59027.35712094368,-7.201894928587139,6.407614508738772,49.68544265104401,13.921875,2.71875,-0.0058441162109375,0.0050048828125,1.0595703125,0.07122802734375,-0.0014944076538085938,0.32763671875,17.0,0.0,0.0
1.5399677753448486,871.8984837612669,1624.0127567190827,725.7021102582813,-0.0914523698210562,0.04430489399003468,3.11462323839611,6.818771362304688e-05,2.472294266856288,871.9036344090111,1623.9789723743845,9.165872239174025,3.1170679923097184,-0.1031484837612669,0.04473724328091726,0.5742978897417187,358.45476633346595,0.76875,1.66875,1.3,10313.240312354817,1.0,58610.54941164892,-6.895694820159372,6.327550452647062,-111.77505859175582,58610.54941164892,-6.895694820159372,6.327550452647062,-111.77505859175582,,,,,,,,,,,
1.541853904724121,871.9412524306763,1623.9835959205393,725.7161565721436,-0.08815428112490123,0.04195237895304999,3.115523038431733,5.459785461425781e-05,2.477742836821394,871.9036344090111,1623.9789723743845,9.165872239174025,3.1170679923097184,-0.10319125243067628,0.0447664040794607,0.5742838434278563,358.50632107791284,0.76875,1.66875,1.3,10313.240312354817,1.0,58653.47935194597,-7.12148919098025,7.264182871103928,19.29633407546158,58653.47935194597,-7.12148919098025,7.264182871103928,19.29633407546158,,,,,,,,,,,
1.5439047813415527,871.9086242977437,1623.9217545730216,725.5805130378259,-0.09636337033211605,0.04584616869868775,3.1160462976779404,7.772445678710938e-05,2.4837409175814393,871.9036344090111,1623.9789723743845,9.165872239174025,3.1170679923097184,-0.1031586242977437,0.04482824542697836,0.5744194869621742,358.53630162431176,0.76875,1.66875,1.3,10313.240312354817,1.0,59921.45440445308,-8.014194768245293,6.632381325912638,-0.12178093399855427,59921.45440445308,-8.014194768245293,6.632381325912638,-0.12178093399855427,,,,,,,,,,,
1.5472445487976074,872.0336900226885,1623.8971092531633,725.7155964835442,-0.08847631498958257,0.04192126487581794,3.119441534580994,6.222724914550781e-05,2.493886875395072,872.0336900226885,1623.8971092531633,10.050783923748753,3.119441534580994,-0.10328369002268846,0.04485289074683669,0.5742844035164558,358.7308343693038,0.76875,1.66875,1.3,10313.240312354817,1.0,58112.99103544969,-6.753824913903076,7.267580012657264,64.3454155039034,58112.99103544969,-6.753824913903076,7.267580012657264,64.3454155039034,11.90625,-7.71875,-0.050506591796875,0.00904083251953125,1.11328125,0.09393310546875,0.0070648193359375,0.42041015625,17.0,0.0,0.0
1.5544755458831787,872.0332201051172,1623.8903673186958,725.6966539200813,-0.08966338519106873,0.04180344574197929,3.1174528180643324,6.914138793945312e-05,2.514641195928716,872.0332201051172,1623.8903673186958,10.848476102219102,3.1174528180643324,-0.10328322010511715,0.04485963268130422,0.5743033460799187,358.6168893062511,0.76875,1.66875,1.3,10313.240312354817,1.0,58802.4451511896,-7.230336096651984,6.305983597027405,-44.36398763208042,58802.4451511896,-7.230336096651984,6.305983597027405,-44.36398763208042,40.5625,-7.57421875,-0.0176544189453125,0.0264892578125,1.0791015625,0.057861328125,0.017791748046875,0.478759765625,17.0,0.0,0.0
1.557126522064209,872.0578734492243,1623.9158947151986,725.7237964559355,-0.08889818157751303,0.04021317046241668,3.1179602888200253,6.67572021484375e-05,2.521705149247936,872.0332201051172,1623.8903673186958,10.848476102219102,3.1174528180643324,-0.1033078734492243,0.044834105284801355,0.5742762035440645,358.6459652387787,0.76875,1.66875,1.3,10313.240312354817,1.0,58555.39319338183,-6.808517380317564,6.2213272013488385,-2.7935291597532412,58555.39319338183,-6.808517380317564,6.2213272013488385,-2.7935291597532412,,,,,,,,,,,
1.5590109825134277,871.930152313344,1623.9808076616303,725.6817666059519,-0.09089730256688905,0.044064525718687554,3.114479784979859,5.3882598876953125e-05,2.527001767899011,872.0332201051172,1623.8903673186958,10.848476102219102,3.1174528180643324,-0.10318015231334403,0.04476919233836975,0.5743182333940481,358.44654705815805,0.76875,1.66875,1.3,10313.240312354817,1.0,59098.57042729286,-7.473472293776091,4.144541024333624,-183.06630564866828,59098.57042729286,-7.473472293776091,4.144541024333624,-183.06630564866828,,,,,,,,,,,
1.5609655380249023,872.0611639572613,1623.9087516151874,725.6914423873583,-0.08948364738639522,0.040820439286819055,3.1175353687891394,5.793571472167969e-05,2.5325046236146402,872.0332201051172,1623.8903673186958,10.848476102219102,3.1174528180643324,-0.10331116395726132,0.04484124838481261,0.5743085576126418,358.6216191143783,0.76875,1.66875,1.3,10313.240312354817,1.0,58720.08680108343,-6.937019494442979,8.038578575444689,113.27274087342641,58720.08680108343,-6.937019494442979,8.038578575444689,113.27274087342641,,,,,,,,,,,
1.5652365684509277,872.0338037478128,1623.908930765454,725.6672759617252,-0.09198556149781556,0.04230568942542061,3.117871420805592,5.4836273193359375e-05,2.5444095536997127,872.0332201051172,1623.8903673186958,10.848476102219102,3.1174528180643324,-0.10328380374781285,0.04484106923454601,0.5743327240382748,358.6408734766179,0.76875,1.66875,1.3,10313.240312354817,1.0,58844.25936793913,-7.267195861454924,5.8580734909829735,-13.619413334606165,58844.25936793913,-7.267195861454924,5.8580734909829735,-13.619413334606165,,,,,,,,,,,
1.570082426071167,871.9013681983149,1623.9947351584603,725.6794655476615,-0.09096037949312312,0.04591475641649225,3.1152562996621755,5.507469177246094e-05,2.5582354704802923,871.9013681983149,1623.9947351584603,11.909609611103866,3.1152562996621755,-0.10315136819831491,0.04475526484153965,0.5743205344523385,358.4910380721847,0.76875,1.66875,1.3,10313.240312354817,1.0,58682.939857987694,-7.158592770555813,5.061189735929184,-67.39194739760248,58682.939857987694,-7.158592770555813,5.061189735929184,-67.39194739760248,53.90625,-8.375,-0.041748046875,0.016754150390625,1.10546875,0.1138916015625,0.017791748046875,0.478759765625,17.0,0.0,0.0
1.572916030883789,871.7704959079543,1624.009766583535,725.603927925751,-0.09474177684587085,0.04863233109289197,3.113467503708684,6.580352783203125e-05,2.5655113270730516,871.9013681983149,1623.9947351584603,11.909609611103866,3.1152562996621755,-0.10302049590795434,0.04474023341646489,0.574396072074249,358.3885476136396,0.76875,1.66875,1.3,10313.240312354817,1.0,59217.90440536952,-7.688408509397826,4.632952820320356,-81.81653909027028,59217.90440536952,-7.688408509397826,4.632952820320356,-81.81653909027028,,,,,,,,,,,
1.5748651027679443,871.818269771347,1624.111998206943,725.7272559889863,-0.0902406962776739,0.043479588182799615,3.1133360545263145,7.081031799316406e-05,2.570891886519788,871.9013681983149,1623.9947351584603,11.909609611103866,3.1152562996621755,-0.10306826977134699,0.0446380017930569,0.5742727440110137,358.38101613026936,0.76875,1.66875,1.3,10313.240312354817,1.0,57630.40113640054,-5.621530447352161,5.527231172909784,-29.97789708701555,57630.40113640054,-5.621530447352161,5.527231172909784,-29.97789708701555,,,,,,,,,,,
1.5781896114349365,871.9527715529784,1623.9132917029426,725.6261322120847,-0.09416415110692164,0.045831130589159205,3.1159099855075696,6.198883056640625e-05,2.5801622954757506,871.9527715529784,1623.9132917029426,12.762021113143577,3.1159099855075696,-0.10320277155297845,0.04483670829705738,0.5743738677879153,358.52849151225325,0.76875,1.66875,1.3,10313.240312354817,1.0,59311.585447571095,-7.807417755430877,7.336957436400485,42.10186962907957,59311.585447571095,-7.807417755430877,7.336957436400485,42.10186962907957,89.875,-35.375,-0.06976318359375,0.035797119140625,1.2275390625,0.2210693359375,0.026947021484375,0.5732421875,17.0,0.0,0.0
1.583113431930542,871.9491326231058,1623.9850518529634,725.7367184723448,-0.08782159155295635,0.04175887662244646,3.114252217052228,6.747245788574219e-05,2.5928343213616354,871.9527715529784,1623.9132917029426,12.762021113143577,3.1159099855075696,-0.10319913262310582,0.044764948147036646,0.5742632815276552,358.4335083763523,0.76875,1.66875,1.3,10313.240312354817,1.0,58321.21059461641,-6.745612775932827,5.360400381149178,-53.38395701353073,58321.21059461641,-6.745612775932827,5.360400381149178,-53.38395701353073,,,,,,,,,,,
1.5850768089294434,872.0584199114467,1623.9027785127787,725.6907011096587,-0.09165343017075307,0.04124383292086804,3.118285309391935,6.890296936035156e-05,2.598000677309374,871.9527715529784,1623.9132917029426,12.762021113143577,3.1159099855075696,-0.10330841991144667,0.044847221487221305,0.5743092988903413,358.664587545804,0.76875,1.66875,1.3,10313.240312354817,1.0,59188.35492686458,-7.205966559539193,7.3176160304064926,156.57527906681187,59188.35492686458,-7.205966559539193,7.3176160304064926,156.57527906681187,,,,,,,,,,,
1.5879359245300293,871.9074306765069,1624.017115275599,725.6800977749248,-0.0909910820745234,0.044482851032357426,3.1126180806951824,0.00013256072998046875,2.6058740675407597,871.9074306765069,1624.017115275599,14.218656945247966,3.1126180806951824,-0.10315743067650691,0.04473288472440095,0.5743199022250752,358.33987925994467,0.76875,1.66875,1.3,10313.240312354817,1.0,58749.59996193884,-6.834018802249034,3.8304710706006135,-186.50990328653427,58749.59996193884,-6.834018802249034,3.8304710706006135,-186.50990328653427,106.125,-64.8125,-0.05181884765625,-0.019622802734375,1.3056640625,0.305908203125,0.04180908203125,0.71728515625,21.0,0.0,0.0
1.5949428081512451,871.925740060185,1623.999198787627,725.6811956560783,-0.09062662800389946,0.04303642450117815,3.114668021593015,8.988380432128906e-05,2.623517890328661,871.9074306765069,1624.017115275599,14.218656945247966,3.1126180806951824,-0.10317574006018504,0.04475080121237306,0.5743188043439217,358.4573322216417,0.76875,1.66875,1.3,10313.240312354817,1.0,58725.90168313267,-7.008034269974483,5.449630591350289,2.5572340057570067,58725.90168313267,-7.008034269974483,5.449630591350289,2.5572340057570067,,,,,,,,,,,
1.5983586311340332,871.9236223817869,1623.9074265477097,725.5908599266995,-0.0962710134857229,0.04596628117210319,3.116010410948178,9.369850158691406e-05,2.63287225087246,871.9236223817869,1623.9074265477097,15.849840581365322,3.116010410948178,-0.10317362238178691,0.04484257345229025,0.5744091400733005,358.5342454661559,0.76875,1.66875,1.3,10313.240312354817,1.0,59161.314504447546,-7.45343934771329,5.542564841125635,8.994941591426784,59161.314504447546,-7.45343934771329,5.542564841125635,8.994941591426784,107.9375,-75.125,0.0003075599670410156,-0.0236053466796875,1.3115234375,0.314453125,0.0679931640625,0.853515625,21.0,0.0,0.0
1.6033124923706055,871.8467737201416,1624.000605172501,725.5829713652638,-0.0938868823404502,0.046647437992105814,3.1152254880697265,0.00013303756713867188,2.644615290500324,871.9236223817869,1623.9074265477097,15.849840581365322,3.116010410948178,-0.10309677372014164,0.044749394827498915,0.5744170286347362,358.4892726979773,0.76875,1.66875,1.3,10313.240312354817,1.0,58728.06667589858,-6.624896095953948,4.536437057455572,-36.99808673802973,58728.06667589858,-6.624896095953948,4.536437057455572,-36.99808673802973,,,,,,,,,,,
1.6063306331634521,871.9223260021114,1623.999066994776,725.6780617873545,-0.09104110541831295,0.04271317840462537,3.1160794952298234,9.942054748535156e-05,2.6520506591289488,871.9236223817869,1623.9074265477097,15.849840581365322,3.116010410948178,-0.10317232600211139,0.04475093300522394,0.5743219382126454,358.53820370392486,0.76875,1.66875,1.3,10313.240312354817,1.0,58181.7613253008,-6.521209924626337,5.667550298828898,2.4068845806773567,58181.7613253008,-6.521209924626337,5.667550298828898,2.4068845806773567,,,,,,,,,,,
1.6094930171966553,872.0136849289406,1623.9025152617291,725.6684628417831,-0.08885539450194072,0.04303577797033871,3.1179422326963797,8.678436279296875e-05,2.6603625482703004,872.0136849289406,1623.9025152617291,17.67637753916253,3.1179422326963797,-0.10326368492894061,0.04484748473827085,0.5743315371582168,358.6449306990994,0.76875,1.66875,1.3,10313.240312354817,1.0,58794.17083954344,-7.112570639206215,5.991465496940124,26.593686162742344,58794.17083954344,-7.112570639206215,5.991465496940124,26.593686162742344,105.1875,-86.1875,-0.00905609130859375,0.0003643035888671875,1.310546875,0.3037109375,0.0933837890625,1.0185546875,21.0,-5.0,-5.0
1.6140928268432617,871.8976856447722,1623.9842779996645,725.686570995399,-0.09033522923428343,0.04273477869436076,3.1153812826101372,0.0001010894775390625,2.6708132353984864,872.0136849289406,1623.9025152617291,17.67637753916253,3.1179422326963797,-0.1031476856447722,0.044765722000335476,0.5743134290046009,358.498199067614,0.76875,1.66875,1.3,10313.240312354817,1.0,58617.161359208694,-6.620639083478274,4.115449676872266,-73.13584043711751,58617.161359208694,-6.620639083478274,4.115449676872266,-73.13584043711751,,,,,,,,,,,
1.6167559623718262,872.0130996062361,1623.9036286739595,725.7124364239155,-0.090210881432157,0.04241673473197411,3.117643015456222,0.0001373291015625,2.6771365859961174,872.0136849289406,1623.9025152617291,17.67637753916253,3.1179422326963797,-0.1032630996062361,0.044846371326040524,0.5742875635760845,358.62778681408076,0.76875,1.66875,1.3,10313.240312354817,1.0,58579.2168176359,-6.873142356937288,6.257829175647532,52.31519321933273,58579.2168176359,-6.873142356937288,6.257829175647532,52.31519321933273,,,,,,,,,,,
1.6254644393920898,871.8938609723,1623.9939091030576,725.6929863287315,-0.09152499623297873,0.04299903281538097,3.115728276921403,0.00010585784912109375,2.697968963026924,871.8938609723,1623.9939091030576,19.931590197666385,3.115728276921403,-0.1031438609723,0.044756090896942394,0.5743070136712685,358.5180803771646,0.76875,1.66875,1.3,10313.240312354817,1.0,58727.76908086773,-6.5538022472773925,4.371465649621947,-40.58357630122596,58727.76908086773,-6.5538022472773925,4.371465649621947,-40.58357630122596,94.5,-99.1875,0.0034008026123046875,0.019317626953125,1.3359375,0.328369140625,0.128662109375,1.4599609375,15.0,0.0,5.0
1.6287386417388916,871.8909993920066,1624.0013702236708,725.626456379316,-0.09140868365777785,0.045318660099864995,3.1145103233429983,0.00010657310485839844,2.7048181403905716,871.8938609723,1623.9939091030576,19.931590197666385,3.115728276921403,-0.10314099939200662,0.04474862977632915,0.574373543620684,358.4482967774792,0.76875,1.66875,1.3,10313.240312354817,1.0,59071.78146669215,-6.461801599203096,4.650375826664025,-57.985046870696124,59071.78146669215,-6.461801599203096,4.650375826664025,-57.985046870696124,,,,,,,,,,,
1.6394665241241455,871.8923741552965,1624.0098899420918,725.6390034358109,-0.09369644619525486,0.045926446551731746,3.116112462849662,0.00013709068298339844,2.728548532265257,871.8938609723,1623.9939091030576,19.931590197666385,3.115728276921403,-0.10314237415529647,0.04474011005790817,0.5743609965641892,358.54009260940217,0.76875,1.66875,1.3,10313.240312354817,1.0,58673.231787658464,-6.426311706180575,4.592418550316558,-9.067759788633106,58673.231787658464,-6.426311706180575,4.592418550316558,-9.067759788633106,,,,,,,,,,,
1.647120475769043,871.9250901528418,1623.9839777540085,725.6735310039362,-0.08847567457240862,0.04579979146688436,3.114013166371506,0.00012421607971191406,2.7448499735238956,871.8938609723,1623.9939091030576,19.931590197666385,3.115728276921403,-0.10317509015284179,0.04476602224599151,0.5743264689960638,358.4198117812572,0.76875,1.66875,1.3,10313.240312354817,1.0,58612.654795309776,-6.328821304237313,4.607765037928924,-47.31115727745268,58612.654795309776,-6.328821304237313,4.607765037928924,-47.31115727745268,,,,,,,,,,,
1.6509058475494385,871.959538084671,1623.9866446883966,725.7508655520509,-0.08855361941864848,0.040952956612466763,3.1141275317161115,9.274482727050781e-05,2.7531194286133007,871.959538084671,1623.9866446883966,25.678064744564697,3.1141275317161115,-0.10320953808467095,0.044763355311603394,0.5742491344479491,358.4263644328256,0.76875,1.66875,1.3,10313.240312354817,1.0,58348.696081598886,-6.078453579470091,4.59896349761132,-21.131188233672475,58348.696081598886,-6.078453579470091,4.59896349761132,-21.131188233672475,68.8125,-103.0625,-0.004627227783203125,-0.06341552734375,1.4267578125,0.41162109375,0.2025146484375,2.0625,15.0,-4.0,-2.0
1.655808448791504,871.9225416593297,1623.9972605214743,725.6899919001849,-0.09107833911369076,0.04275930209865411,3.1152322579952965,0.00010395050048828125,2.7627596704465933,871.959538084671,1623.9866446883966,25.678064744564697,3.1141275317161115,-0.10317254165932968,0.044752739478525656,0.5743100080998151,358.4896605861401,0.76875,1.66875,1.3,10313.240312354817,1.0,58891.63163739177,-6.091826381901602,4.134918286365641,-2.6688947939851992,58891.63163739177,-6.091826381901602,4.134918286365641,-2.6688947939851992,,,,,,,,,,,
1.6583595275878906,872.0419794581936,1623.9017971109504,725.7190157240096,-0.08965883254720264,0.04170986726616633,3.119642112355785,0.0001373291015625,2.767894871520482,871.959538084671,1623.9866446883966,25.678064744564697,3.1141275317161115,-0.10329197945819363,0.044848202889049615,0.5742809842759904,358.7423266292634,0.76875,1.66875,1.3,10313.240312354817,1.0,58527.20806992645,-6.576569061845083,5.810314321119969,131.42678683656027,58527.20806992645,-6.576569061845083,5.810314321119969,131.42678683656027,,,,,,,,,,,
1.662045955657959,871.8209580148398,1623.9431426477072,725.7069422506515,-0.13378188604870228,0.03159173853562299,3.1065761514505965,8.559226989746094e-05,2.775561183272072,871.8209580148398,1623.9431426477072,27.670163956549995,3.1065761514505965,-0.10307095801483979,0.04480685735229281,0.5742930577493485,357.9937022141132,0.76875,1.66875,1.3,10313.240312354817,1.0,58710.16686856933,-6.278392104474285,2.771090706411046,-320.813408115569,58710.16686856933,-6.278392104474285,2.771090706411046,-320.813408115569,57.8125,-100.0,-0.009857177734375,-0.01276397705078125,1.4013671875,0.369140625,0.240234375,2.068359375,15.0,0.0,0.0
1.666654109954834,871.8944388304237,1623.8418844541964,725.5102617536395,-0.11075301735207545,0.05173771522098229,3.1226478752211193,0.00010585784912109375,2.7841813770610497,871.8209580148398,1623.9431426477072,27.670163956549995,3.1065761514505965,-0.10314443883042372,0.04490811554580364,0.5744897382463605,358.91454415566426,0.76875,1.66875,1.3,10313.240312354817,1.0,59455.95399284328,-6.325876215564481,4.830664536754037,295.57888033156667,59455.95399284328,-6.325876215564481,4.830664536754037,295.57888033156667,,,,,,,,,,,
1.6698715686798096,871.888818564511,1623.8699210182726,725.6352671072244,-0.09536434152065597,0.04264684845462385,3.112555703090905,9.918212890625e-05,2.7907005640174485,871.888818564511,1623.8699210182726,28.70588939204242,3.112555703090905,-0.10313881856451099,0.04488007898172736,0.5743647328927756,358.3363052864834,0.76875,1.66875,1.3,10313.240312354817,1.0,58037.58666159647,-5.673493506464962,4.061118176007134,-279.69699362768307,58037.58666159647,-5.673493506464962,4.061118176007134,-279.69699362768307,54.90625,-85.5625,-0.02337646484375,-0.022796630859375,1.3896484375,0.362548828125,0.3212890625,0.65234375,15.0,7.0,-21.0
1.6775741577148438,871.8190643446271,1624.0108965225288,725.7154658765431,-0.11087379013975437,0.03812680178107447,3.1163354238559458,0.00013709068298339844,2.8047428506095047,871.888818564511,1623.8699210182726,28.70588939204242,3.112555703090905,-0.10306906434462712,0.04473910347747119,0.5742845341234568,358.5528673340582,0.76875,1.66875,1.3,10313.240312354817,1.0,58465.936170781344,-5.392337043259278,3.730976009935203,21.475394442495727,58465.936170781344,-5.392337043259278,3.730976009935203,21.475394442495727,,,,,,,,,,,
1.6812727451324463,871.8816362296432,1623.9495573116915,725.7262691325303,-0.08765492207236238,0.042254057176106044,3.116147584386956,8.893013000488281e-05,2.811794265930062,871.8816362296432,1623.9495573116915,30.684762929800577,3.116147584386956,-0.10313163622964316,0.044800442688308524,0.5742737308674697,358.5421049252591,0.76875,1.66875,1.3,10313.240312354817,1.0,58629.35626265223,-5.919991040864181,4.60923082593243,-26.038863508007857,58629.35626265223,-5.919991040864181,4.60923082593243,-26.038863508007857,49.375,-65.375,-0.031036376953125,-0.04571533203125,1.365234375,0.334716796875,0.299560546875,0.199951171875,11.0,0.0,0.0
1.6869697570800781,871.8338879394104,1623.9987600634097,725.7152685300033,-0.09061351658064114,0.04175814681034828,3.1174027553523067,0.00010967254638671875,2.821620982232883,871.8816362296432,1623.9495573116915,30.684762929800577,3.116147584386956,-0.10308388793941037,0.04475123993659031,0.5742847314699967,358.6140209241411,0.76875,1.66875,1.3,10313.240312354817,1.0,58682.654016374094,-5.43135604768886,3.750538941586551,-1.282212538586844,58682.654016374094,-5.43135604768886,3.750538941586551,-1.282212538586844,,,,,,,,,,,
1.6895291805267334,871.7481276010949,1623.9869282577433,725.6519811320559,-0.09354830901815891,0.04579135343569824,3.1217945405533976,0.000370025634765625,2.826076935289206,871.8816362296432,1623.9495573116915,30.684762929800577,3.116147584386956,-0.10299812760109489,0.04476307174225667,0.5743480188679441,358.8656516806916,0.76875,1.66875,1.3,10313.240312354817,1.0,59078.09030244332,-5.9018533571666065,3.2074850120605882,131.3701752557714,59078.09030244332,-5.9018533571666065,3.2074850120605882,131.3701752557714,,,,,,,,,,,
1.698108434677124,871.6688816083597,1624.0879566518072,725.8041080488904,-0.09530933104897951,0.0384164706157529,3.123687122186815,0.0001571178436279297,2.840988810982697,871.6688816083597,1624.0879566518072,34.94173892102609,3.123687122186815,-0.1029188816083597,0.04466204334819281,0.5741958919511096,358.9740886206704,0.76875,1.66875,1.3,10313.240312354817,1.0,58343.95262444326,-5.207351746040131,3.64357125896336,3.1425322613306044,58343.95262444326,-5.207351746040131,3.64357125896336,3.1425322613306044,31.640625,-37.3125,0.0019054412841796875,-0.0160675048828125,1.365234375,0.345703125,0.397705078125,3.83203125,11.0,0.0,0.0
1.7009167671203613,871.5557856422303,1624.1804792099656,725.9973636914472,-0.09369951209069483,0.035903935707194475,3.127217976376653,0.00010323524475097656,2.845310901337175,871.6688816083597,1624.0879566518072,34.94173892102609,3.123687122186815,-0.10280578564223027,0.0445695207900344,0.5740026363085529,359.17639166382423,0.76875,1.66875,1.3,10313.240312354817,1.0,57346.37256163706,-4.749562111856562,2.5712010552109863,103.99843868974594,57346.37256163706,-4.749562111856562,2.5712010552109863,103.99843868974594,,,,,,,,,,,
1.7064223289489746,871.2359714327735,1624.45809203934,726.3969580345408,-0.09193997001865162,0.02850427060659156,3.1211067695016985,9.202957153320312e-05,2.8545077758754096,871.2359714327735,1624.45809203934,35.9408270834737,3.1211067695016985,-0.10248597143277345,0.04429190796065995,0.5736030419654592,358.826245302158,0.76875,1.66875,1.3,10313.240312354817,1.0,57386.29214150039,-4.423349772533962,2.1143034054842587,-110.18587196934419,57386.29214150039,-4.423349772533962,2.1143034054842587,-110.18587196934419,22.28125,-15.78125,0.00024580955505371094,-0.007389068603515625,1.314453125,0.278076171875,0.4814453125,3.783203125,11.0,0.0,-5.0
1.7096502780914307,871.1663367474658,1624.5112057120193,726.9521716103442,-0.09869165485703987,0.016025601180719627,3.1232012690690842,0.00010180473327636719,2.8594008721827358,871.2359714327735,1624.45809203934,35.9408270834737,3.1211067695016985,-0.10241633674746584,0.04423879428798068,0.5730478283896558,358.94625128756115,0.76875,1.66875,1.3,10313.240312354817,1.0,55530.65092371986,-4.854670015885798,3.1749221138474297,42.45539265631976,55530.65092371986,-4.854670015885798,3.1749221138474297,42.45539265631976,,,,,,,,,,,
1.7119979858398438,871.1466593135312,1624.6014596959697,727.7905710570873,-0.10904397143547537,-0.00013192271371795198,3.1149816986104906,7.796287536621094e-05,2.8630072850887305,871.2359714327735,1624.45809203934,35.9408270834737,3.1211067695016985,-0.10239665931353124,0.04414854030403035,0.5722094289429127,358.4753045908733,0.76875,1.66875,1.3,10313.240312354817,1.0,52336.57053878873,-4.168293157065544,3.3494851524206934,-330.54856411270765,52336.57053878873,-4.168293157065544,3.3494851524206934,-330.54856411270765,,,,,,,,,,,
1.7172715663909912,870.8504257470597,1625.0608660817434,729.1672590100573,-0.10017159648433342,-0.018179506179369562,3.1121928833077046,8.96453857421875e-05,2.8714241787489247,870.8504257470597,1625.0608660817434,40.26987772037814,3.1121928833077046,-0.10210042574705971,0.04368913391825663,0.5708327409899427,358.31551724418216,0.76875,1.66875,1.3,10313.240312354817,1.0,54214.36962955377,-3.2787733585457435,1.8808674586513954,-68.93205743699417,54214.36962955377,-3.2787733585457435,1.8808674586513954,-68.93205743699417,11.7734375,2.400390625,-8.52346420288086e-06,0.0159149169921875,1.291015625,0.259521484375,0.47021484375,3.033203125,33.0,0.0,0.0
1.7203567028045654,870.5194817471786,1625.345844444568,730.5229494964789,-0.15221059379119226,-0.031733257790383676,3.129288735033877,0.000110626220703125,2.875777547612874,870.8504257470597,1625.0608660817434,40.26987772037814,3.1121928833077046,-0.10176948174717859,0.043404155555432,0.5694770505035212,359.2950373952733,0.76875,1.66875,1.3,10313.240312354817,1.0,50475.93277991824,-3.2163232964134454,0.2585173334014286,496.3440384896269,50475.93277991824,-3.2163232964134454,0.2585173334014286,360,,,,,,,,,,,
1.7250075340270996,870.0570535530495,1625.903645602547,732.5202702256607,-0.14447330966051855,-0.05954962943157571,3.125772521662994,0.00012874603271484375,2.882626901100415,870.8504257470597,1625.0608660817434,40.26987772037814,3.1121928833077046,-0.10130705355304952,0.04284635439745307,0.5674797297743392,359.09357320925426,0.76875,1.66875,1.3,10313.240312354817,1.0,51045.3744325325,-2.4643034304813094,0.4568569300400376,-78.69002665138139,51045.3744325325,-2.4643034304813094,0.4568569300400376,-78.69002665138139,,,,,,,,,,,
1.7290616035461426,869.6804185651667,1625.9935318360504,734.8403069169805,-0.1803601286041004,-0.0794846591237222,-3.1408172916891295,0.00041413307189941406,3.0389247958909054,869.6804185651667,1625.9935318360504,44.739752642224374,-3.1408172916891295,-0.10093041856516674,0.04275646816394965,0.5651596930830195,0.044424964503264164,0.76875,1.66875,1.3,10313.240312354817,1.0,73218.20797546388,-92.46791063566917,-18.278952791257492,299.8981662178432,65535,-40,-18.278952791257492,299.8981662178432,-4.8515625,17.875,-0.01296234130859375,0.01255035400390625,1.279296875,0.25244140625,0.5185546875,4.6953125,33.0,5.0,15.0
1.7314412593841553,868.8098649105053,1626.7322661222772,737.8536079423452,-0.17992674053484584,-0.11054671927860847,3.1267396769653253,0.00011110305786132812,3.0413041253985362,869.6804185651667,1625.9935318360504,44.739752642224374,-3.1408172916891295,-0.10005986491050532,0.04201773387772278,0.5621463920576548,359.1489871262115,0.76875,1.66875,1.3,10313.240312354817,1.0,27801.359110681595,4.903599590243017,-11.625861344538759,-813.7900417272743,27801.359110681595,4.903599590243017,-11.625861344538759,-360,,,,,,,,,,,
1.7380614280700684,867.9550042886822,1627.42049011743,740.4239412132448,-0.21154068648486354,-0.14400291967003107,3.128107974648661,9.131431579589844e-05,3.0503069263676528,869.6804185651667,1625.9935318360504,44.739752642224374,-3.1408172916891295,-0.09920500428868217,0.041329509882569934,0.5595760587867552,359.2273848085842,0.76875,1.66875,1.3,10313.240312354817,1.0,51510.97432543044,-2.5652073845984553,-0.6365788088782782,6.207473162485151,51510.97432543044,-2.5652073845984553,-0.6365788088782782,6.207473162485151,,,,,,,,,,,
1.740372657775879,866.8244907796653,1628.5879799181591,743.4345967066268,-0.24063256856251541,-0.16398679834125407,3.1144504892752725,8.177757263183594e-05,3.0533143320904803,869.6804185651667,1625.9935318360504,44.739752642224374,-3.1408172916891295,-0.09807449077966532,0.04016202008184087,0.5565654032933731,358.4448685379274,0.76875,1.66875,1.3,10313.240312354817,1.0,35990.11084386731,7.282772533082445,-10.947250688645385,-533.9759384409267,35990.11084386731,7.282772533082445,-10.947250688645385,-360,,,,,,,,,,,
1.746950387954712,865.6869103849825,1629.3777446515476,747.6811894382463,-0.24468995990367606,-0.10268534270453741,3.130082693131803,8.130073547363281e-05,3.0615400883043105,869.6804185651667,1625.9935318360504,44.739752642224374,-3.1408172916891295,-0.09693691038498252,0.03937225534845243,0.5523188105617537,359.3405278433947,0.76875,1.66875,1.3,10313.240312354817,1.0,46924.35288399914,-1.7950897574952691,-1.776016667699908,194.43008710369295,46924.35288399914,-1.7950897574952691,-1.776016667699908,194.43008710369295,,,,,,,,,,,
1.749239444732666,864.0727668947625,1630.84471481735,751.4660458428389,-0.30302286769848574,-0.11775517857082192,3.123788982434708,7.534027099609375e-05,3.0642792432126407,869.6804185651667,1625.9935318360504,44.739752642224374,-3.1408172916891295,-0.09532276689476248,0.03790528518265,0.5485339541571611,358.9799247829748,0.76875,1.66875,1.3,10313.240312354817,1.0,30100.842495845587,10.87902942390459,-16.644589218176826,-251.72445965355453,30100.842495845587,10.87902942390459,-16.644589218176826,-251.72445965355453,,,,,,,,,,,
1.7515082359313965,862.6367218783532,1632.1863162215382,756.0942130493688,-0.28117115589557645,-0.14898233246678033,3.1291668914848336,0.00010085105895996094,3.0669328527474877,869.6804185651667,1625.9935318360504,44.739752642224374,-3.1408172916891295,-0.09388672187835323,0.036563683778461836,0.5439057869506312,359.28805627415227,0.76875,1.66875,1.3,10313.240312354817,1.0,23237.230134268528,9.945602572952776,-14.627197026001314,193.04044467526268,23237.230134268528,9.945602572952776,-14.627197026001314,193.04044467526268,,,,,,,,,,,
1.7550435066223145,861.2159418859187,1634.054438609415,761.6106498004366,-0.22387375096808854,-0.19470369641417332,3.1161124209905062,0.00010824203491210938,3.0712203754996383,861.2159418859187,1634.054438609415,57.29041708361038,3.1161124209905062,-0.09246594188591871,0.034695561390585,0.5383893501995634,358.54009021104923,0.76875,1.66875,1.3,10313.240312354817,1.0,32873.7980111207,8.155748012122137,-7.7240317083248655,-318.2333808081892,32873.7980111207,8.155748012122137,-7.7240317083248655,-318.2333808081892,-20.859375,48.0,-0.0082855224609375,-0.049896240234375,1.298828125,0.282958984375,0.62109375,4.6875,33.0,-1.0,0.0
1.7590374946594238,858.8915484765639,1635.4938975942323,765.3982312453031,-0.25748003488443927,-0.17768086303667216,3.13098515156765,9.322166442871094e-05,3.0755085745402098,858.8915484765639,1635.4938975942323,60.36866107024541,3.13098515156765,-0.09014154847656392,0.03325610240576771,0.5346017687546969,359.39223490295467,0.76875,1.66875,1.3,10313.240312354817,1.0,41293.54013946674,4.7086901647167405,-13.074865426583699,315.8262979401388,41293.54013946674,4.7086901647167405,-13.074865426583699,315.8262979401388,-23.625,58.8125,-0.039764404296875,-0.040924072265625,1.2861328125,0.253173828125,0.62890625,4.21875,67.0,0.0,0.0
1.7635517120361328,856.4712672828887,1637.9647875049748,771.2645680319359,-0.28741648267531517,-0.1370948212166405,3.1191146588780962,9.894371032714844e-05,3.080039587595744,858.8915484765639,1635.4938975942323,60.36866107024541,3.13098515156765,-0.08772126728288868,0.030785212495025235,0.528735431968064,358.7121057711024,0.76875,1.66875,1.3,10313.240312354817,1.0,34582.91156841212,10.353903255956507,-12.527491852513938,-254.08016837759376,34582.91156841212,10.353903255956507,-12.527491852513938,-254.08016837759376,,,,,,,,,,,
1.7665820121765137,853.8959527676976,1640.0020444144059,776.1658808013,-0.2789906678160521,-0.12980664512291576,3.1229148677037375,8.845329284667969e-05,3.083239321549862,853.8959527676976,1640.0020444144059,65.19717882017777,3.1229148677037375,-0.08514595276769762,0.028747955585594127,0.5238341191987,358.92984169808,0.76875,1.66875,1.3,10313.240312354817,1.0,31518.919858196634,12.071966177940398,-19.12300810316858,86.36826129913793,31518.919858196634,12.071966177940398,-19.12300810316858,86.36826129913793,-32.90625,58.15625,-0.02667236328125,-0.041778564453125,1.265625,0.2578125,0.689453125,6.46484375,67.0,-13.0,5.0
1.7740774154663086,850.904781634754,1643.17413953612,782.4602778220997,-0.29851917673385847,-0.17968461082390708,3.116557519782969,0.00012350082397460938,3.090170132611644,853.8959527676976,1640.0020444144059,65.19717882017777,3.1229148677037375,-0.08215478163475405,0.02557586046387996,0.5175397221779003,358.5655924933237,0.76875,1.66875,1.3,10313.240312354817,1.0,42463.44234484614,7.709305906138376,-8.430313000599337,-96.0464184658625,42463.44234484614,7.709305906138376,-8.430313000599337,-96.0464184658625,,,,,,,,,,,
1.7777419090270996,848.2401733884709,1645.6467804024837,787.8027727973057,-0.28055441941343384,-0.19188408101389334,3.1127618177363017,9.036064147949219e-05,3.0935766589944866,848.2401733884709,1645.6467804024837,71.96850897117214,3.1127618177363017,-0.0794901733884709,0.023103219597516274,0.5121972272026943,358.34811478576046,0.76875,1.66875,1.3,10313.240312354817,1.0,33566.028082685,13.179096705893107,-16.117260219807306,-109.81565721391192,33566.028082685,13.179096705893107,-16.117260219807306,-109.81565721391192,-38.1875,60.125,-0.01366424560546875,-0.0350341796875,1.21484375,0.2088623046875,0.72021484375,5.54296875,67.0,14.0,4.0
1.7823727130889893,844.7574223884385,1648.3319794817703,793.5068180562462,-0.2902159057113973,-0.17388437854629632,3.1159107435555535,9.799003601074219e-05,3.097350552356552,848.2401733884709,1645.6467804024837,71.96850897117214,3.1127618177363017,-0.0760074223884385,0.020418020518229697,0.5064931819437538,358.52853494520343,0.76875,1.66875,1.3,10313.240312354817,1.0,35439.2888774044,12.27992035174006,-18.31609999719091,38.5704803511713,35439.2888774044,12.27992035174006,-18.31609999719091,38.5704803511713,,,,,,,,,,,
1.785477638244629,841.47726447721,1652.2054634085969,801.0967880027902,-0.18925002533204038,-0.21328420760633987,3.106676298618771,9.274482727050781e-05,3.099860226433562,848.2401733884709,1645.6467804024837,71.96850897117214,3.1127618177363017,-0.07272726447721004,0.01654453659140313,0.49890321199720983,357.9994402241798,0.76875,1.66875,1.3,10313.240312354817,1.0,15581.401006258164,29.146181391960262,-26.262919797472684,-285.91062274065575,15581.401006258164,29.146181391960262,-26.262919797472684,-285.91062274065575,,,,,,,,,,,
1.7890021800994873,837.734718504582,1655.8267605732206,807.9469098660718,-0.20210085355563126,-0.18696587097982906,3.107480259176643,7.796287536621094e-05,3.1027264504781282,837.734718504582,1655.8267605732206,78.3411618066603,3.107480259176643,-0.06898471850458202,0.012923239426779446,0.49205309013392823,358.04550377104084,0.76875,1.66875,1.3,10313.240312354817,1.0,25603.58826018695,22.589035419580245,-24.84975309674711,-10.585184480206067,25603.58826018695,22.589035419580245,-24.84975309674711,-10.585184480206067,-48.96875,57.3125,0.0038604736328125,0.01111602783203125,1.1689453125,0.1759033203125,0.74560546875,8.375,67.0,-20.0,22.0
1.7934458255767822,833.9576860478984,1659.3066543926766,814.9289602787776,-0.187063068114394,-0.17906493959932357,3.107320842689337,9.870529174804688e-05,3.1058894175253644,837.734718504582,1655.8267605732206,78.3411618066603,3.107480259176643,-0.0652076860478984,0.00944334560732341,0.4850710397212224,358.0363698791334,0.76875,1.66875,1.3,10313.240312354817,1.0,29033.00361548953,18.677870305050245,-21.246699525664305,-32.65373246350081,29033.00361548953,18.677870305050245,-21.246699525664305,-32.65373246350081,,,,,,,,,,,
1.7961750030517578,829.9160779302756,1663.2094181337393,821.971734615166,-0.16755286135410088,-0.15267639434850788,3.100842688785827,0.0004458427429199219,3.107820333660216,837.734718504582,1655.8267605732206,78.3411618066603,3.107480259176643,-0.061166077930275606,0.005540581866260709,0.47802826538483395,357.6651990014261,0.76875,1.66875,1.3,10313.240312354817,1.0,13018.19985141053,34.50933065275071,-37.41927949070113,-239.07699973715933,13018.19985141053,34.50933065275071,-37.41927949070113,-239.07699973715933,,,,,,,,,,,
1.8058664798736572,825.5562048955039,1667.1280389485764,829.2329067421138,-0.18284434915423167,-0.1568685928468506,3.1055001578644914,0.006432294845581055,3.1142527780570273,825.5562048955039,1667.1280389485764,91.33441686096415,3.1055001578644914,-0.05680620489550393,0.0016219610514235682,0.47076709325788624,357.93205232284623,0.76875,1.66875,1.3,10313.240312354817,1.0,43220.71723506309,8.964268656133187,-9.552948220634695,9.539704738536102,43220.71723506309,8.964268656133187,-9.552948220634695,9.539704738536102,-74.0625,66.0,-0.01291656494140625,0.00797271728515625,1.02734375,0.0196533203125,0.75048828125,6.80078125,100.0,-5.0,5.0
1.815412998199463,820.9849628758034,1670.9184313175858,835.3864748034232,-0.19668588140522045,-0.11575930276765128,3.113091745048922,0.007580280303955078,3.1196045802862886,825.5562048955039,1667.1280389485764,91.33441686096415,3.1055001578644914,-0.05223496287580338,-0.002168431317585828,0.4646135251965768,358.3670182283197,0.76875,1.66875,1.3,10313.240312354817,1.0,44456.24196038866,9.519117442066623,-10.819820051635993,45.08318539719485,44456.24196038866,9.519117442066623,-10.819820051635993,45.08318539719485,,,,,,,,,,,
1.8260271549224854,817.1903375061861,1675.1800939454495,842.8544717505671,-0.11162566824900257,-0.10756024310264696,3.1113150675343086,0.009119749069213867,3.124925708538177,817.1903375061861,1675.1800939454495,99.37820166787068,3.1113150675343086,-0.0484403375061861,-0.006430093945449471,0.4571455282494329,358.2652221051766,0.76875,1.66875,1.3,10313.240312354817,1.0,43526.761987421974,9.727596899178577,-7.331878076155035,-40.16110610257001,43526.761987421974,9.727596899178577,-7.331878076155035,-40.16110610257001,-94.9375,71.375,-0.0175933837890625,0.0251312255859375,0.9990234375,-0.00016415119171142578,0.76025390625,6.05859375,100.0,5.0,-2.0
