time,x_pos,y_pos,z_pos,x_rot,y_rot,z_rot,delta_time,z_filtered,x_pos_est,y_pos_est,z_pos_est,z_rot_est,x_error,y_error,z_error,yaw_error,x_setpoint,y_setpoint,z_setpoint,yaw_setpoint,vicon_available,thrust_cal,pitch_cal,roll_cal,yaw_cal,thrust_lim,pitch_lim,roll_lim,yaw_lim,gyro_x,gyro_y,acc_x,acc_y,acc_z,stateEstimate_az,stateEstimate_vz,stateEstimate_yaw,range_zrange,motion_deltaX,motion_deltaY
3.7405879497528076,987.939233415813,1714.209101461638,59.88096639188035,-0.034564905680804205,0.048524636741552225,1.5723740180409114,0.0009627342224121094,1.3448949637484933,987.939233415813,1714.209101461638,1.364673723094165,0.06268310546875,0.037060766584187034,0.010790898538361944,0.9401190336081197,360.09039504977136,1.025,1.725,1.0,15469.860468532228,1.0,-35837178.323594056,-277.8253481389605,154.3353178307665,52.284239371923505,10000,-40,40,52.284239371923505,-0.0904541015625,0.124755859375,0.048736572265625,-0.003826141357421875,1.001953125,0.002376556396484375,-0.010528564453125,0.06268310546875,14.0,0.0,0.0
3.743518829345703,988.0238082584735,1714.214899716492,59.90011800548241,-0.026608737807136254,0.044732726469680774,1.5704803382019792,0.0005335807800292969,1.3468983274096267,987.939233415813,1714.209101461638,1.364673723094165,0.06268310546875,0.036976191741526464,0.010785100283507973,0.9400998819945175,359.98189518725155,1.025,1.725,1.0,15469.860468532228,1.0,69409.85227528853,-0.836679356361747,-0.06778505173950578,-59.26069343642319,65535,-0.836679356361747,-0.06778505173950578,-59.26069343642319,,,,,,,,,,,
3.7450437545776367,987.9422731214157,1714.2112606359867,59.89152011501116,-0.032847440661374926,0.04705839694382861,1.5702212142508623,8.034706115722656e-05,1.3479887487340416,987.939233415813,1714.209101461638,1.364673723094165,0.06268310546875,0.037057726878584274,0.010788739364013282,0.9401084798849888,359.9670484784818,1.025,1.725,1.0,15469.860468532228,1.0,69641.66045587153,-2.6057462168351373,0.4370064919782709,-15.252910043471886,65535,-2.6057462168351373,0.4370064919782709,-15.252910043471886,,,,,,,,,,,
3.7469680309295654,987.9456164915612,1714.2254261794317,59.95391406851754,-0.033948954009691834,0.04928105180487999,1.570827510353415,0.0004172325134277344,1.3496290670788464,987.939233415813,1714.209101461638,1.364673723094165,0.06268310546875,0.03705438350843883,0.01077457382056832,0.9400460859314825,360.0017866862933,1.025,1.725,1.0,15469.860468532228,1.0,69062.77581031139,-1.4738889198020173,-0.015938360128603057,22.984143357959574,65535,-1.4738889198020173,-0.015938360128603057,22.984143357959574,,,,,,,,,,,
3.7498269081115723,988.0726322451621,1714.1646147222748,59.872196290389276,-0.024949999047870212,0.04194565304903567,1.5697412975183753,0.0002243518829345703,1.351433319631751,987.939233415813,1714.209101461638,1.364673723094165,0.06268310546875,0.03692736775483786,0.010835385277725209,0.9401278037096107,359.93955127519257,1.025,1.725,1.0,15469.860468532228,1.0,70082.81454686339,-0.27966560509581107,0.3973431245545345,-38.22576924251194,65535,-0.27966560509581107,0.3973431245545345,-38.22576924251194,,,,,,,,,,,
3.7512643337249756,988.0224241148284,1714.2142563936188,59.88185758082508,-0.03534120260940337,0.04973408548553903,1.5707536878624264,5.316734313964844e-05,1.35246733472637,987.939233415813,1714.209101461638,1.364673723094165,0.06268310546875,0.03697757588517163,0.010785743606381175,0.9401181424191749,359.99755696912655,1.025,1.725,1.0,15469.860468532228,1.0,69426.94698713694,-2.3822331900094484,-0.4522181778842994,60.939172604582744,65535,-2.3822331900094484,-0.4522181778842994,60.939172604582744,,,,,,,,,,,
3.753391981124878,988.0341213557481,1714.2272654084038,59.86508811275701,-0.030780114488683667,0.044030186431818365,1.5713324606545294,5.3882598876953125e-05,1.3540550628460766,988.0341213557481,1714.2272654084038,2.828123148747872,0.065185546875,0.036965878644251916,0.010772734591596191,0.940134911887243,360.03071820741104,1.025,1.725,1.0,15469.860468532228,1.0,69662.14323801595,-1.3878949475584115,-0.034766625275425955,23.13821567338292,65535,-1.3878949475584115,-0.034766625275425955,23.13821567338292,0.1605224609375,-0.10955810546875,0.048980712890625,-0.00231170654296875,0.99853515625,-0.0005006790161132812,-0.004367828369140625,0.065185546875,16.0,0.0,0.0
3.757286310195923,987.900455866564,1714.4050167310438,59.92455388974317,-0.041096845751257355,0.05251385202932766,1.5702054488732127,7.295608520507812e-05,1.3568285572929444,988.0341213557481,1714.2272654084038,2.828123148747872,0.065185546875,0.03709954413343598,0.010594983268956184,0.9400754461102568,359.96614518888003,1.025,1.725,1.0,15469.860468532228,1.0,69278.3518718573,-2.4333953722615638,-0.7163791484863055,-25.793084186779332,65535,-2.4333953722615638,-0.7163791484863055,-25.793084186779332,,,,,,,,,,,
3.759122848510742,987.9650782467367,1714.209106009233,59.914378239755266,-0.03263945210502095,0.04783720575477743,1.570536900350879,8.559226989746094e-05,1.3581828614721903,988.0341213557481,1714.2272654084038,2.828123148747872,0.065185546875,0.037034921753263346,0.010790893990767018,0.9400856217602448,359.9851359596637,1.025,1.725,1.0,15469.860468532228,1.0,69630.91673639268,-0.25953340997500374,2.1739087454607766,15.032350783040197,65535,-0.25953340997500374,2.1739087454607766,15.032350783040197,,,,,,,,,,,
3.761003017425537,988.0983616855336,1714.1149637727437,59.81059335189315,-0.0303187731819711,0.04465107739770053,1.5716090546737855,5.4836273193359375e-05,1.3595356004335188,988.0341213557481,1714.2272654084038,2.828123148747872,0.065185546875,0.03690163831446637,0.010885036227256251,0.9401894066481068,360.046565877353,1.025,1.725,1.0,15469.860468532228,1.0,70476.43516487625,0.2737269718728208,0.8549278376465805,50.07674601461118,65535,0.2737269718728208,0.8549278376465805,50.07674601461118,,,,,,,,,,,
3.762849807739258,987.947232841003,1714.2013702171998,59.92004269588011,-0.03369040926070192,0.048324882302112064,1.5723207588541648,5.173683166503906e-05,1.36086124461231,988.0341213557481,1714.2272654084038,2.828123148747872,0.065185546875,0.03705276715899697,0.010798629782800162,0.94007995730412,360.0873435231505,1.025,1.725,1.0,15469.860468532228,1.0,68538.10009380183,-3.4502135076926974,-0.5230321625422044,34.81554194463024,65535,-3.4502135076926974,-0.5230321625422044,34.81554194463024,,,,,,,,,,,
3.767472267150879,988.0047280030948,1714.3900709692934,59.906387801855885,-0.031695298411374154,0.04809096388250135,1.5675842099939619,5.435943603515625e-05,1.3642656397895703,988.0047280030948,1714.3900709692934,4.145255098788569,0.0650634765625,0.036995271996905214,0.010609929030706552,0.9400936121981441,359.81595926400337,1.025,1.725,1.0,15469.860468532228,1.0,69582.285952797,-1.3970990170845858,-0.8173238068416965,-89.63362037731862,65535,-1.3970990170845858,-0.8173238068416965,-89.63362037731862,0.0738525390625,0.1651611328125,0.04815673828125,-0.0004744529724121094,0.99951171875,0.0,-0.004398345947265625,0.0650634765625,16.0,0.0,0.0
3.769657850265503,987.9344208594284,1714.2131152381494,59.92052896502597,-0.03045840675631225,0.04402824876665776,1.5718893632948467,6.67572021484375e-05,1.3658210002422917,988.0047280030948,1714.3900709692934,4.145255098788569,0.0650634765625,0.03706557914057157,0.010786884761850616,0.940079471034974,360.0626263783009,1.025,1.725,1.0,15469.860468532228,1.0,69432.21415347263,-1.809064973245032,1.9988989196029348,173.89106136600398,65535,-1.809064973245032,1.9988989196029348,173.89106136600398,,,,,,,,,,,
3.771515130996704,988.0440995553504,1714.2265057692573,59.91835836315151,-0.02813090608865184,0.045026006185457504,1.5705113414652896,5.4836273193359375e-05,1.367158498918023,988.0047280030948,1714.3900709692934,4.145255098788569,0.0650634765625,0.036955900444649616,0.010773494230742699,0.9400816416368485,359.98367154339036,1.025,1.725,1.0,15469.860468532228,1.0,69545.92281441131,-0.24142753796073402,-0.3230600085332327,-64.58959910650132,65535,-0.24142753796073402,-0.3230600085332327,-64.58959910650132,,,,,,,,,,,
3.7738664150238037,988.027853675705,1714.2406847799002,59.90344575837511,-0.032901160429636096,0.048075092036529626,1.5713008323195454,5.4836273193359375e-05,1.3689141036290198,988.027853675705,1714.2406847799002,5.330703755558356,0.06463623046875,0.036972146324294956,0.010759315220099779,0.9400965542416249,360.0289060373034,1.025,1.725,1.0,15469.860468532228,1.0,69638.16526700345,-1.6452098100547656,-0.004477660455525667,28.557992984304867,65535,-1.6452098100547656,-0.004477660455525667,28.557992984304867,-1.1416015625,0.8583984375,0.057373046875,0.0036106109619140625,0.9912109375,-0.00829315185546875,-0.004489898681640625,0.06463623046875,16.0,0.0,0.0
3.776031255722046,987.9396403497236,1714.2606197013706,59.94114591445495,-0.0294112389473211,0.04588593393208478,1.5697860095016731,5.0067901611328125e-05,1.3704421595460206,988.027853675705,1714.2406847799002,5.330703755558356,0.06463623046875,0.03706035965027638,0.010739380298629385,0.940058854085545,359.94211308312924,1.025,1.725,1.0,15469.860468532228,1.0,69235.11153854383,-2.41333441884462,0.06814909965396843,-62.83540001913472,65535,-2.41333441884462,0.06814909965396843,-62.83540001913472,,,,,,,,,,,
3.7806968688964844,987.9832390251087,1714.073856476783,59.87123309893315,-0.027799879171024836,0.04579610106977048,1.5729732978778153,5.459785461425781e-05,1.3738504003790388,988.027853675705,1714.2406847799002,5.330703755558356,0.06463623046875,0.03701676097489132,0.01092614352321698,0.9401287669010668,360.1247312551733,1.025,1.725,1.0,15469.860468532228,1.0,69785.84985788172,-1.1101148241775354,0.8971208299631388,60.3081894275452,65535,-1.1101148241775354,0.8971208299631388,60.3081894275452,,,,,,,,,,,
3.782545328140259,988.0165607717414,1714.223682738126,59.85995829081236,-0.031028468776868337,0.0448725151267134,1.5704902723163043,4.649162292480469e-05,1.3752378380368733,988.027853675705,1714.2406847799002,5.330703755558356,0.06463623046875,0.03698343922825859,0.010776317261874056,0.9401400417091877,359.9824643700756,1.025,1.725,1.0,15469.860468532228,1.0,69640.40998714289,-1.4387489145376517,-1.6625678498446508,-112.06241589392347,65535,-1.4387489145376517,-1.6625678498446508,-112.06241589392347,,,,,,,,,,,
3.7865092754364014,987.8434396995045,1714.3876644401246,59.96411652505898,-0.03388445076469646,0.049690228277104176,1.5705368916467026,5.125999450683594e-05,1.378058896964387,988.027853675705,1714.2406847799002,5.330703755558356,0.06463623046875,0.037156560300495474,0.010612335559875419,0.9400358834749409,359.98513546095114,1.025,1.725,1.0,15469.860468532228,1.0,69086.7697631559,-2.6100168514014452,-0.6402885838912569,0.8094100144911391,65535,-2.6100168514014452,-0.6402885838912569,0.8094100144911391,,,,,,,,,,,
3.788865566253662,988.0465626344219,1714.2701222045391,59.88688976064375,-0.03344294437164344,0.046015929067761904,1.5685882866673029,5.245208740234375e-05,1.3798142587487665,988.0465626344219,1714.2701222045391,6.697702232767955,0.0670166015625,0.03695343736557811,0.01072987779546088,0.9401131102393563,359.8734886196934,1.025,1.725,1.0,15469.860468532228,1.0,70071.42942220403,0.5156702555341408,0.7611241986160926,-71.13583623562151,65535,0.5156702555341408,0.7611241986160926,-71.13583623562151,1.1669921875,-1.3857421875,0.0452880859375,-0.005458831787109375,0.97607421875,-0.0338134765625,0.005100250244140625,0.0670166015625,19.0,0.0,0.0
3.791707992553711,987.9376204092788,1714.2053739274681,59.86329810671786,-0.04034884098727653,0.05252488087866298,1.5734103684759544,5.3882598876953125e-05,1.3818733763796645,987.9376204092788,1714.2053739274681,7.927944919167456,0.056396484375,0.03706237959072121,0.010794626072531855,0.9401367018932821,360.1497735557959,1.025,1.725,1.0,15469.860468532228,1.0,69682.67992543013,-2.204051930686108,0.7179816464828082,148.29218550395007,65535,-2.204051930686108,0.7179816464828082,148.29218550395007,-0.378173828125,-2.892578125,0.032073974609375,0.0159149169921875,1.0009765625,0.0003764629364013672,0.0050506591796875,0.056396484375,19.0,0.0,0.0
3.7981488704681396,988.0256812317292,1714.2287475743228,59.84538212900819,-0.030981959732921657,0.04466071477885638,1.5703398580144396,0.00011587142944335938,1.3865154527348067,987.9376204092788,1714.2053739274681,7.927944919167456,0.056396484375,0.03697431876827079,0.010771252425677176,0.9401546178709919,359.9738462654003,1.025,1.725,1.0,15469.860468532228,1.0,69578.72059370531,-1.1992997320991368,-0.06271947534557576,-41.360541082955,65535,-1.1992997320991368,-0.06271947534557576,-41.360541082955,,,,,,,,,,,
3.8006205558776855,987.9555846067906,1714.204462302517,59.85737640382244,-0.03680322330400116,0.05014493208436682,1.5712610035411099,0.0002906322479248047,1.3882986994206419,987.9376204092788,1714.2053739274681,7.927944919167456,0.056396484375,0.03704441539320942,0.010795537697483041,0.9401426235961776,360.0266240163959,1.025,1.725,1.0,15469.860468532228,1.0,69456.00030438448,-2.046095286171517,0.3892821250647849,32.524834139863415,65535,-2.046095286171517,0.3892821250647849,32.524834139863415,,,,,,,,,,,
3.802677631378174,988.0196208022214,1714.2483650664374,59.930894753755545,-0.028069471255106886,0.042993989019118675,1.5699618815575025,7.915496826171875e-05,1.3897781997063632,987.9376204092788,1714.2053739274681,7.927944919167456,0.056396484375,0.03698037919777857,0.010751634933562628,0.9400691052462444,359.9521898096625,1.025,1.725,1.0,15469.860468532228,1.0,68918.17971336015,-0.8934895077064863,-0.5160708043419424,-55.17691986958873,65535,-0.8934895077064863,-0.5160708043419424,-55.17691986958873,,,,,,,,,,,
3.8091158866882324,987.983211546768,1714.3005474804224,59.828795650468294,-0.03189524427022158,0.04404349445737078,1.569035918347997,7.62939453125e-05,1.3944030095631923,987.9376204092788,1714.2053739274681,7.927944919167456,0.056396484375,0.03701678845323204,0.010699452519577561,0.9401712043495317,359.8991360257735,1.025,1.725,1.0,15469.860468532228,1.0,69804.80108154588,-1.6289306180057226,-0.0931706255237017,-13.874929428268299,65535,-1.6289306180057226,-0.0931706255237017,-13.874929428268299,,,,,,,,,,,
3.8117170333862305,987.9476951105769,1714.4026752755678,59.9053780472835,-0.03584419991395641,0.04721491985981191,1.5694193594254398,8.034706115722656e-05,1.3963328498980898,987.9476951105769,1714.4026752755678,9.035231509374125,0.03973388671875,0.03705230488942311,0.010597324724432155,0.9400946219527164,359.9211055812029,1.025,1.725,1.0,15469.860468532228,1.0,69053.801607529,-1.9009694548960399,-0.7066835597865534,11.0387511354621,65535,-1.9009694548960399,-0.7066835597865534,11.0387511354621,-1.4365234375,-0.9169921875,0.03741455078125,0.0098724365234375,0.9970703125,0.000850677490234375,0.004505157470703125,0.03973388671875,19.0,0.0,0.0
3.8184597492218018,988.0408760419012,1714.2708822780128,59.92003648101712,-0.029220997015670637,0.044946853367111884,1.56920055273273,0.0002617835998535156,1.4010706520254443,987.9476951105769,1714.4026752755678,9.035231509374125,0.03973388671875,0.03695912395809876,0.010729117721987223,0.9400799635189828,359.9085688811814,1.025,1.725,1.0,15469.860468532228,1.0,69491.61857202052,-1.0987875356479857,0.4249205099211442,-4.197684948051345,65535,-1.0987875356479857,0.4249205099211442,-4.197684948051345,,,,,,,,,,,
3.8210251331329346,988.0643550836863,1714.2479356463516,59.922537125977485,-0.03018220659630222,0.046558603539000674,1.5682981766543558,0.00030803680419921875,1.4028871571210673,987.9476951105769,1714.4026752755678,9.035231509374125,0.03973388671875,0.03693564491631366,0.010752064353648392,0.9400774628740226,359.85686654035703,1.025,1.725,1.0,15469.860468532228,1.0,69512.93772712677,-1.2413800413471512,0.21282207074036613,-32.403071320138345,65535,-1.2413800413471512,0.21282207074036613,-32.403071320138345,,,,,,,,,,,
3.82259202003479,987.8532110373455,1714.3699910483126,59.97475524900683,-0.040370054462978304,0.05369086951173705,1.5719035552603136,0.00010442733764648438,1.403994462803134,987.9476951105769,1714.4026752755678,9.035231509374125,0.03973388671875,0.037146788962654456,0.010630008951687387,0.9400252447509931,360.0634395180251,1.025,1.725,1.0,15469.860468532228,1.0,69016.7749136031,-4.6425183194073245,-1.130994700295043,198.8569985550212,65535,-4.6425183194073245,-1.130994700295043,198.8569985550212,,,,,,,,,,,
3.828035354614258,987.9918189648608,1714.253509750847,59.880679704690905,-0.031555547207735235,0.043700947177207655,1.5709388319710937,0.0003008842468261719,1.4078865455283784,987.9918189648608,1714.253509750847,9.631777502561686,0.0614013671875,0.03700818103513916,0.010746490249153112,0.9401193202953091,360.0081649451549,1.025,1.725,1.0,15469.860468532228,1.0,69818.113684074,-0.8596023693615208,0.4110685280167822,-14.867721224717815,65535,-0.8596023693615208,0.4110685280167822,-14.867721224717815,2.16015625,-4.3046875,0.0333251953125,-0.00145721435546875,0.9990234375,0.00030517578125,0.004817962646484375,0.0614013671875,15.0,0.0,0.0
3.8296687602996826,988.0083870156654,1714.2504772004836,59.88595243697788,-0.03219938252001603,0.04601709145649774,1.5708699802400705,0.00010085105895996094,1.40896715427575,987.9918189648608,1714.253509750847,9.631777502561686,0.0614013671875,0.03699161298433455,0.010749522799516398,0.9401140475630222,360.00422003155506,1.025,1.725,1.0,15469.860468532228,1.0,69472.3838867798,-1.232412428944419,0.05635423851052468,-3.7686047817311064,65535,-1.232412428944419,0.05635423851052468,-3.7686047817311064,,,,,,,,,,,
3.8318753242492676,987.9611797789315,1714.3863684909304,59.93582318419144,-0.03172899935628911,0.045887160624972584,1.5682056392633996,7.653236389160156e-05,1.4105060796460005,987.9918189648608,1714.253509750847,9.631777502561686,0.0614013671875,0.037038820221068476,0.010613631509069592,0.9400641768158086,359.85156453840807,1.025,1.725,1.0,15469.860468532228,1.0,69156.37124550286,-2.1426028497115723,-1.1988187545132027,-106.04507243761994,65535,-2.1426028497115723,-1.1988187545132027,-106.04507243761994,,,,,,,,,,,
3.838785171508789,987.9141957592964,1714.3744173610291,59.951391833275,-0.03637570868791297,0.04927864546386092,1.5704112608358853,0.00027298927307128906,1.4152962599406695,987.9918189648608,1714.253509750847,9.631777502561686,0.0614013671875,0.037085804240703624,0.010625582638970855,0.940048608166725,359.9779373457145,1.025,1.725,1.0,15469.860468532228,1.0,69493.05672867109,-1.6098060043639286,0.10345788405498291,27.089958849795448,65535,-1.6098060043639286,0.10345788405498291,27.089958849795448,,,,,,,,,,,
3.8410000801086426,987.9975179976477,1714.2690905653499,59.91611617470389,-0.028087617257011203,0.04390133749739496,1.5713303971540578,8.0108642578125e-05,1.4168364522439447,987.9918189648608,1714.253509750847,9.631777502561686,0.0614013671875,0.03700248200235228,0.01073090943465013,0.9400838838252961,360.030599977543,1.025,1.725,1.0,15469.860468532228,1.0,69796.23957970948,-0.5096636266400781,0.9320704219530247,35.728813479730626,65535,-0.5096636266400781,0.9320704219530247,35.728813479730626,,,,,,,,,,,
3.843384265899658,987.9380115739528,1714.233510452665,59.91919549573283,-0.03450462635799597,0.04795037305898005,1.570408984482544,7.510185241699219e-05,1.418539808508366,987.9380115739528,1714.233510452665,10.168626506589018,0.2249755859375,0.03706198842604715,0.010766489547334914,0.9400808045042671,359.9778069202754,1.025,1.725,1.0,15469.860468532228,1.0,69514.78090215268,-1.9317628757631926,0.43576355472553635,-32.14147663108663,65535,-1.9317628757631926,0.43576355472553635,-32.14147663108663,3.25390625,0.74560546875,0.04168701171875,-0.00304412841796875,0.9990234375,-0.005035400390625,0.0018901824951171875,0.2249755859375,15.0,0.0,0.0
3.8483190536499023,987.9497078359144,1714.2649893123605,59.909307098984364,-0.03999777672751632,0.05168241734485721,1.571032587478751,0.0003540515899658203,1.4218163928019505,987.9380115739528,1714.233510452665,10.168626506589018,0.2249755859375,0.03705029216408559,0.010735010687639487,0.9400906929010155,360.01353674004974,1.025,1.725,1.0,15469.860468532228,1.0,69566.02692010542,-1.4345179916597461,-0.0999171023755141,11.308855606369292,65535,-1.4345179916597461,-0.0999171023755141,11.308855606369292,,,,,,,,,,,
3.8498926162719727,987.8689239854474,1714.3742230065216,59.94351433499607,-0.04033456147948082,0.05466712714622964,1.5702701247126658,9.369850158691406e-05,1.422897658826888,987.9380115739528,1714.233510452665,10.168626506589018,0.2249755859375,0.03713107601455261,0.010625776993478438,0.940056485665004,359.9698508415172,1.025,1.725,1.0,15469.860468532228,1.0,69185.74580481462,-2.7672276180182105,-1.2571956009342267,-41.38267794879335,65535,-2.7672276180182105,-1.2571956009342267,-41.38267794879335,,,,,,,,,,,
3.8523144721984863,987.925371276757,1714.2020120358395,59.950777345040706,-0.03379398404420904,0.05017483942780147,1.57136790318718,8.702278137207031e-05,1.4245021301951881,987.9380115739528,1714.233510452665,10.168626506589018,0.2249755859375,0.03707462872324299,0.010797987964160484,0.9400492226549593,360.03274891494715,1.025,1.725,1.0,15469.860468532228,1.0,69480.05745377703,-0.7232517512787152,1.52865379420754,40.20625394392749,65535,-0.7232517512787152,1.52865379420754,40.20625394392749,,,,,,,,,,,
3.8560078144073486,988.0280989196015,1714.2434732705774,59.90778581895264,-0.033856243812482076,0.04780986987833256,1.5697422409968727,8.749961853027344e-05,1.4270565310064542,988.0280989196015,1714.2434732705774,10.65181523230793,0.38037109375,0.036971901080398537,0.010756526729422603,0.9400922141810473,359.9396053325286,1.025,1.725,1.0,15469.860468532228,1.0,69719.6295745708,-0.9155254124897699,-0.2689969657007041,-37.50630415227816,65535,-0.9155254124897699,-0.2689969657007041,-37.50630415227816,2.673828125,-8.5625,0.0294036865234375,-0.0015697479248046875,1.03125,0.0261077880859375,0.00469970703125,0.38037109375,15.0,0.0,0.0
3.8582000732421875,987.9338210553052,1714.4175067574113,59.94484408098609,-0.0354349024971202,0.049127228654937134,1.5692309458485383,0.00030612945556640625,1.428446806102472,988.0280989196015,1714.2434732705774,10.65181523230793,0.38037109375,0.0370661789446948,0.010582493242588725,0.9400551559190139,359.9103102784435,1.025,1.725,1.0,15469.860468532228,1.0,69252.77165416117,-2.684092972112646,-1.5763616780294638,-22.089132406793542,65535,-2.684092972112646,-1.5763616780294638,-22.089132406793542,,,,,,,,,,,
3.860306978225708,987.9237164398837,1714.2128955610651,59.987819446620904,-0.028699955976889943,0.045399960944995904,1.5724776821308957,0.0003058910369873047,1.4298223082048855,988.0280989196015,1714.2434732705774,10.65181523230793,0.38037109375,0.03707628356011628,0.010787104438934875,0.940012180553379,360.09633456461455,1.025,1.725,1.0,15469.860468532228,1.0,69184.29074283448,-1.2616568450329915,2.2004172631026435,137.3915408732888,65535,-1.2616568450329915,2.2004172631026435,137.3915408732888,,,,,,,,,,,
3.861882209777832,988.055538411987,1714.2105131631733,59.88406600080465,-0.030734902596892304,0.044933679111388264,1.5701779766935327,8.177757263183594e-05,1.430858831069594,988.0280989196015,1714.2434732705774,10.65181523230793,0.38037109375,0.03694446158801304,0.010789486836826654,0.9401159339991954,359.96457114893036,1.025,1.725,1.0,15469.860468532228,1.0,70648.12663443566,0.35007612603279226,-0.17000275080586447,-126.1540622836676,65535,0.35007612603279226,-0.17000275080586447,-126.1540622836676,,,,,,,,,,,
3.8684635162353516,987.942525645891,1714.231767990716,59.92358879186031,-0.03195581557613825,0.04789957602400949,1.5712139043791105,0.0002570152282714844,1.4351551238622025,988.0280989196015,1714.2434732705774,10.65181523230793,0.38037109375,0.03705747435410899,0.01076823200928402,0.9400764112081397,360.02392543319473,1.025,1.725,1.0,15469.860468532228,1.0,69432.16976090087,-1.8357652621404057,0.03267122302922976,13.87994992651084,65535,-1.8357652621404057,0.03267122302922976,13.87994992651084,,,,,,,,,,,
3.8705062866210938,988.0114692771405,1714.266736161622,59.917334229592434,-0.031046346393524694,0.045253792018083334,1.5698427678602098,8.130073547363281e-05,1.4364726040842901,988.0280989196015,1714.2434732705774,10.65181523230793,0.38037109375,0.036988530722859535,0.01073326383837798,0.9400826657704076,359.94536509752544,1.025,1.725,1.0,15469.860468532228,1.0,69579.62831297728,-0.7751359325801896,-0.4154098980855776,-58.566794854865485,65535,-0.7751359325801896,-0.4154098980855776,-58.566794854865485,,,,,,,,,,,
3.8729770183563232,987.9181166132769,1714.2376449159158,59.85579436011088,-0.038361841076542655,0.04966978529249005,1.570131449076673,7.534027099609375e-05,1.4381192712373134,987.9181166132769,1714.2376449159158,11.186696840565014,0.79833984375,0.03708188338672312,0.01076235508408422,0.9401442056398891,359.9619053128535,1.025,1.725,1.0,15469.860468532228,1.0,69949.03934625682,-2.2046113243932832,0.4025317870346841,9.11147138043994,65535,-2.2046113243932832,0.4025317870346841,9.11147138043994,10.0234375,-1.9150390625,0.04595947265625,0.01092529296875,1.0869140625,0.08551025390625,0.00402069091796875,0.79833984375,16.0,0.0,0.0
3.876962661743164,988.0343464934364,1714.1572142049579,59.85363630729087,-0.02345328719206246,0.0399287449340565,1.5703978959828646,7.867813110351562e-05,1.440598779539138,987.9181166132769,1714.2376449159158,11.186696840565014,0.79833984375,0.036965653506563625,0.010842785795042118,0.9401463636927091,359.9771715960426,1.025,1.725,1.0,15469.860468532228,1.0,69538.7495140596,-0.7479240024613536,0.4161603623728404,5.536691830558754,65535,-0.7479240024613536,0.4161603623728404,5.536691830558754,,,,,,,,,,,
3.8797695636749268,987.9361488303587,1714.2187592789276,59.87763184052758,-0.02813254354124624,0.04520127841714089,1.5704836712327608,0.0002684593200683594,1.4423695318566125,987.9181166132769,1714.2376449159158,11.186696840565014,0.79833984375,0.03706385116964134,0.010781240721072435,0.9401223681594725,359.9820861558483,1.025,1.725,1.0,15469.860468532228,1.0,69395.10227483218,-2.2650427949791703,-0.3172463138018917,2.3585110289633655,65535,-2.2650427949791703,-0.3172463138018917,2.3585110289633655,,,,,,,,,,,
3.882309675216675,987.9160613656335,1714.2362622215342,59.95303295028167,-0.03011436984270218,0.0473436102702536,1.5717167509559067,0.00030493736267089844,1.4439612317797155,987.9181166132769,1714.2376449159158,11.186696840565014,0.79833984375,0.03708393863436652,0.010763737778465838,0.9400469670497184,360.0527364197877,1.025,1.725,1.0,15469.860468532228,1.0,69027.13092014431,-1.638482326721594,-0.06972903187028023,42.49224030780321,65535,-1.638482326721594,-0.06972903187028023,42.49224030780321,,,,,,,,,,,
3.8839328289031982,987.9521447633679,1714.2170304017973,59.93551614514071,-0.03380111396298114,0.04891836575916376,1.5712863334452498,7.43865966796875e-05,1.4449703427398342,987.9181166132769,1714.2376449159158,11.186696840565014,0.79833984375,0.03704785523663213,0.010782969598202727,0.9400644838548593,360.02807531299857,1.025,1.725,1.0,15469.860468532228,1.0,69711.63984246881,-0.9343136058653777,0.25258794886626834,-22.459605930336483,65535,-0.9343136058653777,0.25258794886626834,-22.459605930336483,,,,,,,,,,,
3.8884124755859375,987.9934638087574,1714.221332315858,59.88205015511201,-0.0317051297319684,0.0458924031925214,1.570688178484996,7.987022399902344e-05,1.4477938716604357,987.9934638087574,1714.221332315858,11.668134737967236,1.048828125,0.03700653619124262,0.010778667684141964,0.9401179498448881,359.99380355828123,1.025,1.725,1.0,15469.860468532228,1.0,69729.37188943684,-1.252026007646013,0.01453542511707151,-11.330724123406197,65535,-1.252026007646013,0.01453542511707151,-11.330724123406197,11.4140625,-5.76171875,-0.01303863525390625,-0.0204620361328125,1.1240234375,0.12274169921875,0.007747650146484375,1.048828125,16.0,0.0,0.0
3.8909170627593994,988.0045017236112,1714.2664981741168,59.89094109576646,-0.030135298530034473,0.04478831268858046,1.5696952547485725,0.00026297569274902344,1.4492708721479268,987.9934638087574,1714.221332315858,11.668134737967236,1.048828125,0.036995498276388844,0.010733501825883195,0.9401090589042335,359.9369132188058,1.025,1.725,1.0,15469.860468532228,1.0,69469.79413755673,-1.3907300381449297,-0.3454494573397371,-35.89972629162621,65535,-1.3907300381449297,-0.3454494573397371,-35.89972629162621,,,,,,,,,,,
3.892970323562622,987.9824447990158,1714.3239566921511,59.92496655614911,-0.030177867301976552,0.045371931011003175,1.5685150281963431,7.796287536621094e-05,1.450515907873149,987.9934638087574,1714.221332315858,11.668134737967236,1.048828125,0.03701755520098425,0.010676043307848887,0.9400750334438509,359.8692912184938,1.025,1.725,1.0,15469.860468532228,1.0,69247.98912537031,-1.7521544373960147,-0.530760572798789,-52.12462648675301,65535,-1.7521544373960147,-0.530760572798789,-52.12462648675301,,,,,,,,,,,
3.8976879119873047,987.9371995741951,1714.2080273477409,59.88638687896835,-0.030485790115174386,0.04545330178178681,1.5720393329397502,0.0002796649932861328,1.4534088144892858,987.9371995741951,1714.2080273477409,12.101466356486018,1.3642578125,0.03706280042580488,0.010791972652259119,0.9401136131210317,360.07121900600896,1.025,1.725,1.0,15469.860468532228,1.0,69670.20286133476,-1.58081656804733,0.6070708108287419,63.9696957119584,65535,-1.58081656804733,0.6070708108287419,63.9696957119584,12.078125,-24.5625,0.00103759765625,-0.04949951171875,1.1845703125,0.1754150390625,0.01739501953125,1.3642578125,16.0,0.0,0.0
3.9002809524536133,987.9436298999278,1714.4021256980168,59.970214772632225,-0.033255257548318894,0.045981180920097314,1.5687384138463327,7.915496826171875e-05,1.4548954647562533,987.9371995741951,1714.2080273477409,12.101466356486018,1.3642578125,0.03705637010007217,0.010597874301983211,0.9400297852273678,359.882090273442,1.025,1.725,1.0,15469.860468532228,1.0,68967.73353192638,-1.578415819986407,-1.618630592537035,-115.13517593657097,65535,-1.578415819986407,-1.618630592537035,-115.13517593657097,,,,,,,,,,,
3.9017856121063232,987.9373687872541,1714.3788049679551,59.90011415387666,-0.038577696936493336,0.049038681194921614,1.5689496461771386,7.128715515136719e-05,1.455781214437474,987.9371995741951,1714.2080273477409,12.101466356486018,1.3642578125,0.037062631212745945,0.010621195032044853,0.9400998858461234,359.8941929944939,1.025,1.725,1.0,15469.860468532228,1.0,70328.54018306568,-1.4871426136565549,0.40753279427947803,10.537693799321067,65535,-1.4871426136565549,0.40753279427947803,10.537693799321067,,,,,,,,,,,
3.907262086868286,987.9575735873344,1714.2971545235876,59.91912780340668,-0.025666386364068455,0.03823078955120922,1.5697816231292918,0.0003032684326171875,1.4590331368428469,987.9575735873344,1714.2971545235876,12.491577887855598,1.69921875,0.03704242641266558,0.010702845476412448,0.9400808721965933,359.9418617625044,1.025,1.725,1.0,15469.860468532228,1.0,69472.3648121895,-1.3197617587502912,0.3728427171234546,11.968015340778429,65535,-1.3197617587502912,0.3728427171234546,11.968015340778429,22.5,-22.59375,0.0038242340087890625,-0.0220489501953125,1.25,0.2435302734375,0.03118896484375,1.69921875,16.0,0.0,0.0
3.908867597579956,988.0081697401969,1714.2764181533828,59.946524190816476,-0.02771362625695976,0.044557305764879124,1.5690647885778641,0.00010156631469726562,1.4599224198410445,987.9575735873344,1714.2971545235876,12.491577887855598,1.69921875,0.03699183025980312,0.010723581846617208,0.9400534758091835,359.9007901680984,1.025,1.725,1.0,15469.860468532228,1.0,69223.62578916377,-0.6889946409279525,0.28131100779809626,-41.50055519842821,65535,-0.6889946409279525,0.28131100779809626,-41.50055519842821,,,,,,,,,,,
3.9112720489501953,987.9454872127907,1714.2086061002044,59.878057904504516,-0.031027133855536758,0.04338243163024019,1.5688711989403943,0.0002598762512207031,1.461287688907266,987.9575735873344,1714.2971545235876,12.491577887855598,1.69921875,0.037054512787209316,0.010791393899795594,0.9401219420954955,359.8896982989139,1.025,1.725,1.0,15469.860468532228,1.0,70026.62810801297,-1.930633739851371,0.7508746875830609,-8.63641715531283,65535,-1.930633739851371,0.7508746875830609,-8.63641715531283,,,,,,,,,,,
3.913295030593872,988.0262155782527,1714.1817444997841,59.89106101086625,-0.022367077724864005,0.039728434205232664,1.568708887574467,7.367134094238281e-05,1.4624377785119334,987.9575735873344,1714.2971545235876,12.491577887855598,1.69921875,0.03697378442174727,0.010818255500215855,0.9401089389891337,359.8803985426793,1.025,1.725,1.0,15469.860468532228,1.0,69417.67065945563,-0.5339558450412056,0.26866428390690134,-8.705078694299345,65535,-0.5339558450412056,0.26866428390690134,-8.705078694299345,,,,,,,,,,,
3.9177839756011963,987.9829606692331,1714.2045555780128,59.90180908917796,-0.02757338207376942,0.045063923880936066,1.5693720988942077,7.724761962890625e-05,1.465014211069748,987.9829606692331,1714.2045555780128,12.942939143499567,2.037109375,0.03701703933076692,0.010795444421987214,0.940098190910822,359.91839775222576,1.025,1.725,1.0,15469.860468532228,1.0,69493.17940183595,-1.6434283361116258,-0.008253461908057314,11.228844442377252,65535,-1.6434283361116258,-0.008253461908057314,11.228844442377252,28.703125,-17.125,0.0163116455078125,-0.01058197021484375,1.28515625,0.276611328125,0.0528564453125,2.037109375,17.0,0.0,0.0
3.920081377029419,987.6480699644223,1713.917317233709,59.54853865719369,-0.03914221123038799,0.03444785818444305,1.5844892685846153,7.486343383789062e-05,1.4662417967413512,987.9829606692331,1714.2045555780128,12.942939143499567,2.037109375,0.03735193003557765,0.0110826827662911,0.9404514613428063,360.7845477736692,1.025,1.725,1.0,15469.860468532228,1.0,72336.34579262495,-4.41206922609835,3.2404401942620815,599.5521395163198,65535,-4.41206922609835,3.2404401942620815,360,,,,,,,,,,,
3.9227168560028076,987.761462848421,1714.3512867307534,59.9209132392768,-0.026812236325202226,0.04703791984765901,1.5680079767976782,7.963180541992188e-05,1.467745349708154,987.761462848421,1714.3512867307534,13.348993445494328,2.375,0.03723853715157895,0.010648713269246627,0.9400790867607232,359.84023931335406,1.025,1.725,1.0,15469.860468532228,1.0,67237.82493797663,-0.8939926727596181,-3.4533538676211366,-521.6757677422606,65535,-0.8939926727596181,-3.4533538676211366,-360,25.78125,-22.0,0.01425933837890625,-0.043792724609375,1.3779296875,0.3701171875,0.0784912109375,2.375,17.0,0.0,0.0
3.927389144897461,988.04397799121,1714.1753485832667,59.907549503724056,-0.029278465090903715,0.04411981741026916,1.5708392497187322,0.00028228759765625,1.4702380751566189,987.761462848421,1714.3512867307534,13.348993445494328,2.375,0.03695602200879,0.010824651416733331,0.9400924504962759,360.00245930238015,1.025,1.725,1.0,15469.860468532228,1.0,69576.95768876985,-0.003948283532537733,0.776901048431917,53.13782206838134,65535,-0.003948283532537733,0.776901048431917,53.13782206838134,,,,,,,,,,,
3.929584503173828,987.9901953945389,1714.2801072081077,59.8943511681408,0.010120020757813777,0.006111034978284673,1.5668947849023747,7.557868957519531e-05,1.4714310906473826,987.761462848421,1714.3512867307534,13.348993445494328,2.375,0.03700980460546111,0.010719892791892335,0.9401056488318592,359.776458115965,1.025,1.725,1.0,15469.860468532228,1.0,69640.39763147912,-2.0447335117228747,-0.8812085131527773,-156.0788554655403,65535,-2.0447335117228747,-0.8812085131527773,-156.0788554655403,,,,,,,,,,,
3.9319703578948975,988.2318275619067,1714.4000719432825,60.026188699335385,0.020459030489781312,0.0009955137523574209,1.565625912485113,7.891654968261719e-05,1.472734885279254,988.2318275619067,1714.4000719432825,13.715016365417942,2.701171875,0.0367681724380933,0.010599928056717545,0.9399738113006646,359.70375708171537,1.025,1.725,1.0,15469.860468532228,1.0,68610.7727953518,0.6201700256350253,-1.187825311738568,-49.02843353312103,65535,0.6201700256350253,-1.187825311738568,-49.02843353312103,19.859375,-27.453125,0.01459503173828125,-0.04046630859375,1.4296875,0.4267578125,0.1107177734375,2.701171875,17.0,0.0,0.0
3.9387264251708984,988.1651335802508,1714.4505483844596,59.99759080150974,0.0205560771287455,-0.003441175199662015,1.570302479282473,0.0002751350402832031,1.47622840213328,988.2318275619067,1714.4000719432825,13.715016365417942,2.701171875,0.03683486641974923,0.01054945161554042,0.9400024091984902,359.9717046218151,1.025,1.725,1.0,15469.860468532228,1.0,69603.06920918568,-1.6400489116225854,-0.057778116704091165,59.80566539516962,65535,-1.6400489116225854,-0.057778116704091165,59.80566539516962,,,,,,,,,,,
3.9412198066711426,987.7523100084227,1713.8916570629776,61.2644288406498,0.023640205562379186,0.054412164862352536,1.5930589800107455,8.034706115722656e-05,1.4775110234673998,988.2318275619067,1714.4000719432825,13.715016365417942,2.701171875,0.03724768999157732,0.011108342937022371,0.9387355711593502,361.2755560700315,1.025,1.725,1.0,15469.860468532228,1.0,60957.12471613972,-4.541074799720855,5.2891667619043865,803.7458725655089,60957.12471613972,-4.541074799720855,5.2891667619043865,360,,,,,,,,,,,
3.9427270889282227,988.1417852604352,1714.541458390607,60.12847635818036,0.02903857386642125,-0.003762512986447981,1.5817452945326145,7.462501525878906e-05,1.4782809288586285,988.2318275619067,1714.4000719432825,13.715016365417942,2.701171875,0.0368582147395648,0.010458541609393024,0.9398715236418196,360.62732964139616,1.025,1.725,1.0,15469.860468532228,1.0,82651.96362301912,3.307357174930436,-9.745805459230509,-635.3786804851907,65535,3.307357174930436,-9.745805459230509,-360,,,,,,,,,,,
3.9488515853881836,988.4088294208439,1714.3684318422265,60.05028723802411,0.022346631841165126,-0.0025646197055827053,1.5889656839146225,0.0002923011779785156,1.4814173193746794,988.4088294208439,1714.3684318422265,14.045391820966,2.998046875,0.03659117057915614,0.010631568157773472,0.9399497127619759,361.04102747942625,1.025,1.725,1.0,15469.860468532228,1.0,69735.91662888673,-0.4137649727973767,0.611338021276704,115.04095063059574,65535,-0.4137649727973767,0.611338021276704,115.04095063059574,15.0390625,-25.78125,0.010589599609375,-0.0221710205078125,1.455078125,0.456298828125,0.1236572265625,2.998046875,17.0,0.0,5.0
3.951537847518921,988.4604400918926,1714.4486892969867,60.40437890871195,0.025827676677084733,0.006020296859193482,1.593977517304056,0.0001385211944580078,1.4826991785603756,988.4088294208439,1714.3684318422265,14.045391820966,2.998046875,0.036539559908107436,0.010551310703013314,0.9395956210912881,361.32818438026356,1.025,1.725,1.0,15469.860468532228,1.0,67196.2337299063,-1.0189458849642898,-0.6061252050694352,185.82129708268113,65535,-1.0189458849642898,-0.6061252050694352,185.82129708268113,,,,,,,,,,,
3.9537136554718018,988.486636486647,1714.7297907752168,60.886969123151,0.018455736239567856,0.0030037370385323464,1.592671529241925,8.106231689453125e-05,1.4837568559590495,988.4088294208439,1714.3684318422265,14.045391820966,2.998046875,0.036513363513353055,0.010270209224783229,0.939113030876849,361.253356776209,1.025,1.725,1.0,15469.860468532228,1.0,65701.89407945618,-1.371402919542865,-2.760640856580159,-33.43828334297116,65535,-1.371402919542865,-2.760640856580159,-33.43828334297116,,,,,,,,,,,
3.958116054534912,989.111444344067,1714.7501849154332,61.3076129454156,0.00954001145801639,0.0031435840405203363,1.5997698369161268,0.00011420249938964844,1.4859506982465056,989.111444344067,1714.7501849154332,14.342580897826554,3.314453125,0.03588855565593303,0.010249815084566762,0.9386923870545844,361.6600598476261,1.025,1.725,1.0,15469.860468532228,1.0,67928.54549918658,1.5867757661359085,-0.25273961684717283,158.17630158363093,65535,1.5867757661359085,-0.25273961684717283,158.17630158363093,9.0234375,-21.125,-0.0023517608642578125,-0.034820556640625,1.4453125,0.44189453125,0.2080078125,3.314453125,17.0,-5.0,-16.0
3.961591958999634,988.9458882897651,1714.8916775563512,62.80523968238215,-0.01969217230345002,0.034842613672920575,1.6076429969577266,0.00010156631469726562,1.4875558534737325,989.111444344067,1714.7501849154332,14.342580897826554,3.314453125,0.036054111710234905,0.01010832244364883,0.9371947603176178,362.1111586894408,1.025,1.725,1.0,15469.860468532228,1.0,61795.782416845526,-2.518604126198604,-0.7386175877577819,235.20069323089925,61795.782416845526,-2.518604126198604,-0.7386175877577819,235.20069323089925,,,,,,,,,,,
3.964247226715088,989.5490228435461,1715.2481638764975,64.4039614065957,-0.05727774832768703,0.06319299789824318,1.6106609484270116,8.392333984375e-05,1.4888485316118973,989.5490228435461,1715.2481638764975,14.509501930648561,3.765625,0.03545097715645386,0.009751836123502472,0.9355960385934042,362.2840745714061,1.025,1.725,1.0,15469.860468532228,1.0,59477.9411416883,3.2019872897199395,-3.1352528391307453,129.2818769854455,59477.9411416883,3.2019872897199395,-3.1352528391307453,129.2818769854455,-0.5908203125,-2.478515625,0.01397705078125,-0.048370361328125,1.4609375,0.45947265625,0.212158203125,3.765625,16.0,-21.0,15.0
3.968566417694092,989.7200371034315,1715.595521071993,66.1743911573732,-0.06809156042594192,0.0784590917280559,1.6249378021330814,0.0003039836883544922,1.4908213078492665,989.5490228435461,1715.2481638764975,14.509501930648561,3.765625,0.03527996289656846,0.009404478928006938,0.9338256088426268,363.10207803348965,1.025,1.725,1.0,15469.860468532228,1.0,62220.04978083298,-0.5990491372511151,-1.7721741302901632,336.9946985273053,62220.04978083298,-0.5990491372511151,-1.7721741302901632,336.9946985273053,,,,,,,,,,,
3.9701194763183594,990.1792683176361,1715.7228058266012,68.64228241681107,-0.0350162299618798,0.052903231420350603,1.6277421599678206,0.00011134147644042969,1.491539852192084,989.5490228435461,1715.2481638764975,14.509501930648561,3.765625,0.03482073168236389,0.009277194173398812,0.9313577175831889,363.2627559016646,1.025,1.725,1.0,15469.860468532228,1.0,42313.64500533912,4.945083359639704,-2.205510346008331,204.12981531289432,42313.64500533912,4.945083359639704,-2.205510346008331,204.12981531289432,,,,,,,,,,,
3.97233247756958,990.5331184112271,1716.6284491569527,71.69186431028092,-0.0045427297171179385,0.0270286212773626,1.6292921430856135,7.343292236328125e-05,1.4925560544545986,989.5490228435461,1715.2481638764975,14.509501930648561,3.765625,0.03446688158877294,0.008371550843047316,0.928308135689719,363.3515633926307,1.025,1.725,1.0,15469.860468532228,1.0,45820.663383051826,1.4732586403882466,-9.105348088805238,110.63736855189148,45820.663383051826,1.4732586403882466,-9.105348088805238,110.63736855189148,,,,,,,,,,,
3.9771568775177,991.4091039526377,1716.8695343828622,74.83031796018528,-0.0007739251876134046,0.028894851736731796,1.6337593449670558,7.891654968261719e-05,1.4947991019373792,991.4091039526377,1716.8695343828622,14.661581946454474,4.296875,0.033590896047362324,0.008130465617137815,0.9251696820398146,363.6075152066702,1.025,1.725,1.0,15469.860468532228,1.0,58252.72660243183,2.5118245239867063,-1.3140114579388653,132.1429445147364,58252.72660243183,2.5118245239867063,-1.3140114579388653,132.1429445147364,-8.5,-4.5234375,0.0263214111328125,-0.0177001953125,1.4716796875,0.466064453125,0.2607421875,4.296875,16.0,-21.0,6.0
3.9799914360046387,992.2532682808124,1717.3971027163002,78.70557099152741,0.003815359715901802,0.03490033736657166,1.6424693401958388,0.0005671977996826172,1.49603735296949,991.4091039526377,1716.8695343828622,14.661581946454474,4.296875,0.03274673171918755,0.007602897283699804,0.9212944290084726,364.10656117285856,1.025,1.725,1.0,15469.860468532228,1.0,45315.45567409075,5.05028214969834,-4.572416196885433,331.218489576697,45315.45567409075,5.05028214969834,-4.572416196885433,331.218489576697,,,,,,,,,,,
3.9903738498687744,993.0794748018533,1717.7257858485502,82.71986292208139,0.002002081721737125,0.036381308982252614,1.646283244718514,0.008196115493774414,1.5007061268617305,993.0794748018533,1717.7257858485502,14.799241174566882,4.8828125,0.03192052519814672,0.007274214151449769,0.9172801370779187,364.3250818054737,1.025,1.725,1.0,15469.860468532228,1.0,62307.21379482292,0.47149971637840826,-0.7810043997989717,96.26895086139744,62307.21379482292,0.47149971637840826,-0.7810043997989717,96.26895086139744,-19.390625,-12.9453125,0.023773193359375,-0.0175933837890625,1.4814453125,0.481201171875,0.3408203125,4.8828125,16.0,-32.0,-20.0
3.999736785888672,994.0239062698055,1718.4854819712791,87.46350664240016,0.0024984361568525385,0.054097459662373434,1.6453055375915238,0.007540225982666016,1.504823434579439,994.0239062698055,1718.4854819712791,14.922423130586568,5.3125,0.03097609373019452,0.006514518028720886,0.9125364933575999,364.2690633134973,1.025,1.725,1.0,15469.860468532228,1.0,60129.50927529048,0.9089264884104058,-1.8931654033838459,55.09559107493368,60129.50927529048,0.9089264884104058,-1.8931654033838459,55.09559107493368,-37.5625,-27.796875,0.021148681640625,-0.0469970703125,1.427734375,0.427734375,0.39453125,5.3125,16.0,-5.0,-3.0
4.01037073135376,995.2775031641687,1718.9578700061788,92.36714697318371,0.019056252231081733,0.05681219363022329,1.6429933958635883,0.008916854858398438,1.509451455132131,995.2775031641687,1718.9578700061788,14.432195782626263,5.3828125,0.029722496835831294,0.006042129993821164,0.9076328530268163,364.1365873508505,1.025,1.725,1.0,15469.860468532228,1.0,60699.94273659175,1.3898235427059282,-1.1358704283028733,43.313327413094186,60699.94273659175,1.3898235427059282,-1.1358704283028733,43.313327413094186,-52.75,-45.0,0.0002460479736328125,-0.03509521484375,1.4150390625,0.409423828125,0.35546875,5.3828125,10.0,20.0,2.0
4.020402431488037,996.642096178895,1719.2372667378547,97.80258482455136,-0.01747769287832328,0.10921634961375373,1.6483473142892067,0.008475542068481445,1.5137546752725304,995.2775031641687,1718.9578700061788,14.432195782626263,5.3828125,0.02835790382110497,0.005762733262145275,0.9021974151754487,364.4433442804958,1.025,1.725,1.0,15469.860468532228,1.0,59099.58437443235,1.8874727966941292,-0.7964319938936091,112.95298145170955,59099.58437443235,1.8874727966941292,-0.7964319938936091,112.95298145170955,,,,,,,,,,,
4.0307841300964355,997.859982498498,1720.0649894117055,103.55542776501902,-0.005122627582444128,0.11578465343182141,1.6449689784714725,0.008652925491333008,1.51827524340563,997.859982498498,1720.0649894117055,13.995892154265668,6.171875,0.02714001750150203,0.004935010588294517,0.896444572234981,364.24977989636176,1.025,1.725,1.0,15469.860468532228,1.0,58885.61886340395,1.42283471743232,-1.886011739523113,36.00949753558765,58885.61886340395,1.42283471743232,-1.886011739523113,36.00949753558765,-53.8125,-59.90625,0.0142669677734375,-0.061279296875,1.369140625,0.365478515625,0.409423828125,6.171875,10.0,3.0,27.0
4.039688348770142,999.6674471654553,1720.5062378083394,109.81244673811483,0.01124974189640138,0.1274203699129178,1.6437656717453863,0.007361888885498047,1.5220733568963618,997.859982498498,1720.0649894117055,13.995892154265668,6.171875,0.025332552834544685,0.004493762191660608,0.8901875532618851,364.18083549949733,1.025,1.725,1.0,15469.860468532228,1.0,55996.37736555156,3.4531128771812662,-1.3518642670151135,50.9854685982494,55996.37736555156,3.4531128771812662,-1.3518642670151135,50.9854685982494,,,,,,,,,,,
4.050712823867798,1001.4499266106847,1721.2724934161033,116.21541165220982,-0.02248309061387165,0.1560948817212611,1.6520380149944252,0.00951838493347168,1.5268636291906554,1001.4499266106847,1721.2724934161033,16.407755479157814,5.89453125,0.023550073389315345,0.003727506583896684,0.8837845883477902,364.6548058543508,1.025,1.725,1.0,15469.860468532228,1.0,58095.32583019789,2.5305787580733714,-1.7100138699104956,133.58967400231052,58095.32583019789,2.5305787580733714,-1.7100138699104956,133.58967400231052,-49.71875,-58.28125,0.007343292236328125,-0.01343536376953125,1.3837890625,0.383056640625,0.478271484375,5.89453125,38.0,21.0,14.0
4.060373783111572,1003.2362052776288,1721.8872875385107,122.85475964973352,0.018846738211274073,0.13043089448423786,1.639296803657683,0.00803828239440918,1.5309936455791142,1003.2362052776288,1721.8872875385107,18.568438916111564,5.35546875,0.021763794722371246,0.003112712461489309,0.8771452403502665,363.9247882188712,1.025,1.725,1.0,15469.860468532228,1.0,55950.9236121677,3.1630254284902857,-1.6213129189192381,-54.75973199647943,55950.9236121677,3.1630254284902857,-1.6213129189192381,-54.75973199647943,-50.875,-46.4375,0.006389617919921875,-0.033111572265625,1.2919921875,0.287353515625,0.4873046875,5.35546875,38.0,5.0,0.0
4.07067608833313,1005.2501080358378,1722.935041767862,129.98400140185197,0.07657540545680354,0.09202673673142302,1.6266542149987078,0.008701801300048828,1.5353808944243201,1005.2501080358378,1722.935041767862,20.516048100305618,5.33203125,0.019749891964162204,0.0020649582321379967,0.870015998598148,363.200421246592,1.025,1.725,1.0,15469.860468532228,1.0,55685.35303353395,3.4406796829355573,-2.4615802186425184,-57.56546905936246,55685.35303353395,3.4406796829355573,-2.4615802186425184,-57.56546905936246,-49.4375,-28.03125,0.006618499755859375,-0.0491943359375,1.2548828125,0.25048828125,0.52099609375,5.33203125,38.0,25.0,-15.0
4.080145835876465,1007.4542576023266,1723.1911974982172,137.09755154075296,0.10581915597684251,0.07278953781413586,1.6355880518944936,0.007894277572631836,1.5393920228309224,1007.4542576023266,1723.1911974982172,22.27038626131322,3.2265625,0.017545742397673394,0.001808802501782793,0.862902448459247,363.71229239557874,1.025,1.725,1.0,15469.860468532228,1.0,54519.297488922995,4.378236155786077,-0.8408022907640988,136.52417837587365,54519.297488922995,4.378236155786077,-0.8408022907640988,136.52417837587365,-43.34375,-6.29296875,0.0021572113037109375,-0.03436279296875,1.2314453125,0.2215576171875,0.56494140625,3.2265625,38.0,20.0,3.0
4.0901618003845215,1010.1371778719229,1723.443634358227,145.36719434409696,0.15535755783398533,0.07190674379745599,1.6198794641420955,0.008433103561401367,1.5435661355456038,1010.1371778719229,1723.443634358227,23.84766779139526,3.564453125,0.014862822128077142,0.0015563656417730272,0.8546328056559029,362.8122566152555,1.025,1.725,1.0,15469.860468532228,1.0,52977.355703966954,5.258287261843995,-0.7948103546696403,-92.66089895132845,52977.355703966954,5.258287261843995,-0.7948103546696403,-92.66089895132845,-42.75,15.890625,0.0004246234893798828,-0.0452880859375,1.2451171875,0.227294921875,0.59423828125,3.564453125,38.0,0.0,2.0
4.1009228229522705,1012.2392168489112,1723.979474028544,152.33731697080447,0.13961701110708022,0.042866528751846496,1.6291549863681065,0.009182929992675781,1.5479674295433246,1012.2392168489112,1723.979474028544,29.671301268442456,3.109375,0.012760783151088844,0.0010205259714559816,0.8476626830291955,363.3437048915857,1.025,1.725,1.0,15469.860468532228,1.0,55778.29553391461,3.748962271596,-1.2622055693175562,124.21221796851069,55778.29553391461,3.748962271596,-1.2622055693175562,124.21221796851069,-40.5625,34.09375,0.0017042160034179688,-0.06280517578125,1.2431640625,0.2330322265625,0.638671875,3.109375,82.0,11.0,11.0
4.109925270080566,1014.9554009453941,1724.5839371000827,160.23735220317073,0.04284795645240757,0.10802386653462917,1.647745006766685,0.00741887092590332,1.5515551167789747,1014.9554009453941,1724.5839371000827,34.90785123504495,3.291015625,0.010044599054605896,0.00041606289991727864,0.8397626477968292,364.4088346014863,1.025,1.725,1.0,15469.860468532228,1.0,51617.57599819385,6.1819352108273415,-1.6785750039349752,244.34214868303133,51617.57599819385,6.1819352108273415,-1.6785750039349752,244.34214868303133,-34.375,52.5625,0.0178375244140625,-0.049530029296875,1.2734375,0.25732421875,0.66650390625,3.291015625,82.0,2.0,5.0
4.120593547821045,1018.003959175607,1725.140362212889,168.05927976157625,0.08358354179982508,0.05638236060025215,1.630827813636906,0.009098291397094727,1.5557215699265896,1018.003959175607,1725.140362212889,39.625955837763875,3.046875,0.006996040824393049,-0.00014036221288893103,0.8319407202384238,363.4395508339423,1.025,1.725,1.0,15469.860468532228,1.0,53896.501435131555,5.930968350550973,-1.3108999802253396,-84.63688169195302,53896.501435131555,5.930968350550973,-1.3108999802253396,-84.63688169195302,-27.859375,67.0625,0.0220489501953125,-0.03289794921875,1.2548828125,0.247802734375,0.69873046875,3.046875,82.0,7.0,0.0
4.129955291748047,1020.7525979241688,1725.4283207934984,176.5513241083891,0.05519680796640153,0.07822427010004508,1.633574821892144,0.007810831069946289,1.5592811894987277,1020.7525979241688,1725.4283207934984,43.87002049014962,2.91796875,0.004247402075831247,-0.0004283207934984148,0.823448675891611,363.596942813255,1.025,1.725,1.0,15469.860468532228,1.0,50676.851531485154,6.2162727600317655,-0.8120076401347127,79.18022648574606,50676.851531485154,6.2162727600317655,-0.8120076401347127,79.18022648574606,-13.8125,76.125,0.0218505859375,-0.06146240234375,1.2236328125,0.2237548828125,0.73779296875,2.91796875,82.0,6.0,-8.0
4.140356063842773,1023.2091670419534,1725.437112600783,184.96444326116114,0.05766257992635062,0.05810313009152553,1.644757070635656,0.008863687515258789,1.5631270431553823,1023.2091670419534,1725.437112600783,50.389623175477205,3.080078125,0.0017908329580466217,-0.0004371126007829389,0.8150355567388389,364.2376384717237,1.025,1.725,1.0,15469.860468532228,1.0,52072.8328792294,5.066192151297271,-0.10659462040024073,155.97633673671106,52072.8328792294,5.066192151297271,-0.10659462040024073,155.97633673671106,1.5126953125,83.9375,0.015838623046875,-0.05377197265625,1.203125,0.2039794921875,0.76171875,3.080078125,109.0,0.0,5.0
4.150437116622925,1026.5811857665828,1725.812458144203,193.30862872453372,0.06405288816590718,0.027473374101020333,1.630330236169261,0.008547544479370117,1.56675452014252,1026.5811857665828,1725.812458144203,56.2548046797501,3.349609375,-0.0015811857665828483,-0.0008124581442029922,0.8066913712754663,363.4110417450654,1.025,1.725,1.0,15469.860468532228,1.0,51610.6280065693,7.28955719182561,-0.8769950722860205,-71.38355224598823,51610.6280065693,7.28955719182561,-0.8769950722860205,-71.38355224598823,16.53125,84.4375,0.01201629638671875,-0.041534423828125,1.232421875,0.2283935546875,0.7822265625,3.349609375,109.0,-5.0,15.0
4.1606457233428955,1029.7704057022781,1725.9083723049052,202.12235568855672,0.05144548829228797,0.01490731344081655,1.624998380587658,0.008613109588623047,1.570265836502315,1026.5811857665828,1725.812458144203,56.2548046797501,3.349609375,-0.00477040570227814,-0.0009083723049052424,0.7978776443114433,363.10554892326627,1.025,1.725,1.0,15469.860468532228,1.0,50533.360879143554,7.017878549072483,-0.22946724238159544,1.2595851515197154,50533.360879143554,7.017878549072483,-0.22946724238159544,1.2595851515197154,,,,,,,,,,,
4.170520544052124,1033.1259934485695,1726.1442117685267,211.24029990537784,0.012546453704255823,0.03486614359233955,1.6214659900905142,0.008269786834716797,1.5736077740042274,1033.1259934485695,1726.1442117685267,61.544544532558646,2.59765625,-0.008125993448569489,-0.0011442117685267021,0.7887597000946222,362.9031578561878,1.025,1.725,1.0,15469.860468532228,1.0,49534.56730420261,7.600975151268057,-0.49765925979949116,13.073884695345033,49534.56730420261,7.600975151268057,-0.49765925979949116,13.073884695345033,41.53125,80.4375,0.0225982666015625,-0.04052734375,1.154296875,0.154052734375,0.830078125,2.59765625,109.0,6.0,7.0
4.180882453918457,1036.4417920107596,1726.0083441530464,220.51241193152714,-0.01277630388061517,0.05142970564758773,1.6127446683818065,0.008785247802734375,1.5769376470991352,1036.4417920107596,1726.0083441530464,69.50076264041697,2.435546875,-0.011441792010759627,-0.001008344153046437,0.7794875880684728,362.40346293050305,1.025,1.725,1.0,15469.860468532228,1.0,49578.74162881284,7.359298690154284,0.3515392140043633,-36.38270509938623,49578.74162881284,7.359298690154284,0.3515392140043633,-36.38270509938623,46.8125,71.75,0.0108184814453125,-0.045166015625,1.1875,0.17919921875,0.84814453125,2.435546875,141.0,-3.0,6.0
4.190412521362305,1039.6842171793012,1726.2167765424733,229.62236021595598,0.009308686490059209,0.009514246222905502,1.5971876059339196,0.007982730865478516,1.5798648826695125,1039.6842171793012,1726.2167765424733,76.65655824341451,1.9130859375,-0.014684217179301186,-0.0012167765424733262,0.770377639784044,361.51210891061766,1.025,1.725,1.0,15469.860468532228,1.0,48294.48081979753,7.908023169142067,-0.3692917797928178,-117.6425229950267,48294.48081979753,7.908023169142067,-0.3692917797928178,-117.6425229950267,50.625,64.75,0.033660888671875,-0.04559326171875,1.203125,0.210205078125,0.8583984375,1.9130859375,141.0,0.0,12.0
4.200788736343384,1043.1163328442235,1726.0135378024675,239.3569926048756,0.0014582298459299475,0.00889578881090294,1.5965813062432601,0.008827686309814453,1.5828933542738919,1043.1163328442235,1726.0135378024675,83.09677582041967,1.5888671875,-0.018116332844223506,-0.0010135378024674537,0.7606430073951244,361.4773704972228,1.025,1.725,1.0,15469.860468532228,1.0,48371.319838339885,7.785070488835659,0.574674063859234,17.159408757317028,48371.319838339885,7.785070488835659,0.574674063859234,17.159408757317028,46.78125,53.9375,0.0227203369140625,-0.02374267578125,1.158203125,0.158447265625,0.87939453125,1.5888671875,141.0,-5.0,11.0
4.210749864578247,1046.3005804125128,1725.9652341087285,248.8868188279127,0.01270670075372445,-0.020730307082324085,1.5875880563106315,0.008360147476196289,1.5855704970892484,1043.1163328442235,1726.0135378024675,83.09677582041967,1.5888671875,-0.021300580412512773,-0.0009652341087285094,0.7511131811720873,360.96209523197683,1.025,1.725,1.0,15469.860468532228,1.0,47492.91014116878,7.774054235624469,0.29467746974792947,-64.16033517966976,47492.91014116878,7.774054235624469,0.29467746974792947,-64.16033517966976,,,,,,,,,,,
4.2198851108551025,1049.868698595537,1725.5047774815791,259.13304597560494,-0.012290805712831223,0.01089762409927253,1.585081728499845,0.007571220397949219,1.5879068657405684,1049.868698595537,1725.5047774815791,88.9044450278793,0.85986328125,-0.0248686985955369,-0.0005047774815791399,0.740866954024395,360.8184932263425,1.025,1.725,1.0,15469.860468532228,1.0,44808.98463209236,9.250034095439638,1.3414115889526834,-11.081247345593113,44808.98463209236,9.250034095439638,1.3414115889526834,-11.081247345593113,32.6875,42.84375,0.0123443603515625,-0.048828125,1.1357421875,0.13720703125,0.91015625,0.85986328125,141.0,-3.0,5.0
4.230413913726807,1053.056924721439,1725.6526653642727,269.42699557912584,-0.039522453379037904,0.03987863428126683,1.579869903341804,0.008773088455200195,1.5903504178254277,1053.056924721439,1725.6526653642727,98.7253952187007,0.155029296875,-0.02805692472143892,-0.0006526653642727069,0.7305730044208743,360.5198776412267,1.025,1.725,1.0,15469.860468532228,1.0,46714.63794580128,7.560708641222112,-0.05464920218085566,-34.760887906757446,46714.63794580128,7.560708641222112,-0.05464920218085566,-34.760887906757446,20.875,40.1875,0.0207977294921875,-0.03717041015625,1.138671875,0.1444091796875,0.92333984375,0.155029296875,187.0,5.0,16.0
4.239655256271362,1056.0504078714046,1725.5306848601904,278.9691074363204,-0.005385798795774314,-0.027170130036114227,1.5671170583932597,0.007624149322509766,1.5922973014963546,1056.0504078714046,1725.5306848601904,107.55781989050908,-0.248779296875,-0.031050407871404558,-0.0005306848601903766,0.7210308925636796,359.7891934488904,1.025,1.725,1.0,15469.860468532228,1.0,45569.26340531323,8.087117239893939,0.5688300222885768,-121.39638869074226,45569.26340531323,8.087117239893939,0.5688300222885768,-121.39638869074226,9.625,41.625,0.0202178955078125,-0.006999969482421875,1.169921875,0.1666259765625,0.93701171875,-0.248779296875,187.0,0.0,9.0
