time,x_pos,y_pos,z_pos,x_rot,y_rot,z_rot,delta_time,z_filtered,x_pos_est,y_pos_est,z_pos_est,z_rot_est,x_error,y_error,z_error,yaw_error,x_setpoint,y_setpoint,z_setpoint,yaw_setpoint,vicon_available,thrust_cal,pitch_cal,roll_cal,yaw_cal,thrust_lim,pitch_lim,roll_lim,yaw_lim,gyro_x,gyro_y,acc_x,acc_y,acc_z,stateEstimate_az,stateEstimate_vz,stateEstimate_yaw,range_zrange,motion_deltaX,motion_deltaY
1.3175413608551025,143.68127971072013,-1620.748911736603,1326.388019203931,0.08040267738031798,-0.055200122170110104,-1.6453617353551657,0.00017404556274414062,-1.5691080487646232,1,1,1,1,-0.14368127971072014,1.6207489117366032,-1.226388019203931,-94.27228320817208,0.0,0.0,0.1,0.0,1,-37489196.76627073,-4986.792476581218,-56845.26196168608,-227964.85652610328,10000,-40,-40,-360,0.0,0.0,0.0,0.0,0.0,0.0,0.0,0.0,1318.0,10.0,-2.0
1.3193142414093018,144.72811111368307,-1619.8236710363788,1326.8004628521157,0.08460836344939453,-0.054699253372457034,-1.6398320528341634,0.0001304149627685547,-1.571248181692455,1,1,1,1,-0.14472811111368308,1.6198236710363787,-1.2268004628521156,-93.95545573767139,0.0,0.0,0.1,0.0,1,629.3529757509355,-61.125879191734555,-41.415840584067226,-1137.4308552648472,10000,-40,-40,-360,,,,,,,,,,,
1.3231606483459473,145.32523340597473,-1619.3511149136941,1327.3370467977077,0.08783382016322656,-0.060174824671612726,-1.624262429634901,6.914138793945312e-05,-1.5756847839276598,1,1,1,1,-0.14532523340597472,1.619351114913694,-1.2273370467977076,-93.06338203974468,0.0,0.0,0.1,0.0,1,2560.300620580988,-49.75640448343043,-50.16460037294645,-1044.0293348560676,10000,-40,-40,-360,,,,,,,,,,,
1.3250491619110107,147.00277870766163,-1618.5602357506393,1327.4310483093843,0.06495149005165195,-0.11169658727125231,-1.6569824035485368,7.200241088867188e-05,-1.577865845764846,1,1,1,1,-0.14700277870766162,1.6185602357506392,-1.2274310483093844,-94.93809845077416,0.0,0.0,0.1,0.0,1,4672.480337385534,-65.46880187929064,-43.46200872558684,-2918.0164815076414,10000,-40,-40,-360,,,,,,,,,,,
1.326918363571167,147.5734452727307,-1618.3010497060827,1327.7300203320556,0.030738166522133896,-0.11606327854079451,-1.6810462003853244,5.555152893066406e-05,-1.580027862880795,1,1,1,1,-0.1475734452727307,1.6183010497060828,-1.2277300203320556,-96.31685244858235,0.0,0.0,0.1,0.0,1,2167.3134301968566,-53.05327065382437,-49.47347256513213,-2555.427577002016,10000,-40,-40,-360,,,,,,,,,,,
1.3295619487762451,148.60115650313205,-1617.3071516109103,1328.029031947451,0.044317889325852476,-0.10398537832817657,-1.668692966380629,5.626678466796875e-05,-1.5831173325185417,1,1,1,1,-0.14860115650313205,1.6173071516109103,-1.228029031947451,-95.60906427677581,0.0,0.0,0.1,0.0,1,3118.04948602871,-55.15933457012301,-44.10566363620473,-1032.9992971629608,10000,-40,-40,-360,0.0,0.0,0.0,0.0,0.0,0.0,0.0,0.0,1318.0,-9.0,2.0
1.334193229675293,149.48133484522688,-1616.525350768307,1328.0200851594386,0.04883038935504638,-0.11944346344928072,-1.6630323574778936,6.699562072753906e-05,-1.5885711669937832,1,1,1,1,-0.14948133484522688,1.6165253507683068,-1.2280200851594387,-95.28473527717489,0.0,0.0,0.1,0.0,1,5493.94783275597,-51.46879349069587,-48.3414467396487,-1324.479449940634,10000,-40,-40,-360,,,,,,,,,,,
1.336214542388916,149.98122602559604,-1616.140174026685,1328.78850809154,0.05365413888225126,-0.11335564804471307,-1.668541381726607,8.7738037109375e-05,-1.5909587686575488,1,1,1,1,-0.14998122602559605,1.616140174026685,-1.22878850809154,-95.6003791158614,0.0,0.0,0.1,0.0,1,-2465.0894131127825,-53.09213584060025,-47.571577311836236,-1668.685351446889,10000,-40,-40,-360,,,,,,,,,,,
1.3392601013183594,150.44393435061068,-1615.7360564329554,1329.5591383014746,0.11107782995958294,-0.03671132149612198,-1.6367422799405633,5.745887756347656e-05,-1.5944981146163357,1,1,1,1,-0.15044393435061068,1.6157360564329553,-1.2295591383014746,-93.77842479121418,0.0,0.0,0.1,0.0,1,151.20794260902517,-50.58847761867076,-48.75964680012587,-507.214235370432,10000,-40,-40,-360,0.0,0.0,0.0,0.0,0.0,0.0,0.0,0.0,1292.0,3.0,0.0
1.3440220355987549,151.37084966658912,-1615.0754341816682,1329.744211960982,0.08688379639545675,-0.038722056699279826,-1.6417040991647396,6.532669067382812e-05,-1.5997760460185322,1,1,1,1,-0.15137084966658912,1.6150754341816682,-1.229744211960982,-94.06271609146636,0.0,0.0,0.1,0.0,1,4560.792650696452,-49.7561476965087,-48.59179890039995,-1500.3352938869577,10000,-40,-40,-360,,,,,,,,,,,
1.345963716506958,152.23858473987409,-1613.9063238240046,1328.360496504389,0.06211323337006663,-0.11459659155741038,-1.6568328668404513,6.103515625e-05,-1.601878534618883,1,1,1,1,-0.1522385847398741,1.6139063238240046,-1.228360496504389,-94.92953062851858,0.0,0.0,0.1,0.0,1,19775.797117502505,-54.34487220389995,-38.17820363488515,-2095.8076286435503,19775.797117502505,-40,-38.17820363488515,-360,,,,,,,,,,,
1.3489997386932373,153.07166555170497,-1613.5202294116966,1329.0872415018478,0.05016215205949799,-0.12219113068069283,-1.6756174122200276,6.4849853515625e-05,-1.6051100875685926,1,1,1,1,-0.15307166555170496,1.6135202294116966,-1.2290872415018477,-96.00580579884027,0.0,0.0,0.1,0.0,1,468.6163003093085,-50.22639189718058,-48.57222724504006,-1971.047478888151,10000,-40,-40,-360,0.0,0.0,0.0,0.0,0.0,0.0,0.0,0.0,1292.0,-3.0,0.0
1.353795051574707,153.43879904517968,-1612.921018016906,1329.1426791454849,0.049398792710178864,-0.1223985416677686,-1.6737217432878482,6.604194641113281e-05,-1.610095378302871,1,1,1,1,-0.15343879904517968,1.612921018016906,-1.229142679145485,-95.89719196967232,0.0,0.0,0.1,0.0,1,5057.748686200353,-45.39211747049587,-48.631760962454614,-1404.4795031738613,10000,-40,-40,-360,,,,,,,,,,,
1.35573410987854,154.62371842730207,-1612.5146445855846,1329.7752208921913,0.04109292587859462,-0.08912440496010236,-1.6706007146838278,6.175041198730469e-05,-1.6120913129317114,1,1,1,1,-0.15462371842730208,1.6125146445855847,-1.2297752208921913,-95.71837020292234,0.0,0.0,0.1,0.0,1,-1393.83218179836,-56.74862683524376,-46.178429796529535,-1297.1373180038179,10000,-40,-40,-360,,,,,,,,,,,
1.3579399585723877,154.92924079994665,-1611.9091906807373,1329.6408093616599,0.0632958014519829,-0.08323092837953326,-1.6656947993248523,6.151199340820312e-05,-1.6143359361985345,1,1,1,1,-0.15492924079994666,1.6119091906807372,-1.22964080936166,-95.43728195820465,0.0,0.0,0.1,0.0,1,6434.1297071982435,-46.02154662776837,-45.132019925145414,-1240.5814406302402,10000,-40,-40,-360,,,,,,,,,,,
1.3606986999511719,155.19162379111862,-1611.2400696997786,1329.1783617620085,0.05997269710319836,-0.11662886365838454,-1.6778531243737724,5.364418029785156e-05,-1.6171014198506666,1,1,1,1,-0.15519162379111862,1.6112400696997786,-1.2291783617620085,-96.13390266945596,0.0,0.0,0.1,0.0,1,8578.086988113182,-44.83643072494485,-45.75575735454562,-1821.9286643072992,10000,-40,-40,-360,0.0,0.0,0.0,0.0,0.0,0.0,0.0,0.0,1292.0,0.0,-6.0
1.3648688793182373,156.07796383787036,-1610.6905159234036,1329.4378815936855,0.06947950929367366,-0.10658346864705531,-1.6767025093253765,6.890296936035156e-05,-1.621210145203726,1,1,1,1,-0.15607796383787037,1.6106905159234035,-1.2294378815936855,-96.06797728333862,0.0,0.0,0.1,0.0,1,4038.8445390675156,-46.89645412759228,-47.985143909838584,-1417.3781484178705,10000,-40,-40,-360,,,,,,,,,,,
1.3667433261871338,156.7553573946845,-1610.065662402814,1329.23524997208,0.06512742331132136,-0.10394915256210137,-1.676141966846734,7.557868957519531e-05,-1.6230372116549063,1,1,1,1,-0.1567553573946845,1.610065662402814,-1.22923524997208,-96.03586056507461,0.0,0.0,0.1,0.0,1,7450.451769182436,-49.69785598356777,-43.313956057627195,-1414.8467552882748,10000,-40,-40,-360,,,,,,,,,,,
1.3687894344329834,156.7431655710256,-1609.6514844956844,1329.439151087655,0.05180977003289749,-0.10135493310332812,-1.6797760887326687,6.103515625e-05,-1.6250031915680083,1,1,1,1,-0.1567431655710256,1.6096514844956844,-1.229439151087655,-96.2440804113748,0.0,0.0,0.1,0.0,1,3190.1349577845685,-41.63546529920948,-46.49377885240569,-1596.8424504788954,10000,-40,-40,-360,,,,,,,,,,,
1.3753714561462402,156.79650928357077,-1609.1952752230034,1329.2244568592253,0.05691702649946786,-0.09702122281751822,-1.6722853754149596,5.078315734863281e-05,-1.6309786799412036,1,1,1,1,-0.15679650928357078,1.6091952752230034,-1.2292244568592252,-95.81489415272762,0.0,0.0,0.1,0.0,1,5869.195258899622,-40.47520277635344,-49.4732881074153,-1339.272729877763,10000,-40,-40,-360,,,,,,,,,,,
1.3771932125091553,157.20591440802446,-1608.6496657490954,1328.9598464480391,0.10893539559918224,-0.08959138959417798,-1.6600542991519625,5.435943603515625e-05,-1.6325975554188386,1,1,1,1,-0.15720591440802445,1.6086496657490954,-1.2289598464480391,-95.11410510395524,0.0,0.0,0.1,0.0,1,8061.453453876753,-44.186855248221846,-44.167358909764104,-850.1477651779668,10000,-40,-40,-360,,,,,,,,,,,
1.3798255920410156,157.46028341038485,-1608.4303067919952,1329.536087335276,0.09762270817004592,-0.08447381198616202,-1.6729062441722533,5.1021575927734375e-05,-1.63485640724692,1,1,1,1,-0.15746028341038484,1.6084303067919952,-1.229536087335276,-95.85046731215209,0.0,0.0,0.1,0.0,1,838.4366825628956,-40.80003817704932,-49.0826669788517,-1857.4318382839058,10000,-40,-40,-360,0.0,0.0,0.0,0.0,0.0,0.0,0.0,0.0,1312.0,-4.0,0.0
1.382540225982666,157.4752986511586,-1608.1443506836756,1329.769130770735,0.07830986032391395,-0.07914664542660722,-1.6798498249833076,7.128715515136719e-05,-1.6371197231942167,1,1,1,1,-0.15747529865115859,1.6081443506836757,-1.229769130770735,-96.24830518733351,0.0,0.0,0.1,0.0,1,3459.8757657954143,-37.86724588786537,-48.8147144527082,-1662.077494746007,10000,-37.86724588786537,-40,-360,,,,,,,,,,,
1.3866395950317383,157.16160005194052,-1607.89760654106,1330.289418481385,0.1231315381682287,-0.0351699805010143,-1.6627149418087948,6.29425048828125e-05,-1.640288198020399,1,1,1,1,-0.15716160005194052,1.60789760654106,-1.2302894184813848,-95.26654869898421,0.0,0.0,0.1,0.0,1,2603.2270941020856,-34.4237662564543,-50.09473654470443,-1069.0729493726972,10000,-34.4237662564543,-40,-360,,,,,,,,,,,
1.3887968063354492,157.20902315954504,-1607.5764060823958,1330.427105304536,0.11807201885206683,-0.029668627575794825,-1.6625679550675294,6.127357482910156e-05,-1.6418846854403832,1,1,1,1,-0.15720902315954505,1.6075764060823958,-1.2304271053045361,-95.25812697906532,0.0,0.0,0.1,0.0,1,3819.799595571959,-35.36657498749898,-48.131624975348934,-1423.0062033338274,10000,-35.36657498749898,-40,-360,,,,,,,,,,,
1.3921880722045898,157.2188221266381,-1607.3654207675554,1330.5114598175167,0.11841024907552446,-0.03650811726483461,-1.661812875366165,5.14984130859375e-05,-1.6442058973874096,1,1,1,1,-0.1572188221266381,1.6073654207675554,-1.2305114598175166,-95.21486409898114,0.0,0.0,0.1,0.0,1,4593.288131725322,-33.25714738604048,-50.29039064255401,-1409.0562474164874,10000,-33.25714738604048,-40,-360,0.0,0.0,0.0,0.0,0.0,0.0,0.0,0.0,1312.0,3.0,0.0
1.3963580131530762,157.3628587321176,-1606.8716289629529,1331.0018794977636,0.0907099269334501,-0.03104620113640962,-1.6846839255997028,6.580352783203125e-05,-1.6468755588018869,1,1,1,1,-0.15736285873211758,1.6068716289629528,-1.2310018794977637,-96.52527875039456,0.0,0.0,0.1,0.0,1,2748.1653933061284,-32.357731676065875,-49.21355876082629,-1917.86071820284,10000,-32.357731676065875,-40,-360,,,,,,,,,,,
1.3982305526733398,157.10726246772788,-1606.8042053340307,1331.0246527417546,0.08755662481157643,-0.034669007097015876,-1.6752955135430505,6.771087646484375e-05,-1.6480345668213774,1,1,1,1,-0.15710726246772788,1.6068042053340308,-1.2310246527417545,-95.98736236321864,0.0,0.0,0.1,0.0,1,4787.492196325948,-28.186358433698135,-51.33056833498021,-1008.3075307439186,10000,-28.186358433698135,-40,-360,,,,,,,,,,,
1.4009323120117188,157.39839978956428,-1606.3026304397374,1330.9333444917975,0.08896150104326102,-0.03377238259086067,-1.6855672950130094,5.793571472167969e-05,-1.649647407719797,1,1,1,1,-0.15739839978956427,1.6063026304397374,-1.2309333444917974,-96.57589208952797,0.0,0.0,0.1,0.0,1,5662.823272228311,-32.57057011718305,-47.74467914112675,-1775.9351971978833,10000,-32.57057011718305,-40,-360,0.0,0.0,0.0,0.0,0.0,0.0,0.0,0.0,1311.0,-2.0,3.0
1.4051141738891602,157.2082257399676,-1605.9503428852254,1330.9838166789511,0.090213280508935,-0.03696139655243285,-1.6892750459439292,6.866455078125e-05,-1.6520653070711941,1,1,1,1,-0.1572082257399676,1.6059503428852253,-1.230983816678951,-96.78833056935538,0.0,0.0,0.1,0.0,1,4776.8767864498495,-28.8089248593518,-50.26418215062974,-1527.8904840392238,10000,-28.8089248593518,-40,-360,,,,,,,,,,,
1.406984806060791,156.63320148376334,-1605.9714238261988,1331.111082798652,0.09350831977724569,-0.03440301219386533,-1.6677067119695308,7.295608520507812e-05,-1.653122851021578,1,1,1,1,-0.15663320148376333,1.6059714238261988,-1.231111082798652,-95.55255606149373,0.0,0.0,0.1,0.0,1,3685.947481909471,-22.913349787817708,-52.83302727796972,-444.37700256916025,10000,-22.913349787817708,-40,-360,,,,,,,,,,,
1.409043312072754,156.6626920491046,-1605.5603877051694,1331.4949307348386,0.10119953914838599,-0.02174252276775743,-1.6712304829879743,0.00013518333435058594,-1.654243744127186,1,1,1,1,-0.1566626920491046,1.6055603877051694,-1.2314949307348386,-95.75445326882105,0.0,0.0,0.1,0.0,1,1345.7600602030825,-28.945886979011256,-47.746596408437576,-1584.1551831597267,10000,-28.945886979011256,-40,-360,,,,,,,,,,,
1.415623664855957,156.5756216202622,-1605.3571998068085,1331.7919504878184,0.10067705294885117,-0.02185186294524666,-1.6652835186559782,5.054473876953125e-05,-1.6573115413039308,1,1,1,1,-0.1565756216202622,1.6053571998068086,-1.2317919504878185,-95.41371731168284,0.0,0.0,0.1,0.0,1,4110.370351105543,-26.03927070007458,-51.8983952666388,-1353.433111222445,10000,-26.03927070007458,-40,-360,,,,,,,,,,,
1.4174749851226807,156.82365912861377,-1604.5498286925283,1332.0321314732705,0.10433812151750595,-0.015082040682208427,-1.6813727349246672,5.364418029785156e-05,-1.658139573356616,1,1,1,1,-0.15682365912861376,1.6045498286925284,-1.2320321314732705,-96.33556149955194,0.0,0.0,0.1,0.0,1,2387.536912378889,-27.823327395017024,-42.92188667273375,-2191.84544243072,10000,-27.823327395017024,-40,-360,,,,,,,,,,,
1.4194285869598389,156.23448730561594,-1604.7543704706939,1332.3199726609892,0.10924172326856786,-0.013177748427262185,-1.665378329668395,0.00012493133544921875,-1.6589688689942244,1,1,1,1,-0.15623448730561595,1.604754370470694,-1.2323199726609892,-95.41914958254569,0.0,0.0,0.1,0.0,1,2117.982294948856,-18.672971137966158,-55.57168613599832,-727.7405379760716,10000,-18.672971137966158,-40,-360,,,,,,,,,,,
1.4247198104858398,156.1287542270495,-1604.0888545641624,1332.3055795728067,0.11142028743138066,-0.027148208889687418,-1.6819694834049006,5.2928924560546875e-05,-1.6610029381259461,1,1,1,1,-0.1561287542270495,1.6040888545641623,-1.2323055795728066,-96.36975266890016,0.0,0.0,0.1,0.0,1,4959.872608208675,-23.03970297093529,-50.25239135844867,-1715.0675830151783,10000,-23.03970297093529,-40,-360,0.0,0.0,0.0,0.0,0.0,0.0,0.0,0.0,1311.0,1.0,0.0
1.4279491901397705,155.98665077759435,-1603.823952971178,1332.646760901039,0.11857083297384573,-0.023332012922275856,-1.6790209454009932,0.00021409988403320312,-1.6621770564673004,1,1,1,1,-0.15598665077759435,1.603823952971178,-1.232646760901039,-96.20081388554235,0.0,0.0,0.1,0.0,1,2888.097757241067,-21.894066553538575,-51.35910052591614,-1364.8714258842795,10000,-21.894066553538575,-40,-360,,,,,,,,,,,
1.4293537139892578,156.02777628087705,-1603.3586450519115,1332.759055664289,0.12717699465267468,-0.0031772335092980705,-1.6746874462295622,5.078315734863281e-05,-1.6626697430366908,1,1,1,1,-0.15602777628087705,1.6033586450519115,-1.2327590556642891,-95.9525226724959,0.0,0.0,0.1,0.0,1,3280.2932757089284,-22.748472912600718,-45.74234066459502,-1170.7450788585713,10000,-22.748472912600718,-40,-360,,,,,,,,,,,
1.4346377849578857,156.14126544095558,-1603.3298477105272,1333.2108329160308,0.1107479797899902,-0.005154404845408874,-1.6645711000117616,6.437301635742188e-05,-1.6642607397674491,1,1,1,1,-0.15614126544095558,1.6033298477105273,-1.2332108329160307,-95.3728987301228,0.0,0.0,0.1,0.0,1,3275.4109628412143,-21.44221883377513,-53.221473132769134,-1266.4986904200991,10000,-21.44221883377513,-40,-360,0.0,0.0,0.0,0.0,0.0,0.0,0.0,0.0,1318.0,-1.0,1.0
1.4378705024719238,155.91130423175798,-1603.144771532815,1333.5398669294168,0.11637208432491176,-0.017038078656261262,-1.669144169446929,0.0002129077911376953,-1.6651300781099292,1,1,1,1,-0.15591130423175797,1.6031447715328149,-1.2335398669294169,-95.63491630817816,0.0,0.0,0.1,0.0,1,2924.1491656542084,-18.280314641330996,-52.47583818517867,-1555.8866293728665,10000,-18.280314641330996,-40,-360,,,,,,,,,,,
1.4392790794372559,156.17922743717236,-1602.6896282481769,1333.564089281656,0.10274476338610636,-0.003940960833825887,-1.6785410857203313,4.9114227294921875e-05,-1.6654886685279469,1,1,1,1,-0.15617922743717236,1.6026896282481768,-1.233564089281656,-96.17331995108192,0.0,0.0,0.1,0.0,1,4458.967299432179,-23.083681964665306,-46.13614363181879,-2024.1178815956218,10000,-23.083681964665306,-40,-360,,,,,,,,,,,
1.4444153308868408,156.50500637224758,-1601.8831998926787,1333.60927310978,0.09805057735989094,-0.013963191884141244,-1.7080221682480647,6.175041198730469e-05,-1.6668810294163174,1,1,1,1,-0.15650500637224757,1.6018831998926788,-1.2336092731097799,-97.86246155539791,0.0,0.0,0.1,0.0,1,4674.808687580749,-21.147948754176333,-49.95924359669155,-1959.9578539908823,10000,-21.147948754176333,-40,-360,0.0,0.0,0.0,0.0,0.0,0.0,0.0,0.0,1318.0,0.0,-1.0
1.4476277828216553,155.99826883042388,-1601.7551046429744,1334.0258416544032,0.11434557039219545,-0.006405138439814682,-1.695486104135454,0.0002224445343017578,-1.6677948332099026,1,1,1,1,-0.1559982688304239,1.6017551046429743,-1.2340258416544032,-97.14419799003991,0.0,0.0,0.1,0.0,1,2374.2141564870913,-17.108282615181647,-52.83017073875733,-1122.5022560941752,10000,-17.108282615181647,-40,-360,,,,,,,,,,,
1.4490346908569336,156.46518383142967,-1601.113609253583,1333.9553785070977,0.11300527484116192,-0.012886204781733796,-1.7047885217996515,4.863739013671875e-05,-1.6682022724424144,1,1,1,1,-0.15646518383142968,1.601113609253583,-1.2339553785070978,-97.67718726146637,0.0,0.0,0.1,0.0,1,5707.759836354568,-27.26164361177983,-42.551092198687314,-2042.01632425859,10000,-27.26164361177983,-40,-360,,,,,,,,,,,
1.4555859565734863,156.14018407464667,-1601.1701189011321,1334.2652245625754,0.1166547825968341,-0.009327120487807539,-1.680308832220722,6.127357482910156e-05,-1.6701182873455351,1,1,1,1,-0.15614018407464667,1.601170118901132,-1.2342652245625754,-96.27460436480332,0.0,0.0,0.1,0.0,1,3971.56363638878,-19.94243608318493,-53.532711429490014,-1123.5389382938142,10000,-19.94243608318493,-40,-360,,,,,,,,,,,
1.4582278728485107,156.05903086850697,-1600.8534537224803,1334.459964485955,0.11998702780413761,-0.010444656570584672,-1.6739488943394458,5.793571472167969e-05,-1.6708692290738056,1,1,1,1,-0.15605903086850698,1.6008534537224803,-1.234459964485955,-95.91020676624083,0.0,0.0,0.1,0.0,1,3412.8425043252832,-19.829426769860632,-50.74640212770413,-1232.0016270153744,10000,-19.829426769860632,-40,-360,0.0,0.0,0.0,0.0,0.0,0.0,0.0,0.0,1250.0,2.0,0.0
1.4648582935333252,156.06141431016036,-1600.5689577268122,1334.708052982263,0.1256545826992795,-0.017174957872257812,-1.6715927131680466,6.771087646484375e-05,-1.672429690092045,1,1,1,1,-0.15606141431016035,1.6005689577268123,-1.2347080529822632,-95.77520752935146,0.0,0.0,0.1,0.0,1,4124.829372579733,-19.080820649560305,-52.63521111112941,-1406.1080885440285,10000,-19.080820649560305,-40,-360,,,,,,,,,,,
1.4667606353759766,156.2489268704447,-1599.863810800903,1334.767246086872,0.10929133396939093,-0.029371083160708304,-1.6925624258936327,6.103515625e-05,-1.6728591097513998,1,1,1,1,-0.1562489268704447,1.599863810800903,-1.2347672460868722,-96.97668356612932,0.0,0.0,0.1,0.0,1,4127.301180993988,-20.195933824957436,-45.341097139768365,-2404.635627432156,10000,-20.195933824957436,-40,-360,,,,,,,,,,,
1.4686863422393799,156.17286301619285,-1599.7045038787096,1334.956911099935,0.10594455635084239,-0.030879616244992636,-1.6904815763181977,5.340576171875e-05,-1.6732817417299177,1,1,1,1,-0.15617286301619285,1.5997045038787097,-1.234956911099935,-96.8574596676553,0.0,0.0,0.1,0.0,1,2922.290754085269,-17.647921794380405,-51.912888205895825,-1359.7868346602254,10000,-17.647921794380405,-40,-360,,,,,,,,,,,
1.4717884063720703,156.05463166634635,-1599.5560834510518,1335.1864713750733,0.12266754993974024,-0.0093669553015087,-1.6738491372664621,5.1021575927734375e-05,-1.6739121464291054,1,1,1,1,-0.15605463166634637,1.5995560834510518,-1.2351864713750733,-95.90449110698228,0.0,0.0,0.1,0.0,1,3395.452175901232,-17.218180555510887,-52.765730564497424,-977.1930096322303,10000,-17.218180555510887,-40,-360,0.0,0.0,0.0,0.0,0.0,0.0,0.0,0.0,1250.0,-2.0,0.0
1.477889060974121,155.87021257412394,-1599.7036671765354,1335.2287436886202,0.13760286588950882,-0.006489961635820131,-1.6747195000192734,7.319450378417969e-05,-1.6749118538382366,1,1,1,1,-0.15587021257412395,1.5997036671765354,-1.2352287436886202,-95.95435921936375,0.0,0.0,0.1,0.0,1,4715.346440789643,-16.23311574384018,-54.57110501458377,-1451.5408893952026,10000,-16.23311574384018,-40,-360,,,,,,,,,,,
1.4798080921173096,156.24051937723402,-1598.652961759834,1335.187438148359,0.09792109965845075,-0.014338136183705427,-1.7129921179583127,6.198883056640625e-05,-1.6752223143012908,1,1,1,1,-0.15624051937723402,1.598652961759834,-1.235187438148359,-98.14721869818739,0.0,0.0,0.1,0.0,1,5033.7465522160655,-19.772010841103853,-41.617792294305296,-3196.3121201631175,10000,-19.772010841103853,-40,-360,,,,,,,,,,,
1.485471248626709,156.0017861648441,-1598.8670166105442,1335.2621521496658,0.08892457766432822,-0.010979391163442636,-1.6972170280816816,0.0001671314239501953,-1.6762352290381017,1,1,1,1,-0.15600178616484411,1.598867016610544,-1.2352621521496658,-97.24337262681688,0.0,0.0,0.1,0.0,1,4598.174677159448,-16.60589407610449,-54.733751037840506,-1219.1380045820856,10000,-16.60589407610449,-40,-360,0.0,0.0,0.0,0.0,0.0,0.0,0.0,0.0,1250.0,0.0,0.0
1.4873406887054443,156.40674012556815,-1597.599123322802,1334.6439490595467,0.11593498437857445,-0.016440705990488642,-1.7054404732339397,0.0001506805419921875,-1.6765887336285465,1,1,1,1,-0.15640674012556816,1.597599123322802,-1.2346439490595467,-97.71454132709859,0.0,0.0,0.1,0.0,1,10626.7701016504,-20.855951156579714,-38.68648395852435,-1840.903178304094,10626.7701016504,-20.855951156579714,-38.68648395852435,-360,,,,,,,,,,,
1.490464448928833,155.89475908598345,-1597.665616129346,1334.4624075586637,0.11286395781063363,-0.006852600023087754,-1.6734206007269337,5.6743621826171875e-05,-1.6771738802388767,1,1,1,1,-0.15589475908598346,1.597665616129346,-1.2344624075586637,-95.87993777190016,0.0,0.0,0.1,0.0,1,5989.039283583872,-14.27903801433126,-54.53756204914938,-552.8475635506221,10000,-14.27903801433126,-40,-360,0.0,0.0,0.0,0.0,0.0,0.0,0.0,0.0,1272.0,1.0,-1.0
1.49379301071167,155.78233787717164,-1597.4406254725243,1334.5824795956346,0.1158169371848535,-0.005868688504717427,-1.6657471742045382,7.557868957519531e-05,-1.6777381191016587,1,1,1,1,-0.15578233787717163,1.5974406254725242,-1.2345824795956346,-95.44028281776315,0.0,0.0,0.1,0.0,1,4138.454142598216,-16.2652649659198,-52.44495715763172,-1234.4081348211612,10000,-16.2652649659198,-40,-360,,,,,,,,,,,
1.4997780323028564,155.96639111132322,-1597.0466197651451,1334.6735314357813,0.11720634219407106,0.0017760174495492385,-1.6714388636556126,5.984306335449219e-05,-1.6784584075897961,1,1,1,1,-0.1559663911113232,1.5970466197651452,-1.2346735314357813,-95.76639260160884,0.0,0.0,0.1,0.0,1,4533.347460177143,-16.05696456241799,-52.638096762061394,-1518.4068342586702,10000,-16.05696456241799,-40,-360,,,,,,,,,,,
1.5071210861206055,155.80179467642793,-1596.8721001337692,1334.7077229209278,0.11970907545500743,-0.007924461912084398,-1.6698505666592622,5.1975250244140625e-05,-1.6788680597427514,1,1,1,1,-0.15580179467642793,1.5968721001337691,-1.2347077229209278,-95.67538988710467,0.0,0.0,0.1,0.0,1,4748.795523924596,-12.813444138189908,-54.11949192634738,-1416.525591289589,10000,-12.813444138189908,-40,-360,,,,,,,,,,,
1.509713888168335,155.64784623776023,-1596.6677269237093,1334.689679236174,0.12238477859083696,-0.004432292361115474,-1.6685968779586684,5.14984130859375e-05,-1.6789525568666726,1,1,1,1,-0.15564784623776023,1.5966677269237093,-1.2346896792361741,-95.6035588157374,0.0,0.0,0.1,0.0,1,4943.978696704938,-11.094098801678934,-53.179292712699265,-1392.581231649657,10000,-11.094098801678934,-40,-360,0.0,0.0,0.0,0.0,0.0,0.0,0.0,0.0,1272.0,3.0,-2.0
1.5144104957580566,155.62629902827007,-1596.4148858464007,1334.6511532550358,0.12274327570049752,-0.005891546427251472,-1.666526373222712,6.604194641113281e-05,-1.6789078783435643,1,1,1,1,-0.15562629902827008,1.5964148858464007,-1.2346511532550357,-95.48492763290525,0.0,0.0,0.1,0.0,1,4983.510172602934,-10.89589051554439,-53.87957810003648,-1394.4565823585765,10000,-10.89589051554439,-40,-360,,,,,,,,,,,
1.5165188312530518,155.21881725179958,-1596.3359836566804,1334.7434932364495,0.07802337635626007,-0.024879418862774772,-1.6987287783795781,0.00014138221740722656,-1.6788735581562926,1,1,1,1,-0.1552188172517996,1.5963359836566804,-1.2347434932364494,-97.32998953856399,0.0,0.0,0.1,0.0,1,3987.2068825201463,-6.610408475819057,-54.71998718269338,-2773.978119819246,10000,-6.610408475819057,-40,-360,,,,,,,,,,,
1.5197029113769531,155.13357831597156,-1595.9138735228348,1334.3909493121555,0.10516125535635301,-0.02307549552411842,-1.695324121528499,5.8650970458984375e-05,-1.6788403043015907,1,1,1,1,-0.15513357831597155,1.5959138735228349,-1.2343909493121554,-97.13491707030687,0.0,0.0,0.1,0.0,1,6903.771492273342,-10.176838135301459,-52.22080492502364,-1365.0643786493063,10000,-10.176838135301459,-40,-360,0.0,0.0,0.0,0.0,0.0,0.0,0.0,0.0,1272.0,-3.0,2.0
1.523853063583374,155.2078399356106,-1596.1389071459123,1334.6130168698799,0.10566831835996576,-0.011140145355081663,-1.6789238226477181,6.699562072753906e-05,-1.6788188964445034,1,1,1,1,-0.1552078399356106,1.5961389071459122,-1.23461301686988,-96.19524916168498,0.0,0.0,0.1,0.0,1,3846.171323355945,-11.760263174574042,-56.11641025279858,-1103.7698078339367,10000,-11.760263174574042,-40,-360,,,,,,,,,,,
1.52579927444458,154.663986462129,-1595.5404957114358,1333.9338805275152,0.10160337995808146,-0.04081179065379917,-1.6770393323085306,9.083747863769531e-05,-1.678811672195525,1,1,1,1,-0.154663986462129,1.5955404957114359,-1.233933880527515,-96.08727581871636,0.0,0.0,0.1,0.0,1,11257.300623597679,-4.528483419293632,-48.981569104536035,-1358.1012077780529,11257.300623597679,-4.528483419293632,-40,-360,,,,,,,,,,,
1.5278923511505127,154.78406149415838,-1595.220352464216,1333.8946303475566,0.09960379992044915,-0.03732181336172466,-1.6789869069534162,6.556510925292969e-05,-1.6788066736055374,1,1,1,1,-0.15478406149415838,1.595220352464216,-1.2338946303475566,-96.198863626155,0.0,0.0,0.1,0.0,1,5164.79651898336,-12.204699365848228,-51.499653698034564,-1523.0981866913858,10000,-12.204699365848228,-40,-360,,,,,,,,,,,
1.531010627746582,155.11061957416547,-1594.816922409592,1333.760893909076,0.10050767300010827,-0.02991756732021127,-1.687278201928618,4.935264587402344e-05,-1.6788218157093362,1,1,1,1,-0.15511061957416547,1.594816922409592,-1.233760893909076,-96.6739198349321,0.0,0.0,0.1,0.0,1,5644.885991053293,-13.54442925614532,-51.82686164280467,-1679.4339901157007,10000,-13.54442925614532,-40,-360,0.0,0.0,0.0,0.0,0.0,0.0,0.0,0.0,1315.0,1.0,-8.0
1.535179615020752,155.32116730527304,-1594.3044169876418,1333.6347710687187,0.10803862588698757,-0.023460981669937934,-1.673558643762674,6.651878356933594e-05,-1.6788402271417686,1,1,1,1,-0.15532116730527304,1.594304416987642,-1.2336347710687188,-95.88784705523925,0.0,0.0,0.1,0.0,1,5403.789235811892,-12.371182653336017,-52.09616921084454,-1156.3758378487003,10000,-12.371182653336017,-40,-360,,,,,,,,,,,
1.5370893478393555,155.3113737175144,-1594.053732515775,1333.6247091162159,0.11112154303330117,-0.017188181930729744,-1.6748154395854697,7.867813110351562e-05,-1.6788458450825607,1,1,1,1,-0.1553113737175144,1.594053732515775,-1.2336247091162158,-95.95985615159512,0.0,0.0,0.1,0.0,1,4923.480962596579,-11.104086138726895,-52.04844616160833,-1495.7884398993585,10000,-11.104086138726895,-40,-360,,,,,,,,,,,
1.5399012565612793,157.69767956815602,-1580.5769145318595,1332.388488809763,0.120263524612424,-0.0290152055985109,-1.668724529694941,9.799003601074219e-05,-1.6788326153054027,1,1,1,1,-0.15769767956815603,1.5805769145318596,-1.232388488809763,-95.61087272147333,0.0,0.0,0.1,0.0,1,13039.914039825217,-18.298393115035676,49.44954657609489,-1251.012115234819,13039.914039825217,-18.298393115035676,40,-360,0.0,0.0,0.0,0.0,0.0,0.0,0.0,0.0,1315.0,2.0,8.0
1.5452795028686523,157.9308201243263,-1580.3430396715762,1332.743071069121,0.1288734146041524,-0.01160737619358527,-1.6649735795871847,0.00010466575622558594,-1.6786535445369437,1,1,1,1,-0.1579308201243263,1.5803430396715763,-1.232743071069121,-95.39595911113476,0.0,0.0,0.1,0.0,1,3625.6449245440167,-11.160529077387833,-53.593309593535075,-1371.0554448074945,10000,-11.160529077387833,-40,-360,,,,,,,,,,,
1.5482568740844727,157.80738177078044,-1580.0351306029486,1332.6273257830005,0.13036654744225104,-0.02375530442528527,-1.6623949654218562,0.0003228187561035156,-1.6784954627728594,1,1,1,1,-0.15780738177078044,1.5800351306029485,-1.2326273257830005,-95.24821540246879,0.0,0.0,0.1,0.0,1,5597.769536515716,-8.513535693354605,-52.6321232773128,-1354.4267685361308,10000,-8.513535693354605,-40,-360,,,,,,,,,,,
1.5504140853881836,157.97959681514848,-1579.4579329921364,1332.8417744839087,0.13964676051081437,-0.02434686888992541,-1.6735244332646222,8.368492126464844e-05,-1.6783580166603098,1,1,1,1,-0.15797959681514848,1.5794579329921363,-1.2328417744839086,-95.88588693808585,0.0,0.0,0.1,0.0,1,2897.9659959181035,-10.37174797330812,-48.8012571730969,-1886.6936252724904,10000,-10.37174797330812,-40,-360,,,,,,,,,,,
1.5563931465148926,158.09977147999325,-1579.0627800592363,1332.839626936299,0.13120489890542733,-0.03217552000930748,-1.679257084558592,9.1552734375e-05,-1.677944250608491,1,1,1,1,-0.15809977147999324,1.5790627800592363,-1.2328396269362991,-96.21434366265052,0.0,0.0,0.1,0.0,1,4878.178449247569,-9.363612551439594,-53.377927112406816,-1525.4463937182206,10000,-9.363612551439594,-40,-360,0.0,0.0,0.0,0.0,0.0,0.0,0.0,0.0,1315.0,-3.0,3.0
1.558410882949829,157.63588471432516,-1577.2970562673875,1333.459319657422,0.14881099179769336,0.012680198003193423,-1.7697887310859453,0.0001430511474609375,-1.6778674978051944,1,1,1,1,-0.15763588471432516,1.5772970562673874,-1.233459319657422,-101.40142492103806,0.0,0.0,0.1,0.0,1,-534.9454795334789,-3.727067415305955,-37.581980848170254,-5085.273613392877,10000,-3.727067415305955,-37.581980848170254,-360,,,,,,,,,,,
1.561401128768921,157.78955484325726,-1578.182916733921,1332.191262493803,0.11731976102460896,-0.047175336824727014,-1.6822671387524635,9.250640869140625e-05,-1.6778605032221896,1,1,1,1,-0.15778955484325727,1.578182916733921,-1.232191262493803,-96.38680706406501,0.0,0.0,0.1,0.0,1,13988.65278669997,-13.207154904166341,-60.976867593297584,1212.7676761204452,13988.65278669997,-13.207154904166341,-40,360,,,,,,,,,,,
1.566558599472046,158.00039255522637,-1577.8723397968888,1332.2501330642876,0.1026870121835717,-0.037507917804318454,-1.6663109378901027,0.00010037422180175781,-1.677924464254613,1,1,1,1,-0.15800039255522638,1.5778723397968888,-1.2322501330642877,-95.47258409758874,0.0,0.0,0.1,0.0,1,4674.978808060057,-12.561634532631718,-52.83777049937281,-1166.4906100150433,10000,-12.561634532631718,-40,-360,0.0,0.0,0.0,0.0,0.0,0.0,0.0,0.0,1233.0,2.0,-4.0
1.5707037448883057,158.00657577833363,-1577.5456133415407,1332.1437324428707,0.10360088885896024,-0.02620452868074263,-1.6610893501374138,0.00010585784912109375,-1.6779252268133464,1,1,1,1,-0.15800657577833363,1.5775456133415406,-1.2321437324428708,-95.17340915700247,0.0,0.0,0.1,0.0,1,5374.341090935597,-11.257787511654854,-52.601749677125376,-1319.4012077734592,10000,-11.257787511654854,-40,-360,0.0,0.0,0.0,0.0,0.0,0.0,0.0,0.0,1233.0,-3.0,0.0
1.5748047828674316,158.21916689875664,-1577.0017499837315,1331.870096697583,0.09949610572410146,-0.03811134113130441,-1.6681993074915502,0.00011324882507324219,-1.6778543977612976,1,1,1,1,-0.15821916689875665,1.5770017499837314,-1.231870096697583,-95.58077970591248,0.0,0.0,0.1,0.0,1,6136.489035315348,-11.632983924580978,-51.43057699930203,-1582.590805908941,10000,-11.632983924580978,-40,-360,,,,,,,,,,,
1.5787014961242676,158.90567073988223,-1575.5801680536592,1331.8968205703507,0.10316825118931941,-0.03467243453909436,-1.7197374969679586,0.00023794174194335938,-1.6779129120216365,1,1,1,1,-0.15890567073988224,1.5755801680536592,-1.2318968205703507,-98.53370044665624,0.0,0.0,0.1,0.0,1,4652.3767347649045,-14.895200567671397,-45.823892969771066,-2618.0503589259606,10000,-14.895200567671397,-40,-360,,,,,,,,,,,
1.5821356773376465,159.12375203023998,-1575.0431541243245,1331.5934427176612,0.13961622824130906,-0.029251102917310663,-1.680875818506687,9.131431579589844e-05,-1.6780318871302258,1,1,1,1,-0.15912375203023998,1.5750431541243244,-1.2315934427176611,-96.30709028603091,0.0,0.0,0.1,0.0,1,6547.59424495374,-13.61572644082567,-50.43596945830055,-469.2115725938213,10000,-13.61572644082567,-40,-360,0.0,0.0,0.0,0.0,0.0,0.0,0.0,0.0,1233.0,2.0,-1.0
1.5867221355438232,158.7180343964835,-1574.6183452362272,1331.3209788617048,0.1293182660292273,-0.022113809663384987,-1.6635288071900098,0.00010704994201660156,-1.6781608227685516,1,1,1,1,-0.1587180343964835,1.5746183452362272,-1.2313209788617048,-95.31317975041964,0.0,0.0,0.1,0.0,1,6026.075116699745,-10.253671444394834,-52.213792769450876,-1105.7677126915003,10000,-10.253671444394834,-40,-360,,,,,,,,,,,
1.5891456604003906,159.12132082314054,-1573.503447251892,1331.1117657849047,0.1280635248120874,-0.015692556712747077,-1.680864227508926,0.00010228157043457031,-1.6782235881363259,1,1,1,1,-0.15912132082314054,1.573503447251892,-1.2311117657849047,-96.30642617077886,0.0,0.0,0.1,0.0,1,6366.76029716732,-14.840513579145904,-43.634198266697695,-2060.9868197512255,10000,-14.840513579145904,-40,-360,,,,,,,,,,,
1.5967354774475098,159.09067735725753,-1573.0069931915739,1330.9553047321283,0.12106261031719731,-0.028187392350625912,-1.6966124149639563,0.00010132789611816406,-1.678710196167672,1,1,1,1,-0.15909067735725754,1.5730069931915738,-1.2309553047321282,-97.20873084693298,0.0,0.0,0.1,0.0,1,5321.550232480551,-13.377885487667228,-52.278378485445636,-1636.4507418344447,10000,-13.377885487667228,-40,-360,,,,,,,,,,,
1.5996854305267334,159.74066314624113,-1572.3556736679086,1331.0159826451097,0.13022786501528755,-0.026484147141039242,-1.6912035044709013,9.036064147949219e-05,-1.6789440397068314,1,1,1,1,-0.15974066314624114,1.5723556736679085,-1.2310159826451097,-96.8988231039169,0.0,0.0,0.1,0.0,1,4487.103593767543,-18.40514891401083,-48.2568599167049,-1295.7083597287653,10000,-18.40514891401083,-40,-360,0.0,0.0,0.0,0.0,0.0,0.0,0.0,0.0,1273.0,0.0,4.0
1.6045472621917725,159.84806817252044,-1571.6132694732823,1330.8993337768513,0.13078816861733197,-0.03213593119480416,-1.6931972452748612,0.00010657310485839844,-1.6794544330682057,1,1,1,1,-0.15984806817252045,1.5716132694732823,-1.2308993337768512,-97.01305603742682,0.0,0.0,0.1,0.0,1,5346.295661020022,-15.160580800871548,-49.9850284475361,-1490.396480955614,10000,-15.160580800871548,-40,-360,,,,,,,,,,,
1.607011079788208,159.486020855672,-1570.7911048076012,1330.6608637111767,0.14979916377176994,-0.048722450978361496,-1.6891496217424706,0.00010752677917480469,-1.679739873350266,1,1,1,1,-0.15948602085567198,1.570791104807601,-1.2306608637111767,-96.781144291963,0.0,0.0,0.1,0.0,1,6605.531369374132,-11.453725702148125,-46.397323997845795,-1311.138829041858,10000,-11.453725702148125,-40,-360,,,,,,,,,,,
1.6103403568267822,159.4032308140481,-1570.702144542914,1330.9285305739745,0.15196252048958464,-0.033606608691797046,-1.6601167849112297,9.870529174804688e-05,-1.6800846029203154,1,1,1,1,-0.1594032308140481,1.5707021445429141,-1.2309285305739746,-95.11768527424093,0.0,0.0,0.1,0.0,1,3399.361519654994,-14.425161645640795,-52.773731773360375,-673.4665518551627,10000,-14.425161645640795,-40,-360,0.0,0.0,0.0,0.0,0.0,0.0,0.0,0.0,1273.0,2.0,2.0
1.618074655532837,159.60564952946777,-1569.9027667494254,1330.8136023859051,0.1270678386456752,-0.04412201368841994,-1.6752382794495597,0.00032019615173339844,-1.6805678270949684,1,1,1,1,-0.15960564952946776,1.5699027667494254,-1.230813602385905,-95.98408309121736,0.0,0.0,0.1,0.0,1,5197.167792611423,-13.98033842334388,-51.269088029873224,-1607.5278200041369,10000,-13.98033842334388,-40,-360,,,,,,,,,,,
1.6210649013519287,160.09970591812106,-1569.0567910279697,1330.7659322220295,0.1383349395827289,-0.0359109814256539,-1.6761392315493093,9.1552734375e-05,-1.6807055423379318,1,1,1,1,-0.16009970591812106,1.5690567910279696,-1.2307659322220295,-96.03570384407647,0.0,0.0,0.1,0.0,1,5147.384604503802,-16.045246272349743,-47.11332894070986,-1466.5441822547205,10000,-16.045246272349743,-40,-360,,,,,,,,,,,
1.6261515617370605,160.34704577360293,-1568.577178583979,1331.0375830358023,0.12840158814874153,-0.022262384939811194,-1.6759078047499283,0.0001266002655029297,-1.6808080953295683,1,1,1,1,-0.16034704577360293,1.568577178583979,-1.2310375830358022,-96.0224440652057,0.0,0.0,0.1,0.0,1,3904.45533936659,-13.09271145015149,-51.67602626632409,-1436.4574089280914,10000,-13.09271145015149,-40,-360,0.0,0.0,0.0,0.0,0.0,0.0,0.0,0.0,1331.0,-4.0,2.0
1.6302173137664795,160.60225936280082,-1567.2782007912,1330.6367242809274,0.12268202412922995,-0.025031062635003955,-1.6916584526801015,0.00010395050048828125,-1.6808794337742712,1,1,1,1,-0.16060225936280081,1.5672782007912,-1.2306367242809275,-96.92488971620111,0.0,0.0,0.1,0.0,1,6676.99736061136,-12.801307291516652,-46.685721194120674,-1789.2562452426291,10000,-12.801307291516652,-40,-360,0.0,0.0,0.0,0.0,0.0,0.0,0.0,0.0,1331.0,4.0,-2.0
1.6340157985687256,160.7702843263988,-1566.5953215938111,1330.5453218163061,0.10297170460865378,-0.0436468936368836,-1.7037865784106887,0.00011348724365234375,-1.6810199935897145,1,1,1,1,-0.1607702843263988,1.566595321593811,-1.230545321816306,-97.61978013396777,0.0,0.0,0.1,0.0,1,5341.5094925014355,-13.383564059798841,-49.63458981553954,-1738.3609251915968,10000,-13.383564059798841,-40,-360,,,,,,,,,,,
1.637739658355713,160.98377959462533,-1566.1893054420218,1330.555989685717,0.1261950472284593,-0.022285817104666025,-1.6856123626692703,0.00010704994201660156,-1.6812075157431465,1,1,1,1,-0.16098377959462534,1.5661893054420217,-1.230555989685717,-96.57847427602427,0.0,0.0,0.1,0.0,1,4865.671164940972,-14.305334989399292,-51.002212005745825,-1028.0189667284099,10000,-14.305334989399292,-40,-360,,,,,,,,,,,
1.6408097743988037,161.88039563089686,-1565.388507174194,1330.485790019447,0.12450138761303264,-0.030072752624412075,-1.6971931019735764,8.106231689453125e-05,-1.6814102722770548,1,1,1,1,-0.16188039563089685,1.565388507174194,-1.230485790019447,-97.24200176180227,0.0,0.0,0.1,0.0,1,5311.44572945335,-19.60957970121686,-46.97899772204009,-1785.2518855587875,10000,-19.60957970121686,-40,-360,0.0,0.0,0.0,0.0,0.0,0.0,0.0,0.0,1331.0,-4.0,4.0
1.6461248397827148,161.84319679730615,-1565.0241590782364,1330.1090668433346,0.12504405220357853,-0.013652330956738063,-1.662032826673466,9.441375732421875e-05,-1.6816402711578216,1,1,1,1,-0.16184319679730616,1.5650241590782363,-1.2301090668433345,-95.22746638058788,0.0,0.0,0.1,0.0,1,6287.774283977733,-12.808804073587627,-52.05196369789637,-864.430297165965,10000,-12.808804073587627,-40,-360,,,,,,,,,,,
1.649402141571045,161.76432139449454,-1563.9979207509077,1329.2247666597896,0.11404246386959382,-0.04380520145839186,-1.673825644745674,9.918212890625e-05,-1.6817243821417147,1,1,1,1,-0.16176432139449454,1.5639979207509078,-1.2292247666597895,-95.903145084691,0.0,0.0,0.1,0.0,1,9928.054015955466,-11.268700546656916,-46.846841593212005,-1749.9987725046533,10000,-11.268700546656916,-40,-360,0.0,0.0,0.0,0.0,0.0,0.0,0.0,0.0,1319.0,3.0,-4.0
1.6519594192504883,162.57067044467738,-1563.0104167571935,1329.062229517997,0.10720775888868717,-0.04310300726317385,-1.7056719369502216,0.00011348724365234375,-1.6817947467256835,1,1,1,1,-0.16257067044467738,1.5630104167571934,-1.229062229517997,-97.72780322115194,0.0,0.0,0.1,0.0,1,6053.059142444975,-18.493390268163786,-44.46607728274394,-2534.6961546003067,10000,-18.493390268163786,-40,-360,,,,,,,,,,,
1.656935453414917,162.47959867132516,-1562.0176270950835,1327.9208332664437,0.11337418259058321,-0.04700309451436329,-1.6950116401264579,0.0008728504180908203,-1.68201988344822,1,1,1,1,-0.16247959867132516,1.5620176270950836,-1.2279208332664437,-97.11701320479358,0.0,0.0,0.1,0.0,1,9264.323629645365,-12.350875203397267,-49.12253588199964,-1272.9966616737622,10000,-12.350875203397267,-40,-360,,,,,,,,,,,
1.6672537326812744,162.16961353180614,-1562.2581643025512,1328.2472875282613,0.09040550010430233,-0.010334315303219467,-1.6904630676985837,0.008247613906860352,-1.6827857584941133,1,1,1,1,-0.16216961353180614,1.5622581643025513,-1.2282472875282613,-96.85639920186681,0.0,0.0,0.1,0.0,1,4446.638751138385,-13.627496736084188,-53.73740100234393,-1415.0217814166,10000,-13.627496736084188,-40,-360,0.0,0.0,0.0,0.0,0.0,0.0,0.0,0.0,1319.0,2.0,2.0
1.6775269508361816,162.63866880091177,-1562.0611823879972,1327.6918181010662,0.11560513516812733,-0.011536717926990578,-1.673834255571386,0.008390188217163086,-1.6831266267024652,1,1,1,1,-0.16263866880091177,1.562061182387997,-1.2276918181010663,-95.90363844866242,0.0,0.0,0.1,0.0,1,6091.185105837495,-13.832025312168925,-52.9213697005681,-1299.1371477890766,10000,-13.832025312168925,-40,-360,0.0,0.0,0.0,0.0,0.0,0.0,0.0,0.0,1319.0,-5.0,-7.0
1.6880006790161133,163.442045396935,-1560.6092048805065,1326.7178997376045,0.1167305682998839,-0.02869549917808895,-1.6666945928040846,0.008170843124389648,-1.6826500337135057,1,1,1,1,-0.163442045396935,1.5606092048805065,-1.2267178997376045,-95.49456590494935,0.0,0.0,0.1,0.0,1,6790.386620795041,-11.585024655986903,-50.797340829953384,-1373.8142917079767,10000,-11.585024655986903,-40,-360,0.0,0.0,0.0,0.0,0.0,0.0,0.0,0.0,1339.0,4.0,7.0
1.6967735290527344,163.9282524732905,-1559.8804260878555,1325.956727338363,0.13031371540545675,-0.020760364517156286,-1.6551903286099132,0.0072078704833984375,-1.6814290589142273,1,1,1,1,-0.16392825247329051,1.5598804260878556,-1.225956727338363,-94.83542012021987,0.0,0.0,0.1,0.0,1,6734.852285486061,-8.096452934591717,-52.717807653873635,-1309.8077512253792,10000,-8.096452934591717,-40,-360,,,,,,,,,,,
1.7074689865112305,164.09478406619743,-1559.6653506885082,1326.0567788067383,0.10411462677392272,-0.0343090976446989,-1.6723500879351503,0.009164810180664062,-1.6796305161407417,1,1,1,1,-0.16409478406619743,1.559665350688508,-1.2260567788067382,-95.8186019070162,0.0,0.0,0.1,0.0,1,4934.302308245231,-6.3319736724513955,-54.38942067825741,-1575.2590632166757,10000,-6.3319736724513955,-40,-360,0.0,0.0,0.0,0.0,0.0,0.0,0.0,0.0,1339.0,-1.0,-5.0
1.7177152633666992,164.59907652297005,-1559.1596102762169,1325.5650318998967,0.11429838510504982,-0.013542080058239873,-1.661741129222498,0.008636236190795898,-1.677622872600597,1,1,1,1,-0.16459907652297004,1.5591596102762169,-1.2255650318998967,-95.21075334775269,0.0,0.0,0.1,0.0,1,6032.886119699675,-5.981900215168926,-53.87351318862143,-1339.2727414158858,10000,-5.981900215168926,-40,-360,0.0,0.0,0.0,0.0,0.0,0.0,0.0,0.0,1255.0,-3.0,0.0
1.7271461486816406,165.25728925805106,-1558.7122728475463,1325.1154468032016,0.12502819096693035,-0.011240053996060321,-1.6656945122291753,0.00786900520324707,-1.6757647746396953,1,1,1,1,-0.16525728925805105,1.5587122728475462,-1.2251154468032017,-95.43726550883403,0.0,0.0,0.1,0.0,1,6043.9685728077175,-6.310943562956424,-53.87073754605594,-1467.5952769456696,10000,-6.310943562956424,-40,-360,0.0,0.0,0.0,0.0,0.0,0.0,0.0,0.0,1255.0,5.0,8.0
1.7362773418426514,165.93597671172824,-1557.9696859155993,1324.4804849765683,0.1266672703244343,-0.014357858913781716,-1.6893131798052632,0.007070779800415039,-1.6747344220293015,1,1,1,1,-0.16593597671172824,1.5579696859155994,-1.2244804849765683,-96.79051547866635,0.0,0.0,0.1,0.0,1,6454.799620330308,-9.101626469261083,-52.51005164798361,-1674.1414939209321,10000,-9.101626469261083,-40,-360,0.0,0.0,0.0,0.0,0.0,0.0,0.0,0.0,1255.0,0.0,-7.0
1.7460410594940186,166.07947163598288,-1557.2332004194654,1323.6989469611713,0.11551434774245559,-0.025176931476068958,-1.696513080415204,0.007657766342163086,-1.6748713764531895,1,1,1,1,-0.16607947163598288,1.5572332004194656,-1.2236989469611712,-97.20303939652963,0.0,0.0,0.1,0.0,1,6670.905568038291,-12.05443255103256,-51.85178612740706,-1521.1274293696554,10000,-12.05443255103256,-40,-360,0.0,0.0,0.0,0.0,0.0,0.0,0.0,0.0,1297.0,-3.0,-1.0
1.7568061351776123,166.43233473763695,-1556.8205741374945,1323.475469402809,0.10951319400891493,-0.028957426309507085,-1.6972879314321905,0.008845806121826172,-1.6762889522174378,1,1,1,1,-0.16643233473763694,1.5568205741374945,-1.223475469402809,-97.24743508955437,0.0,0.0,0.1,0.0,1,5584.862573592018,-16.545892274458048,-51.72519896155609,-1464.9242926864506,10000,-16.545892274458048,-40,-360,,,,,,,,,,,
1.76727294921875,166.69785195455447,-1556.7357468055777,1323.3449851530486,0.09402541579233412,-0.036810156251571045,-1.694852455177791,0.007882356643676758,-1.6783520008018258,1,1,1,1,-0.16669785195455447,1.5567357468055778,-1.2233449851530487,-97.10789257907295,0.0,0.0,0.1,0.0,1,5448.961498540209,-18.719546763486257,-51.8958974048427,-1436.6337411827164,10000,-18.719546763486257,-40,-360,0.0,0.0,0.0,0.0,0.0,0.0,0.0,0.0,1297.0,-7.0,2.0
1.7771799564361572,166.64566534490933,-1557.4799170896204,1323.5409228869962,0.10153250254648104,0.0036732384943682196,-1.6721433424288212,0.00830388069152832,-1.679818048155524,1,1,1,1,-0.16664566534490932,1.5574799170896203,-1.2235409228869962,-95.80675626207025,0.0,0.0,0.1,0.0,1,4858.133466718997,-16.70508912322918,-54.113912275792885,-1240.0846919834114,10000,-16.70508912322918,-40,-360,0.0,0.0,0.0,0.0,0.0,0.0,0.0,0.0,1267.0,1.0,0.0
1.7877171039581299,167.0427748352629,-1556.3848668221583,1322.7746820910374,0.11486500926984267,-0.010077124291114526,-1.6781567751321662,0.008955001831054688,-1.6807470685580914,1,1,1,1,-0.1670427748352629,1.5563848668221583,-1.2227746820910375,-96.15130057635787,0.0,0.0,0.1,0.0,1,6556.302317366757,-15.282780127342784,-50.5276276973203,-1491.3399193616265,10000,-15.282780127342784,-40,-360,,,,,,,,,,,
1.7976887226104736,167.57196557009428,-1556.259528245663,1322.4932224201964,0.09919093807177795,-0.01587474245735573,-1.6712379062597442,0.008470535278320312,-1.6809188457841038,1,1,1,1,-0.16757196557009427,1.556259528245663,-1.2224932224201963,-95.75487859096364,0.0,0.0,0.1,0.0,1,5769.872819475721,-13.503109001040333,-52.97053975101869,-1376.6378346535655,10000,-13.503109001040333,-40,-360,0.0,0.0,0.0,0.0,0.0,0.0,0.0,0.0,1267.0,-3.0,-5.0
1.8078646659851074,167.64917729779648,-1556.062911666591,1322.1217885446636,0.09758840360540655,-0.011966498739501747,-1.658847144916782,0.008608102798461914,-1.680056160747975,1,1,1,1,-0.1676491772977965,1.556062911666591,-1.2221217885446636,-95.04494026105807,0.0,0.0,0.1,0.0,1,5935.227809156245,-9.080061371151407,-53.68253289282889,-1321.137259173334,10000,-9.080061371151407,-40,-360,0.0,0.0,0.0,0.0,0.0,0.0,0.0,0.0,1299.0,3.0,0.0
1.817969560623169,167.64919425137117,-1555.673129974454,1321.928151128145,0.10740436276191273,-0.009647235733104467,-1.655456997496631,0.008363723754882812,-1.6782526511455482,1,1,1,1,-0.16764919425137118,1.555673129974454,-1.221928151128145,-94.85069912195625,0.0,0.0,0.1,0.0,1,5607.2044867528575,-5.668630220592072,-53.96976413259092,-1393.9553111063271,10000,-5.668630220592072,-40,-360,0.0,0.0,0.0,0.0,0.0,0.0,0.0,0.0,1299.0,-2.0,8.0
1.827143669128418,167.608387711336,-1555.4415864861814,1321.7948050973575,0.11651843948097547,-0.008471142660605592,-1.6548695558853532,0.007349491119384766,-1.6760601313936798,1,1,1,1,-0.16760838771133602,1.5554415864861815,-1.2217948050973575,-94.81704119691966,0.0,0.0,0.1,0.0,1,5538.055770627457,-3.4625863071767515,-54.710487037135756,-1416.746411865416,10000,-3.4625863071767515,-40,-360,0.0,0.0,0.0,0.0,0.0,0.0,0.0,0.0,1299.0,-5.0,-6.0
1.8372244834899902,167.99761949049702,-1554.9968477035202,1321.5583590864337,0.1263722173618289,-0.002519537656370751,-1.6645390963676485,0.008491754531860352,-1.6736455114270699,1,1,1,1,-0.16799761949049702,1.55499684770352,-1.2215583590864336,-95.37106505638607,0.0,0.0,0.1,0.0,1,5704.893294606244,-4.218763863955122,-54.20171512054104,-1513.0247947708963,10000,-4.218763863955122,-40,-360,,,,,,,,,,,
1.847350835800171,168.23530582499555,-1554.753603013412,1321.3543598921387,0.12039131661497898,-0.013559984220510237,-1.667369261294921,0.008606433868408203,-1.6716058698826128,1,1,1,1,-0.16823530582499555,1.554753603013412,-1.2213543598921388,-95.53322156204473,0.0,0.0,0.1,0.0,1,5655.673924923702,-5.094974753026729,-54.40005007526114,-1457.0477451902993,10000,-5.094974753026729,-40,-360,0.0,0.0,0.0,0.0,0.0,0.0,0.0,0.0,1409.0,-7.0,1.0
1.858344316482544,168.25726087481786,-1554.4094833785414,1320.9046091841028,0.10852211774224411,-0.022325254866542004,-1.6577692391227001,0.009427785873413086,-1.669555321391218,1,1,1,1,-0.16825726087481785,1.5544094833785413,-1.2209046091841027,-94.98318080834447,0.0,0.0,0.1,0.0,1,6057.5666558077055,-5.0370033625590525,-54.17975255450375,-1350.0685606520663,10000,-5.0370033625590525,-40,-360,0.0,0.0,0.0,0.0,0.0,0.0,0.0,0.0,1409.0,11.0,2.0
1.867816686630249,168.35000007352943,-1554.0616718501358,1320.6621154756392,0.10156625904200323,-0.013266847537679712,-1.6391819433110164,0.007720470428466797,-1.6673342380146603,1,1,1,1,-0.16835000007352943,1.5540616718501359,-1.2206621154756392,-93.9182072057738,0.0,0.0,0.1,0.0,1,5780.821227576117,-3.4317882174467416,-54.38289074340109,-1239.6393314430404,10000,-3.4317882174467416,-40,-360,0.0,0.0,0.0,0.0,0.0,0.0,0.0,0.0,1409.0,-6.0,-4.0
1.8776886463165283,168.80732111728554,-1553.5081064392243,1320.2512603889977,0.08813947602830952,-0.03411704731718943,-1.6478946308551257,0.008239030838012695,-1.6647790904253776,1,1,1,1,-0.16880732111728555,1.5535081064392242,-1.2202512603889977,-94.41740743026746,0.0,0.0,0.1,0.0,1,6089.467254784993,-3.273881028960335,-54.04398679536189,-1492.097694435419,10000,-3.273881028960335,-40,-360,0.0,0.0,0.0,0.0,0.0,0.0,0.0,0.0,1328.0,-5.0,-5.0
1.888892412185669,168.59915163741385,-1552.663416409903,1319.8806502673126,0.10233618756719709,-0.03394329311921897,-1.6582980226768573,0.00952911376953125,-1.6623285590524475,1,1,1,1,-0.16859915163741385,1.552663416409903,-1.2198806502673125,-95.0134778742736,0.0,0.0,0.1,0.0,1,5922.740116318295,-3.03770796469414,-53.46499731315708,-1504.8164465483162,10000,-3.03770796469414,-40,-360,0.0,0.0,0.0,0.0,0.0,0.0,0.0,0.0,1328.0,0.0,0.0
1.8979194164276123,168.5985107672205,-1552.3439031997164,1319.9253016718312,0.11099027247078307,-0.030443417531376617,-1.6579119919220155,0.007383823394775391,-1.6607661811338574,1,1,1,1,-0.1685985107672205,1.5523439031997164,-1.2199253016718312,-94.99135994125892,0.0,0.0,0.1,0.0,1,5213.010513280429,-4.9323907174742905,-53.97702697464852,-1421.1884918750666,10000,-4.9323907174742905,-40,-360,0.0,0.0,0.0,0.0,0.0,0.0,0.0,0.0,1328.0,1.0,9.0
1.9070591926574707,168.76669261929385,-1551.9723828829256,1320.0582017485492,0.10872588798087127,-0.029302877964586322,-1.6644823447450652,0.007357120513916016,-1.6597772037796639,1,1,1,1,-0.16876669261929386,1.5519723828829255,-1.2200582017485493,-95.36781342793154,0.0,0.0,0.1,0.0,1,5017.444742160848,-7.42582151719391,-53.38461081270144,-1492.4793337820786,10000,-7.42582151719391,-40,-360,0.0,0.0,0.0,0.0,0.0,0.0,0.0,0.0,1295.0,6.0,-6.0
1.9176888465881348,168.7905053191875,-1551.6156415122296,1320.2467749518494,0.11314154621428787,-0.0259210362748829,-1.6631127356299131,0.00883626937866211,-1.6592891326031005,1,1,1,1,-0.1687905053191875,1.5516156415122295,-1.2202467749518493,-95.28934060605067,0.0,0.0,0.1,0.0,1,4951.06863472932,-9.142439618364545,-53.14669121370487,-1418.2647045983244,10000,-9.142439618364545,-40,-360,0.0,0.0,0.0,0.0,0.0,0.0,0.0,0.0,1295.0,-4.0,-1.0
1.9273343086242676,168.5054368936821,-1551.370024139349,1320.6694019905424,0.11333336909205877,-0.026633262013697964,-1.6614383384018259,0.007756233215332031,-1.6591933190954837,1,1,1,1,-0.16850543689368208,1.5513700241393489,-1.2206694019905424,-95.19340471165287,0.0,0.0,0.1,0.0,1,4440.770728650168,-9.650306291199298,-53.13710791740586,-1412.9754677067576,10000,-9.650306291199298,-40,-360,,,,,,,,,,,
1.9368348121643066,168.31215002729525,-1551.1410129225017,1320.7254056905927,0.11799861565207533,-0.027608996384383022,-1.6503572771316273,0.008014917373657227,-1.6589635908253964,1,1,1,1,-0.16831215002729524,1.5511410129225016,-1.2207254056905927,-94.55850666834462,0.0,0.0,0.1,0.0,1,5163.695087303279,-9.359218482178509,-53.23791936043795,-1318.10314027972,10000,-9.359218482178509,-40,-360,0.0,0.0,0.0,0.0,0.0,0.0,0.0,0.0,1257.0,-8.0,1.0
1.947690486907959,168.5797831590432,-1550.32394535685,1320.8513746399267,0.11500157605725952,-0.026579634389790708,-1.670353151394415,0.009293556213378906,-1.6591713683048983,1,1,1,1,-0.16857978315904318,1.5503239453568498,-1.2208513746399268,-95.70418587127662,0.0,0.0,0.1,0.0,1,5026.985887175487,-11.691799819689773,-51.726208896052746,-1594.063762107362,10000,-11.691799819689773,-40,-360,,,,,,,,,,,
1.9575493335723877,168.25803821589838,-1550.3778484230388,1320.851057233603,0.10899310484751681,-0.029980620793483518,-1.6624141097462595,0.008417129516601562,-1.6595426928664612,1,1,1,1,-0.16825803821589838,1.5503778484230388,-1.2208510572336029,-95.24931229145872,0.0,0.0,0.1,0.0,1,5285.483030669095,-11.230668487265914,-53.45931439436538,-1359.4781554629817,10000,-11.230668487265914,-40,-360,0.0,0.0,0.0,0.0,0.0,0.0,0.0,0.0,1257.0,-3.0,0.0
1.9670820236206055,168.4245021678338,-1549.8737590390392,1320.6825247655288,0.10838939259924937,-0.021226642001440553,-1.666602826667772,0.008037567138671875,-1.6600893404939434,1,1,1,1,-0.1684245021678338,1.5498737590390392,-1.2206825247655289,-95.48930809263642,0.0,0.0,0.1,0.0,1,5600.264979784337,-12.884828512899933,-51.94841925835203,-1470.0707179784372,10000,-12.884828512899933,-40,-360,,,,,,,,,,,
1.9776215553283691,168.35665875110004,-1549.3632068696004,1320.4737770788845,0.09869622533724827,-0.030119265126265976,-1.665504639795187,0.009091854095458984,-1.6608056215052613,1,1,1,1,-0.16835665875110004,1.5493632068696004,-1.2204737770788845,-95.42638661972063,0.0,0.0,0.1,0.0,1,5648.636422160546,-12.765127716667095,-51.99118684602902,-1422.4356653399261,10000,-12.765127716667095,-40,-360,0.0,0.0,0.0,0.0,0.0,0.0,0.0,0.0,1345.0,-2.0,5.0
1.9873480796813965,168.19434508332665,-1548.631506183358,1320.0243810262232,0.11429663474146884,-0.021022268841619028,-1.6617314612809493,0.00743556022644043,-1.661370358476895,1,1,1,1,-0.16819434508332665,1.548631506183358,-1.2200243810262232,-95.21019941550537,0.0,0.0,0.1,0.0,1,6147.572440469195,-12.179944902019155,-51.47020808485698,-1394.864553358836,10000,-12.179944902019155,-40,-360,0.0,0.0,0.0,0.0,0.0,0.0,0.0,0.0,1345.0,0.0,-1.0
1.997532844543457,167.94428343728,-1548.1379995767102,1319.7991802298466,0.11710631753535704,-0.022191818110119218,-1.6512892505494425,0.008606910705566406,-1.6614295632554563,1,1,1,1,-0.16794428343728002,1.5481379995767102,-1.2197991802298467,-94.61190481180381,0.0,0.0,0.1,0.0,1,5712.375862631888,-10.32511898213358,-52.392863033093604,-1331.0768946059438,10000,-10.32511898213358,-40,-360,0.0,0.0,0.0,0.0,0.0,0.0,0.0,0.0,1276.0,1.0,4.0
2.0076744556427,168.09808793106706,-1547.3253543988278,1319.6436932051174,0.11240398102156299,-0.017104307306682633,-1.6507174079523055,0.008594989776611328,-1.660942404852232,1,1,1,1,-0.16809808793106706,1.547325354398828,-1.2196436932051173,-94.57914064444206,0.0,0.0,0.1,0.0,1,5574.08578943077,-9.315798580161484,-51.96662096973124,-1413.8450933805022,10000,-9.315798580161484,-40,-360,0.0,0.0,0.0,0.0,0.0,0.0,0.0,0.0,1276.0,0.0,3.0
2.016541004180908,168.1078200008737,-1546.1226166213619,1319.1827218207497,0.10047347730040951,-0.03415426465881969,-1.6676326658359466,0.007304668426513672,-1.6606366701837108,1,1,1,1,-0.16810782000087368,1.546122616621362,-1.2191827218207498,-95.54831353055009,0.0,0.0,0.1,0.0,1,6252.285887876793,-9.331560578235091,-50.660582108203506,-1597.3789247738837,10000,-9.331560578235091,-40,-360,,,,,,,,,,,
2.027717351913452,168.06864782768798,-1545.0964157861365,1319.231774832423,0.1071279075382071,-0.04350669609123782,-1.6636102523730705,0.009716510772705078,-1.6605361605692717,1,1,1,1,-0.168068647827688,1.5450964157861364,-1.219231774832423,-95.31784621567068,0.0,0.0,0.1,0.0,1,5204.955229001637,-10.152934132418151,-51.414330341476244,-1398.815084183893,10000,-10.152934132418151,-40,-360,0.0,0.0,0.0,0.0,0.0,0.0,0.0,0.0,1291.0,0.0,4.0
2.037646532058716,168.28868111964454,-1543.8807441755516,1318.9824559308797,0.11589489957084716,-0.038858446511553166,-1.6716696618651703,0.008390426635742188,-1.6609076375496679,1,1,1,1,-0.16828868111964454,1.5438807441755515,-1.2189824559308797,-95.77961636493568,0.0,0.0,0.1,0.0,1,5756.386569930928,-12.204671936959734,-50.35093291375205,-1506.4002432717734,10000,-12.204671936959734,-40,-360,0.0,0.0,0.0,0.0,0.0,0.0,0.0,0.0,1291.0,0.0,-1.0
2.0470128059387207,168.59418761243447,-1542.5547136493078,1318.7605871992316,0.11492076053313102,-0.03158981569756849,-1.6707739160079744,0.007271766662597656,-1.6616043202101587,1,1,1,1,-0.16859418761243447,1.5425547136493079,-1.2187605871992315,-95.72829390780203,0.0,0.0,0.1,0.0,1,5727.69765972742,-13.652429477245178,-49.61739650775903,-1427.7168648111217,10000,-13.652429477245178,-40,-360,0.0,0.0,0.0,0.0,0.0,0.0,0.0,0.0,1291.0,0.0,2.0
2.0572938919067383,168.22870829558377,-1541.128289259386,1318.684814038751,0.11412266598259144,-0.02318636892137979,-1.6622639961951235,0.008382081985473633,-1.662324369582857,1,1,1,1,-0.16822870829558378,1.541128289259386,-1.218684814038751,-95.2407114185309,0.0,0.0,0.1,0.0,1,5418.189128119007,-12.061349869625055,-49.779422591916386,-1357.4761805623593,10000,-12.061349869625055,-40,-360,0.0,0.0,0.0,0.0,0.0,0.0,0.0,0.0,1305.0,0.0,-2.0
2.0669074058532715,168.31037886077272,-1539.9185643889064,1318.753712048103,0.10874898490813033,-0.01678155835599273,-1.663158875458822,0.007948160171508789,-1.6628534141238847,1,1,1,1,-0.1683103788607727,1.5399185643889064,-1.218753712048103,-95.2919842235146,0.0,0.0,0.1,0.0,1,5149.350803669588,-12.56851486536462,-50.020555680469556,-1437.3856352548237,10000,-12.56851486536462,-40,-360,,,,,,,,,,,
2.077061891555786,168.1034904239884,-1537.9043873852197,1318.6173135302429,0.11531104716914367,-0.020400682073703186,-1.6809060550814858,0.008268594741821289,-1.6638498548152771,1,1,1,1,-0.1681034904239884,1.5379043873852196,-1.218617313530243,-96.30882271415382,0.0,0.0,0.1,0.0,1,5505.072324794463,-13.250169666696996,-48.14465869786831,-1594.7742032991562,10000,-13.250169666696996,-40,-360,0.0,0.0,0.0,0.0,0.0,0.0,0.0,0.0,1305.0,5.0,0.0
2.0877442359924316,167.91149307604883,-1536.2383294656493,1318.6223811682921,0.12419616199964871,-0.011412569897629829,-1.680639399013758,0.008222341537475586,-1.665404282422936,1,1,1,1,-0.16791149307604883,1.5362383294656492,-1.2186223811682921,-96.29354444689146,0.0,0.0,0.1,0.0,1,5264.890696209968,-15.006475093643044,-48.65787811906356,-1442.258483728799,10000,-15.006475093643044,-40,-360,,,,,,,,,,,
2.0975496768951416,167.6021594947688,-1534.1503225993786,1318.314216961013,0.14437485036072809,-0.023059950685723418,-1.6700781157726667,0.0077915191650390625,-1.6667753977676327,1,1,1,1,-0.1676021594947688,1.5341503225993787,-1.218314216961013,-95.68842749093469,0.0,0.0,0.1,0.0,1,5843.490860700621,-14.454347117288226,-47.39790177276879,-1342.6970521874757,10000,-14.454347117288226,-40,-360,0.0,0.0,0.0,0.0,0.0,0.0,0.0,0.0,1301.0,-2.0,3.0
