time,x_pos,y_pos,z_pos,x_rot,y_rot,z_rot,delta_time,z_filtered,x_pos_est,y_pos_est,z_pos_est,z_rot_est,x_error,y_error,z_error,yaw_error,x_setpoint,y_setpoint,z_setpoint,yaw_setpoint,vicon_available,thrust_cal,pitch_cal,roll_cal,yaw_cal,thrust_lim,pitch_lim,roll_lim,yaw_lim,gyro_x,gyro_y,acc_x,acc_y,acc_z,stateEstimate_az,stateEstimate_vz,stateEstimate_yaw,range_zrange,motion_deltaX,motion_deltaY
1.3213279247283936,-597.5370013717815,-1805.7301520666897,646.9124275840558,0.06170367783157967,0.014590072638781289,3.0042313442182427,0.0002961158752441406,2.865393450548115,1,1,1,1,0.5975370013717815,1.8057301520666897,-0.5469124275840558,172.12977670461936,0.0,0.0,0.1,0.0,1,-9124646.535351465,-42096.39409370424,-1808.8798315829292,261288.80676211673,10000,-40,-40,360,0.0,0.0,0.0,0.0,0.0,0.0,0.0,0.0,571.0,0.0,0.0
1.3239498138427734,-597.570587166003,-1805.335186814944,647.1550051736187,0.06755208804665454,0.020030175940859887,3.016076170973312,0.00011587142944335938,2.8710107819402535,1,1,1,1,0.597570587166003,1.805335186814944,-0.5471550051736187,172.80843528674848,0.0,0.0,0.1,0.0,1,40530.89441176871,-58.94281651946611,-97.568390907246,3001.420107568839,40530.89441176871,-40,-40,360,,,,,,,,,,,
1.3265583515167236,-597.2421075372438,-1805.5296126143187,647.7368545872295,0.059177231744660816,0.010851630599606282,3.0156969549194437,8.96453857421875e-05,2.876674635514838,1,1,1,1,0.5972421075372438,1.8055296126143188,-0.5477368545872294,172.78670780733822,0.0,0.0,0.1,0.0,1,35082.768433243786,-62.632393760904016,-90.64333152671605,2579.221480209314,35082.768433243786,-40,-40,360,,,,,,,,,,,
1.328991174697876,-596.6407835251098,-1805.4688672944333,647.8048811365055,0.04647930812073147,0.013738372487443687,3.0084098736778095,0.00011181831359863281,2.882001807555829,1,1,1,1,0.5966407835251097,1.8054688672944332,-0.5478048811365055,172.36918880722362,0.0,0.0,0.1,0.0,1,39330.0548323476,-59.399565242818866,-88.76863864223637,2329.164377259148,39330.0548323476,-40,-40,360,,,,,,,,,,,
1.338273286819458,-596.124765078004,-1805.2834495821928,647.4123405701914,0.05695545077584048,0.027236132962851885,3.0075123672579336,0.00028777122497558594,2.9013094893725278,1,1,1,1,0.5961247650780039,1.8052834495821928,-0.5474123405701914,172.31776547727884,0.0,0.0,0.1,0.0,1,41716.82053557519,-59.684666991050044,-89.85026498886202,2576.4495768193087,41716.82053557519,-40,-40,360,0.0,0.0,0.0,0.0,0.0,0.0,0.0,0.0,571.0,0.0,-1.0
1.3421049118041992,-595.8510923114109,-1804.8728471139839,647.801183774638,0.0670802742531333,0.03127550313874174,3.0200445645537983,9.465217590332031e-05,2.909115040069359,1,1,1,1,0.5958510923114109,1.8048728471139839,-0.547801183774638,173.03580749035714,0.0,0.0,0.1,0.0,1,36745.09823072524,-56.731443904672055,-88.47722977838603,2876.460545688705,36745.09823072524,-40,-40,360,,,,,,,,,,,
1.3451807498931885,-595.7638959425138,-1804.8287697680241,647.6746355169665,0.055829995791030214,0.009584711417436944,3.0195655567857993,9.322166442871094e-05,2.915256886989836,1,1,1,1,0.5957638959425139,1.804828769768024,-0.5476746355169665,173.00836236689682,0.0,0.0,0.1,0.0,1,40644.372578386065,-58.43741435253362,-87.64934396701216,2581.7391430261127,40644.372578386065,-40,-40,360,0.0,0.0,0.0,0.0,0.0,0.0,0.0,0.0,571.0,0.0,1.0
1.3483281135559082,-594.8675121227157,-1804.8622827535796,647.0205594381864,0.07294272298287116,0.006733130229369633,3.0254813557132327,0.00010037422180175781,2.92141121134589,1,1,1,1,0.5948675121227156,1.8048622827535796,-0.5470205594381864,173.34731267788678,0.0,0.0,0.1,0.0,1,42492.115634445494,-57.39008512400345,-80.55547027433344,2761.3713413003784,42492.115634445494,-40,-40,360,,,,,,,,,,,
1.3520143032073975,-594.7911998785897,-1804.8277090216004,647.2981937005706,0.09614726467567286,0.0007138207908794602,3.0312069449250956,0.00010848045349121094,2.928441122029592,1,1,1,1,0.5947911998785897,1.8048277090216005,-0.5472981937005705,173.67536477495216,0.0,0.0,0.1,0.0,1,36538.85388670527,-57.87296779524758,-84.74028446264802,2738.4848254651156,36538.85388670527,-40,-40,360,0.0,0.0,0.0,0.0,0.0,0.0,0.0,0.0,571.0,0.0,-2.0
1.3582947254180908,-594.7047293558694,-1804.6392856537814,647.1679624082885,0.07512915974690147,-0.010224835701759595,3.0271039537158653,0.00011157989501953125,2.9397538676943618,1,1,1,1,0.5947047293558694,1.8046392856537814,-0.5471679624082886,173.44028069528397,0.0,0.0,0.1,0.0,1,37938.11063735422,-57.13749683867035,-81.39834547193996,2545.450934164676,37938.11063735422,-40,-40,360,,,,,,,,,,,
1.3611226081848145,-594.4735704951925,-1805.0191654029863,647.2452457915575,0.06711490529333022,-0.012067166317346691,3.026684481257452,9.322166442871094e-05,2.9446896810906256,1,1,1,1,0.5944735704951924,1.8050191654029863,-0.5472452457915575,173.41624669379493,0.0,0.0,0.1,0.0,1,36047.74234924084,-59.9641062682345,-76.96150905593424,2588.5370732748024,36047.74234924084,-40,-40,360,,,,,,,,,,,
1.3691306114196777,-594.0146413217008,-1805.192750407891,646.6321052987447,0.07959131246119032,-0.007983147329542705,3.0229774948994526,0.00029158592224121094,2.9573169440908456,1,1,1,1,0.5940146413217008,1.805192750407891,-0.5466321052987447,173.20385202076898,0.0,0.0,0.1,0.0,1,37104.36706756983,-57.88416282738772,-72.23684668161593,2558.1547780427463,37104.36706756983,-40,-40,360,0.0,0.0,0.0,0.0,0.0,0.0,0.0,0.0,572.0,0.0,0.0
1.372983694076538,-593.8306412548393,-1805.4975875872913,646.2110736073731,0.07991932111973582,-0.0023758679882978527,3.0206124859898456,9.298324584960938e-05,2.963040660295201,1,1,1,1,0.5938306412548393,1.8054975875872912,-0.5462110736073731,173.06834699173766,0.0,0.0,0.1,0.0,1,37249.50187344077,-59.06085273270181,-68.49698922990932,2543.3710187276315,37249.50187344077,-40,-40,360,,,,,,,,,,,
1.376190423965454,-593.3709943663926,-1805.9466357791923,645.4379612731356,0.08384366568713666,0.005554184448634873,3.020417326055198,0.00021791458129882812,2.967547897826686,1,1,1,1,0.5933709943663925,1.8059466357791922,-0.5454379612731356,173.0571651511523,0.0,0.0,0.1,0.0,1,39431.60621992368,-60.13402122432596,-63.266705714951755,2590.6304872946453,39431.60621992368,-40,-40,360,0.0,0.0,0.0,0.0,0.0,0.0,0.0,0.0,572.0,0.0,0.0
1.3802638053894043,-592.7516629153232,-1806.1645160064832,644.5844821125652,0.0761455821720776,0.017413327665398375,3.020184074486077,0.00021386146545410156,2.9728517552218143,1,1,1,1,0.5927516629153232,1.8061645160064832,-0.5445844821125652,173.04380082067686,0.0,0.0,0.1,0.0,1,37716.29693891036,-58.57123091837665,-59.56447558391015,2590.7319246135917,37716.29693891036,-40,-40,360,,,,,,,,,,,
1.3881559371948242,-593.1895894633466,-1806.4407795124562,644.2311960741844,0.09001563764265354,0.01732672462535915,3.023281955731404,0.00021004676818847656,2.981667274638241,1,1,1,1,0.5931895894633465,1.8064407795124562,-0.5442311960741844,173.22129634146685,0.0,0.0,0.1,0.0,1,33792.06246110878,-59.65244835212822,-57.05025588162526,2632.0628807673556,33792.06246110878,-40,-40,360,0.0,0.0,0.0,0.0,0.0,0.0,0.0,0.0,572.0,0.0,-1.0
1.3919246196746826,-593.7439880082865,-1806.843228459065,643.9061836806188,0.06798191190726369,0.02554690675848211,3.0233182202399176,9.369850158691406e-05,2.9855592036006797,1,1,1,1,0.5937439880082864,1.806843228459065,-0.5439061836806188,173.22337414475078,0.0,0.0,0.1,0.0,1,34860.57092713663,-61.72618003436247,-55.58034475103829,2599.1780321305923,34860.57092713663,-40,-40,360,,,,,,,,,,,
1.3960962295532227,-593.1688333826129,-1807.3300438272042,642.7269616030784,0.06280853183425902,0.0028394967401846587,3.014317349460988,9.1552734375e-05,2.9894558084313294,1,1,1,1,0.5931688333826128,1.8073300438272042,-0.5427269616030784,172.70766223717547,0.0,0.0,0.1,0.0,1,37669.47126813048,-61.45000122517685,-45.63432423033828,2405.1468430588257,37669.47126813048,-40,-40,360,,,,,,,,,,,
1.4002723693847656,-593.370291547772,-1807.6995905248664,642.0107427635156,0.077371280555927,-0.0027073048323270447,3.0195177211234103,0.0004253387451171875,2.992993347369815,1,1,1,1,0.593370291547772,1.8076995905248663,-0.5420107427635156,173.0056215853317,0.0,0.0,0.1,0.0,1,35430.11191490089,-61.92746435313981,-46.113859151423355,2701.2276978082677,35430.11191490089,-40,-40,360,0.0,0.0,0.0,0.0,0.0,0.0,0.0,0.0,568.0,0.0,1.0
1.405919075012207,-593.4642384193389,-1808.158794504183,641.1953478586889,0.09502516514128294,0.018629654133116836,3.020226883698798,9.441375732421875e-05,2.997079752144295,1,1,1,1,0.5934642384193389,1.808158794504183,-0.541195347858689,173.04625360789007,0.0,0.0,0.1,0.0,1,34398.481957593984,-62.323773837765934,-41.16150545196791,2606.5506198032617,34398.481957593984,-40,-40,360,,,,,,,,,,,
1.4097955226898193,-593.5823282885923,-1808.2092273766164,639.7169131098491,0.07338986083657505,0.02095910047880704,3.0197532725153113,0.00021123886108398438,2.9996388647024403,1,1,1,1,0.5935823282885923,1.8082092273766164,-0.539716913109849,173.01911768594607,0.0,0.0,0.1,0.0,1,38912.99489739046,-61.27499095227376,-38.892320797201684,2584.8570225480294,38912.99489739046,-40,-38.892320797201684,360,0.0,0.0,0.0,0.0,0.0,0.0,0.0,0.0,568.0,0.0,-1.0
1.4168121814727783,-593.8159892831147,-1808.7369733977523,639.0366803235818,0.07383310640204595,-0.0030562727632861206,3.020661902278305,9.775161743164062e-05,3.0034506832806187,1,1,1,1,0.5938159892831147,1.8087369733977523,-0.5390366803235818,173.0711783365056,0.0,0.0,0.1,0.0,1,32977.7858824996,-63.31931292406183,-34.52351728509365,2607.235368877126,32977.7858824996,-40,-34.52351728509365,360,,,,,,,,,,,
1.4190278053283691,-593.3781683117543,-1809.3628174442401,637.6138959475176,0.06704657497742782,0.005472698306784307,3.019499658172342,8.606910705566406e-05,3.004581545820713,1,1,1,1,0.5933781683117543,1.8093628174442402,-0.5376138959475175,173.00458665446996,0.0,0.0,0.1,0.0,1,44750.211377682885,-67.29840399205555,-27.66791380212027,2549.7269559325046,44750.211377682885,-40,-27.66791380212027,360,,,,,,,,,,,
1.4252145290374756,-593.5458836253885,-1809.479007889644,636.3123751942233,0.055410576568287004,0.033711170270145224,3.027356026365359,8.535385131835938e-05,3.0073333664070683,1,1,1,1,0.5935458836253884,1.8094790078896439,-0.5363123751942233,173.45472339423065,0.0,0.0,0.1,0.0,1,34983.779435289754,-62.71316122725321,-30.706985816703146,2710.8955501966157,34983.779435289754,-40,-30.706985816703146,360,0.0,0.0,0.0,0.0,0.0,0.0,0.0,0.0,568.0,0.0,1.0
1.427640438079834,-594.1518263667662,-1810.1511990012966,636.250322259234,0.057877164684811716,0.01458636412559501,3.0163506423497624,0.00011229515075683594,3.0083543224242684,1,1,1,1,0.5941518263667661,1.8101511990012966,-0.5362503222592341,172.82416133821621,0.0,0.0,0.1,0.0,1,32532.051303966273,-69.02102997311006,-33.58048001312117,2207.87381465704,32532.051303966273,-40,-33.58048001312117,360,,,,,,,,,,,
1.4320454597473145,-593.2992153643509,-1810.5244222064593,634.3282727788213,0.08253671453279346,0.013825790681269795,3.022135935367154,0.00010514259338378906,3.0099813615829905,1,1,1,1,0.5932992153643508,1.8105244222064594,-0.5343282727788213,173.15563421135926,0.0,0.0,0.1,0.0,1,39385.79087085244,-64.0072517220468,-22.90801723822962,2710.5940035615818,39385.79087085244,-40,-22.90801723822962,360,0.0,0.0,0.0,0.0,0.0,0.0,0.0,0.0,568.0,0.0,-1.0
1.4371802806854248,-593.2756576609156,-1811.3080244201908,633.5693698117074,0.07141111848894555,-0.001333917458685401,3.0135527576449443,0.00010061264038085938,3.011575087687039,1,1,1,1,0.5932756576609156,1.811308024420191,-0.5335693698117073,172.66385435306594,0.0,0.0,0.1,0.0,1,34046.44825527454,-66.45385709689447,-24.47398597703173,2446.0570041644787,34046.44825527454,-40,-24.47398597703173,360,,,,,,,,,,,
1.4398319721221924,-592.9704940198441,-1811.7541921743707,632.3687095256734,0.09296248906735065,0.02839977042154929,3.024166750712293,0.00010275840759277344,3.012332226875855,1,1,1,1,0.592970494019844,1.8117541921743707,-0.5323687095256734,173.27199135960612,0.0,0.0,0.1,0.0,1,40213.823962650094,-66.66029050019202,-21.048337103822057,2942.471291917986,40213.823962650094,-40,-21.048337103822057,360,,,,,,,,,,,
1.445326328277588,-592.858144308361,-1812.42798355491,631.1142933153437,0.0802079535134926,0.026006506044139625,3.013655413693384,0.0003027915954589844,3.0135896454342532,1,1,1,1,0.592858144308361,1.81242798355491,-0.5311142933153438,172.66973611138303,0.0,0.0,0.1,0.0,1,35581.051196853216,-66.38239312991185,-21.016272194802653,2425.4044150537025,35581.051196853216,-40,-21.016272194802653,360,0.0,0.0,0.0,0.0,0.0,0.0,0.0,0.0,568.0,0.0,1.0
1.4481234550476074,-591.6096096336514,-1812.7275687046542,628.853280343903,0.034763051289103016,0.013780488250271063,3.0076849246201087,9.751319885253906e-05,3.014141631966306,1,1,1,1,0.5916096096336514,1.8127275687046542,-0.528853280343903,172.32765228585538,0.0,0.0,0.1,0.0,1,46680.35701856385,-65.10819394953086,-10.595848180975,2401.74837266069,46680.35701856385,-40,-10.595848180975,360,,,,,,,,,,,
1.4513652324676514,-592.7683893133932,-1813.3320763086397,629.3470183910883,0.05303650313806405,0.008240932266245313,3.002859871087193,0.00010514259338378906,3.0146459578231566,1,1,1,1,0.5927683893133932,1.8133320763086396,-0.5293470183910883,172.0511970824946,0.0,0.0,0.1,0.0,1,28530.402730944825,-69.36489679899695,-26.018440235771383,2453.1405899389656,28530.402730944825,-40,-26.018440235771383,360,0.0,0.0,0.0,0.0,0.0,0.0,0.0,0.0,571.0,0.0,-2.0
1.4547960758209229,-592.1411276891607,-1813.883959584907,627.6721006289484,0.0711442888887573,0.03186620236220914,3.011344390739131,0.00012993812561035156,3.0150433124423137,1,1,1,1,0.5921411276891607,1.813883959584907,-0.5276721006289484,172.53732424974646,0.0,0.0,0.1,0.0,1,40960.65170254814,-67.65899264823472,-12.880229012623001,2801.10302919407,40960.65170254814,-40,-12.880229012623001,360,,,,,,,,,,,
1.4591379165649414,-591.836805951008,-1814.4403417533158,626.4950278148569,0.045630726928081025,0.05087213914855281,2.9991583142033718,9.679794311523438e-05,3.0153055797794917,1,1,1,1,0.5918368059510081,1.8144403417533157,-0.5264950278148569,171.83911349542407,0.0,0.0,0.1,0.0,1,36534.077431342375,-67.70757066546888,-13.148642748060073,2336.159813750618,36534.077431342375,-40,-13.148642748060073,360,,,,,,,,,,,
1.4621965885162354,-591.9785950017953,-1814.9296895452292,625.8121995784953,0.03264484359590744,0.030326914741978725,2.996672487777213,7.915496826171875e-05,3.015364353287053,1,1,1,1,0.5919785950017953,1.8149296895452292,-0.5258121995784953,171.69668613260308,0.0,0.0,0.1,0.0,1,35902.17966579752,-69.05986374041518,-13.904976425841511,2505.318376329319,35902.17966579752,-40,-13.904976425841511,360,0.0,0.0,0.0,0.0,0.0,0.0,0.0,0.0,571.0,0.0,0.0
1.4673566818237305,-591.539487687283,-1815.2590451206247,625.2424372910349,0.030958601780891506,0.015743998021559655,2.990194365432876,9.393692016601562e-05,3.0150739310254417,1,1,1,1,0.591539487687283,1.8152590451206247,-0.5252424372910349,171.32551706310318,0.0,0.0,0.1,0.0,1,33030.09682109687,-67.21410993900238,-8.234010335047731,2462.2354102903655,33030.09682109687,-40,-8.234010335047731,360,,,,,,,,,,,
1.471097469329834,-591.1778770591249,-1815.983300906431,624.5198683210606,0.04326398632120931,0.00702818894861631,2.984270084565704,0.00021576881408691406,3.014644861873963,1,1,1,1,0.5911778770591248,1.815983300906431,-0.5245198683210606,170.98608077276413,0.0,0.0,0.1,0.0,1,35380.61423733433,-70.45871901215635,-5.197833659635148,2428.6909958326596,35380.61423733433,-40,-5.197833659635148,360,0.0,0.0,0.0,0.0,0.0,0.0,0.0,0.0,571.0,0.0,1.0
1.478705644607544,-590.6397869749418,-1816.5615144556548,623.7353782118129,0.060219967395324064,0.013454290094627282,2.988457714214348,0.0003085136413574219,3.0130752506402403,1,1,1,1,0.5906397869749418,1.8165615144556548,-0.5237353782118128,171.22601427779526,0.0,0.0,0.1,0.0,1,33159.40248713177,-68.73524860221612,-2.2108114981118945,2615.740624763828,33159.40248713177,-40,-2.2108114981118945,360,,,,,,,,,,,
1.4812040328979492,-590.7085119109362,-1816.7534073417376,623.0502178389369,0.045358857987598804,0.01738567207927743,2.988966083022987,7.62939453125e-05,3.012496451982242,1,1,1,1,0.5907085119109362,1.8167534073417375,-0.5230502178389369,171.25514166496637,0.0,0.0,0.1,0.0,1,36876.04302809041,-69.24542631168073,-3.1864620949744307,2586.4595385973225,36876.04302809041,-40,-3.1864620949744307,360,,,,,,,,,,,
1.4866573810577393,-590.2650843236189,-1817.320534067308,622.1466059497935,0.06992886472942678,0.027057142052386456,2.9767318715078463,0.0001842975616455078,3.010892874831491,1,1,1,1,0.5902650843236189,1.817320534067308,-0.5221466059497936,170.55417297947847,0.0,0.0,0.1,0.0,1,34762.17476369506,-69.99645707695315,1.8217278704484219,2365.6891554205013,34762.17476369506,-40,1.8217278704484219,360,0.0,0.0,0.0,0.0,0.0,0.0,0.0,0.0,571.0,0.0,0.0
1.4894607067108154,-590.4836976721926,-1817.7222255518102,622.1767724744567,0.08088909968793602,0.02266588381083027,2.9755337113657334,8.988380432128906e-05,3.009981495868188,1,1,1,1,0.5904836976721927,1.8177222255518102,-0.5221767724744567,170.4855234601546,0.0,0.0,0.1,0.0,1,31393.89212482001,-71.51807295687965,-0.19812209102821576,2520.6931001023204,31393.89212482001,-40,-0.19812209102821576,360,,,,,,,,,,,
1.4923264980316162,-590.2322552698007,-1817.4841652146067,621.6584917746204,0.09438037017731257,0.02281159019281761,2.9816229760436466,7.319450378417969e-05,3.008978532845436,1,1,1,1,0.5902322552698007,1.8174841652146068,-0.5216584917746204,170.8344126265371,0.0,0.0,0.1,0.0,1,34384.44814774861,-66.37511029863947,3.911588224674503,2745.7552610377697,34384.44814774861,-40,3.911588224674503,360,0.0,0.0,0.0,0.0,0.0,0.0,0.0,0.0,569.0,0.0,0.0
1.4970014095306396,-590.4456031042602,-1817.500899875372,621.1987234398794,0.0879665199065988,0.028642568906633584,2.984932899191874,8.463859558105469e-05,3.0072301748627517,1,1,1,1,0.5904456031042602,1.817500899875372,-0.5211987234398794,171.0240572534432,0.0,0.0,0.1,0.0,1,33159.394805168224,-68.79616910107399,2.29962763072794,2626.0835839182523,33159.394805168224,-40,2.29962763072794,360,,,,,,,,,,,
1.4992716312408447,-590.5353017527722,-1817.1553259441914,620.6174142846991,0.07791149973498018,0.042311814017617175,2.9992114538138903,9.226799011230469e-05,3.0063775702451263,1,1,1,1,0.5905353017527721,1.8171553259441915,-0.5206174142846991,171.84215817083174,0.0,0.0,0.1,0.0,1,35732.08900164094,-65.42650832843671,2.1258685104273294,3118.4020642319024,35732.08900164094,-40,2.1258685104273294,360,,,,,,,,,,,
1.5057353973388672,-590.4680460916074,-1817.1726019265038,620.4453183400173,0.09527442888033393,0.028973399666218463,2.992782009766731,8.177757263183594e-05,3.0041009482549814,1,1,1,1,0.5904680460916074,1.8171726019265038,-0.5204453183400173,171.473778162314,0.0,0.0,0.1,0.0,1,31650.568142253047,-68.44479155499506,2.8575182420574183,2486.5751886959592,31650.568142253047,-40,2.8575182420574183,360,0.0,0.0,0.0,0.0,0.0,0.0,0.0,0.0,569.0,0.0,-2.0
1.5086443424224854,-590.535289380668,-1817.1264146440371,620.1179739918966,0.07852001264045773,0.035496270990461765,2.981164205163005,0.0002067089080810547,3.0030969295791508,1,1,1,1,0.590535289380668,1.8171264146440371,-0.5201179739918966,170.80812699131283,0.0,0.0,0.1,0.0,1,33348.02994891925,-68.07752374226135,1.8373598271212135,2219.243646010813,33348.02994891925,-40,1.8373598271212135,360,,,,,,,,,,,
1.5117435455322266,-590.7705497855513,-1816.7873944631215,619.8469917342611,0.07667300604372473,0.02692526245739922,2.9790808187048654,9.393692016601562e-05,3.002038121797257,1,1,1,1,0.5907705497855513,1.8167873944631214,-0.5198469917342611,170.68875774016675,0.0,0.0,0.1,0.0,1,32481.00008510982,-66.1921823417438,0.33285948640333807,2502.6769525190125,32481.00008510982,-40,0.33285948640333807,360,0.0,0.0,0.0,0.0,0.0,0.0,0.0,0.0,569.0,-1.0,3.0
1.5168042182922363,-590.7994841193455,-1816.142947915356,619.0645504825355,0.061120562664632797,0.0169366284640098,2.971029693876716,8.416175842285156e-05,3.000277449685392,1,1,1,1,0.5907994841193455,1.816142947915356,-0.5190645504825355,170.22746226718078,0.0,0.0,0.1,0.0,1,33776.250993087655,-65.62138375827115,2.1944425006081065,2416.5018400700574,33776.250993087655,-40,2.1944425006081065,360,,,,,,,,,,,
1.5191967487335205,-590.7384056693304,-1815.5492889962745,618.4212337887117,0.06894598449007155,0.03334203776119717,2.9731205461800996,8.678436279296875e-05,2.9994332460051463,1,1,1,1,0.5907384056693304,1.8155492889962745,-0.5184212337887116,170.34725927974986,0.0,0.0,0.1,0.0,1,35588.73127478539,-62.93702738244368,2.730991643260067,2630.3682064588943,35588.73127478539,-40,2.730991643260067,360,,,,,,,,,,,
1.5255775451660156,-591.0025783377416,-1814.9046366656894,618.4524992210444,0.09364439200752102,0.032305757553118555,2.9793409006626175,7.843971252441406e-05,2.9972016764204255,1,1,1,1,0.5910025783377416,1.8149046366656894,-0.5184524992210444,170.70365933867345,0.0,0.0,0.1,0.0,1,30677.193343525138,-66.26692818594886,1.7530451897022044,2644.4033415465265,30677.193343525138,-40,1.7530451897022044,360,0.0,0.0,0.0,0.0,0.0,0.0,0.0,0.0,569.0,0.0,-1.0
1.5283637046813965,-590.8725864464934,-1814.6099742311674,618.4794138290657,0.10646767305447183,0.023426626850322263,2.9777725827669936,0.0003724098205566406,2.9962345326753703,1,1,1,1,0.5908725864464934,1.8146099742311674,-0.5184794138290657,170.61380134231936,0.0,0.0,0.1,0.0,1,30519.12353067537,-65.8511165772147,3.5437963263368815,2510.949433253879,30519.12353067537,-40,3.5437963263368815,360,,,,,,,,,,,
1.5315625667572021,-592.0494222649133,-1813.937953178712,618.7716417020168,0.10019923959844375,0.03165866895042521,2.972174738718831,9.298324584960938e-05,2.9951203902826773,1,1,1,1,0.5920494222649133,1.8139379531787119,-0.5187716417020168,170.2930685039872,0.0,0.0,0.1,0.0,1,28738.510912401485,-64.91931772682463,-5.625456740455035,2405.244091709271,28738.510912401485,-40,-5.625456740455035,360,0.0,0.0,0.0,0.0,0.0,0.0,0.0,0.0,571.0,0.0,0.0
1.5362448692321777,-592.2069030516642,-1813.1747006169055,618.2992658284958,0.0834518761649892,0.045802126405382615,2.9724728165903302,9.012222290039062e-05,2.99352235631298,1,1,1,1,0.5922069030516642,1.8131747006169054,-0.5182992658284957,170.31014710799036,0.0,0.0,0.1,0.0,1,32569.771223185406,-64.79451692140246,1.6139927333598614,2560.1514279529483,32569.771223185406,-40,1.6139927333598614,360,,,,,,,,,,,
1.5389795303344727,-592.6632712884024,-1812.2352266928697,618.5999564593087,0.05912167831809951,0.020756396614516188,2.981229192083076,9.1552734375e-05,2.9926020399530624,1,1,1,1,0.5926632712884023,1.8122352266928696,-0.5185999564593087,170.81185046755647,0.0,0.0,0.1,0.0,1,27777.522951737614,-61.285222202949825,-2.047222392154879,2837.4170848614763,27777.522951737614,-40,-2.047222392154879,360,,,,,,,,,,,
1.5419642925262451,-591.2671138333228,-1812.380643821909,610.5541410725283,0.24843150169617856,0.1819828446785133,0.8981184149701315,7.390975952148438e-05,2.9876535975254424,1,1,1,1,0.5912671138333228,1.812380643821909,-0.5105541410725283,51.458394680767626,0.0,0.0,0.1,0.0,1,110555.57423244375,-76.63925404679668,67.56294466620328,-59556.477540905806,65535,-40,40,-360,0.0,0.0,0.0,0.0,0.0,0.0,0.0,0.0,571.0,0.0,1.0
1.5467188358306885,-592.932235803718,-1810.3035298191833,617.1259347117328,0.09944970635167436,0.0302701136211001,2.9947244086305,0.00010275840759277344,2.9749865699565454,1,1,1,1,0.592932235803718,1.8103035298191832,-0.5171259347117328,171.58506941933896,0.0,0.0,0.1,0.0,1,4330.233756205509,-74.81417274148261,89.33361318642706,40256.84786737869,10000,-40,40,360,,,,,,,,,,,
1.5493946075439453,-593.2569579954423,-1809.5482567514475,617.3546003908574,0.09532327831428816,0.028123278296809648,2.9950665636299747,9.250640869140625e-05,2.967138164058521,1,1,1,1,0.5932569579954423,1.8095482567514476,-0.5173546003908573,171.60467345674817,0.0,0.0,0.1,0.0,1,52751.60854189679,-78.06569639861667,107.09388722922861,2585.0834011442303,52751.60854189679,-40,40,360,,,,,,,,,,,
1.5566704273223877,-593.6690644382892,-1809.2849072498018,616.8748992375704,0.0832547650352252,0.0013340444389696232,3.0006691399675076,7.843971252441406e-05,2.9475680525611567,1,1,1,1,0.5936690644382892,1.8092849072498018,-0.5168748992375704,171.92567743528866,0.0,0.0,0.1,0.0,1,55313.58845416748,-80.32395082982438,100.81896473954433,2645.1835794537087,55313.58845416748,-40,40,360,,,,,,,,,,,
1.5598692893981934,-593.7594528264024,-1808.374643476223,616.8059064715525,0.08351255917087541,0.024016155009066564,3.0076409068500736,0.00018095970153808594,2.9397281160483484,1,1,1,1,0.5937594528264024,1.808374643476223,-0.5168059064715524,172.3251302534088,0.0,0.0,0.1,0.0,1,46273.257306512736,-72.2795943242486,91.0308425395931,2772.1591528680347,46273.257306512736,-40,40,360,0.0,0.0,0.0,0.0,0.0,0.0,0.0,0.0,571.0,0.0,-1.0
1.5674798488616943,-593.8217551448062,-1807.813817567971,616.2078844439375,0.08452086700373418,0.03265908634130778,3.006830753231406,0.0001995563507080078,2.9273346709358115,1,1,1,1,0.5938217551448062,1.807813817567971,-0.5162078844439375,172.2787118703019,0.0,0.0,0.1,0.0,1,38676.479615089695,-72.04361873124952,59.40912321835319,2575.0441740216106,38676.479615089695,-40,40,360,,,,,,,,,,,
1.57065749168396,-593.971598336386,-1807.2097586326113,616.2880125216324,0.06181426939849053,0.022310904764962253,3.0018633387121345,8.130073547363281e-05,2.9232999284144965,1,1,1,1,0.593971598336386,1.8072097586326112,-0.5162880125216324,171.9940999832556,0.0,0.0,0.1,0.0,1,32984.2592412429,-67.74489904822684,43.868554992543004,2444.9839762443016,32984.2592412429,-40,40,360,0.0,0.0,0.0,0.0,0.0,0.0,0.0,0.0,571.0,0.0,-1.0
1.577604055404663,-594.0892064770223,-1806.7072477206304,615.4973724996769,0.08162645628082522,0.023024563756378867,3.002498105777034,9.799003601074219e-05,2.9193285001320946,1,1,1,1,0.5940892064770223,1.8067072477206305,-0.5154973724996769,172.03046945704827,0.0,0.0,0.1,0.0,1,33670.438094346435,-67.10166397959777,16.27837615716381,2588.251065430548,33670.438094346435,-40,16.27837615716381,360,,,,,,,,,,,
1.5810918807983398,-594.3324372047084,-1806.3207242832802,615.2160575685078,0.09074891290781402,0.026655343723559013,3.0078346180746984,0.00021457672119140625,2.918478014913072,1,1,1,1,0.5943324372047084,1.8063207242832802,-0.5152160575685079,172.3362290890241,0.0,0.0,0.1,0.0,1,32351.890512395254,-65.19808329480607,1.7939141182845058,2717.9121523978106,32351.890512395254,-40,1.7939141182845058,360,0.0,0.0,0.0,0.0,0.0,0.0,0.0,0.0,571.0,1.0,0.0
1.5860178470611572,-594.9288652650494,-1805.3972510070148,615.5267414073079,0.09028632546711027,0.021784571364587287,3.0117707932198505,9.632110595703125e-05,2.919237874880488,1,1,1,1,0.5949288652650494,1.8053972510070149,-0.5155267414073079,172.5617553122656,0.0,0.0,0.1,0.0,1,29242.615390142204,-62.23621616630097,-16.159991412165322,2657.014733530365,29242.615390142204,-40,-16.159991412165322,360,,,,,,,,,,,
1.5894014835357666,-595.1299178894336,-1805.332184981434,615.8591228536446,0.08408939790140949,0.043575617013707955,3.0136906276305235,0.00021576881408691406,2.920577802627178,1,1,1,1,0.5951299178894336,1.805332184981434,-0.5158591228536447,172.67175372136117,0.0,0.0,0.1,0.0,1,29233.42573362677,-64.5165231125269,-24.065626922087702,2638.8122319397667,29233.42573362677,-40,-24.065626922087702,360,0.0,0.0,0.0,0.0,0.0,0.0,0.0,0.0,571.0,0.0,1.0
1.5922760963439941,-595.784641948323,-1804.772868388969,615.9939286095378,0.06510239989183367,-0.002630668562001992,3.0075066512926907,0.00010132789611816406,2.922224476763946,1,1,1,1,0.595784641948323,1.804772868388969,-0.5159939286095377,172.31743797659456,0.0,0.0,0.1,0.0,1,30524.848424241583,-60.835038288988756,-35.82587430817712,2400.136597120647,30524.848424241583,-40,-35.82587430817712,360,,,,,,,,,,,
1.5967512130737305,-595.7984810282899,-1804.5021799475692,615.9911619402301,0.06127446162225686,0.0018525012922884286,3.004355219074785,9.989738464355469e-05,2.925705229922314,1,1,1,1,0.5957984810282899,1.8045021799475691,-0.5159911619402301,172.13687421108702,0.0,0.0,0.1,0.0,1,31952.102860065224,-61.642918139193156,-39.146971317796954,2521.4433396036407,31952.102860065224,-40,-39.146971317796954,360,,,,,,,,,,,
1.599149465560913,-595.5929864098439,-1804.145532452129,615.4600188644645,0.08369050143162306,0.04401441131196567,3.0004760308553915,8.940696716308594e-05,2.9277859233092043,1,1,1,1,0.5955929864098439,1.804145532452129,-0.5154600188644645,171.9146130981789,0.0,0.0,0.1,0.0,1,36385.74485336793,-58.84739256852243,-41.51979990106094,2439.330638620567,36385.74485336793,-40,-40,360,,,,,,,,,,,
1.6015233993530273,-596.1090577878299,-1803.6911719282339,615.8859140688844,0.09305987835958711,0.047085000706336554,3.01012430369221,7.843971252441406e-05,2.9300229706062892,1,1,1,1,0.5961090577878299,1.8036911719282338,-0.5158859140688844,172.4674184113193,0.0,0.0,0.1,0.0,1,29039.179161596698,-58.87869250116263,-51.498770866311546,2938.3548769566396,29039.179161596698,-40,-40,360,,,,,,,,,,,
1.607614278793335,-597.8685697713807,-1809.635998582429,631.983819966406,0.04009068913872364,0.025571584880180374,2.9878148047847986,9.632110595703125e-05,2.936265082505319,1,1,1,1,0.5978685697713807,1.809635998582429,-0.531983819966406,171.1891782808729,0.0,0.0,0.1,0.0,1,-28886.973823440647,-83.56911999896032,-51.249527503713566,2254.040595309639,10000,-40,-40,360,0.0,0.0,0.0,0.0,0.0,0.0,0.0,0.0,571.0,0.0,-2.0
1.6103935241699219,-597.9882617631026,-1809.8165393008162,632.2486146282309,0.04781356623975719,0.02306638877139652,2.987708964983782,0.00011754035949707031,2.9391611855072868,1,1,1,1,0.5979882617631026,1.809816539300816,-0.5322486146282309,171.18311410697015,0.0,0.0,0.1,0.0,1,30832.25493084234,-62.89204252762234,-50.953239126084064,2564.4938781758246,30832.25493084234,-40,-40,360,,,,,,,,,,,
1.616300106048584,-597.610122392211,-1809.7200025138882,631.9994871204926,0.058202313944115076,0.03494039877006839,3.006672722238855,9.942054748535156e-05,2.945331937937077,1,1,1,1,0.597610122392211,1.8097200025138882,-0.5319994871204926,172.26965736139644,0.0,0.0,0.1,0.0,1,33276.94683311112,-60.411188608685784,-49.83866280827522,2860.4677911657827,33276.94683311112,-40,-40,360,0.0,0.0,0.0,0.0,0.0,0.0,0.0,0.0,571.0,0.0,0.0
1.6190636157989502,-597.2954662953633,-1809.8708872482391,631.5844638162602,0.0685133960109085,0.04164419560445692,3.012158735295608,0.00010418891906738281,2.9482299308801205,1,1,1,1,0.5972954662953633,1.8098708872482392,-0.5315844638162601,172.58398275590204,0.0,0.0,0.1,0.0,1,35663.24548142019,-61.50580911216423,-48.67422462633682,2759.136616432408,35663.24548142019,-40,-40,360,,,,,,,,,,,
1.6220576763153076,-597.2636449536768,-1810.0223119708448,631.3333039460988,0.060519757628369024,0.05656521730835252,3.0151153372285506,8.7738037109375e-05,2.951357365829217,1,1,1,1,0.5972636449536768,1.8100223119708447,-0.5313333039460988,172.75338356835988,0.0,0.0,0.1,0.0,1,34615.37672729959,-61.71351679615878,-51.07135490599134,2676.399584405527,34615.37672729959,-40,-40,360,0.0,0.0,0.0,0.0,0.0,0.0,0.0,0.0,573.0,0.0,0.0
1.6268579959869385,-597.1164055448553,-1810.1855480615347,631.5064790099228,0.054115153318038775,0.051954862509807624,3.0129449237926464,9.918212890625e-05,2.9563228995414494,1,1,1,1,0.5971164055448553,1.8101855480615348,-0.5315064790099229,172.62902803868408,0.0,0.0,0.1,0.0,1,31798.398873782156,-61.139936965662805,-50.479304219808135,2550.600051608159,31798.398873782156,-40,-40,360,,,,,,,,,,,
1.6292610168457031,-597.5060179416951,-1810.5052349310306,631.9334462296617,0.0770018153180338,0.0423420876718876,3.009424238038177,0.00010228157043457031,2.9587826770878944,1,1,1,1,0.5975060179416951,1.8105052349310307,-0.5319334462296618,172.42730760396114,0.0,0.0,0.1,0.0,1,29548.221363664616,-63.909027973009735,-53.98534212677026,2460.317687645083,29548.221363664616,-40,-40,360,,,,,,,,,,,
1.6357200145721436,-597.6534110034648,-1810.7357083401905,631.9938260748419,0.07763429589359523,0.041968115033991754,3.0090056514397183,8.511543273925781e-05,2.965026977747273,1,1,1,1,0.5976534110034648,1.8107357083401905,-0.5319938260748419,172.40332435850874,0.0,0.0,0.1,0.0,1,32267.8883532499,-61.36230356166537,-49.47904538595762,2580.472312666251,32267.8883532499,-40,-40,360,0.0,0.0,0.0,0.0,0.0,0.0,0.0,0.0,573.0,-1.0,0.0
1.6385831832885742,-597.7876933099722,-1810.978878802799,632.020511198509,0.07281901222419893,0.04051328747812875,3.0066696826006716,0.00011777877807617188,2.9677206310565145,1,1,1,1,0.5977876933099722,1.810978878802799,-0.532020511198509,172.26948320295728,0.0,0.0,0.1,0.0,1,32352.829043104226,-62.48809799418258,-48.65149087485547,2514.295230638478,32352.829043104226,-40,-40,360,,,,,,,,,,,
1.6421027183532715,-597.9282183934313,-1811.2039410744733,632.1379275083993,0.07514231916007182,0.03765252935658691,3.0066960285425304,9.918212890625e-05,2.970866584506093,1,1,1,1,0.5979282183934312,1.8112039410744734,-0.5321379275083994,172.2709927142331,0.0,0.0,0.1,0.0,1,31571.577500090752,-62.13661004838331,-47.09107899604329,2584.708713083056,31571.577500090752,-40,-40,360,0.0,0.0,0.0,0.0,0.0,0.0,0.0,0.0,573.0,2.0,0.0
1.646848201751709,-598.110951052655,-1811.451868683857,632.1964915459115,0.06901317412537453,0.03372459176295198,3.0025240372779898,9.441375732421875e-05,2.974777961036256,1,1,1,1,0.598110951052655,1.811451868683857,-0.5321964915459115,172.03195522260947,0.0,0.0,0.1,0.0,1,31724.487166214043,-62.14837744519475,-44.51906911182769,2504.8421578467382,31724.487166214043,-40,-40,360,,,,,,,,,,,
1.649641513824463,-597.9636255667377,-1811.604223086951,631.8431598207228,0.06918576087627927,0.024761381782786848,3.002386501679793,0.00023484230041503906,2.9769614086264244,1,1,1,1,0.5979636255667378,1.811604223086951,-0.5318431598207228,172.02407501329998,0.0,0.0,0.1,0.0,1,34266.17465885449,-62.02228835600438,-40.902267864583834,2576.130921262516,34266.17465885449,-40,-40,360,,,,,,,,,,,
1.6580133438110352,-598.4294582318765,-1811.749929089418,631.8089905013217,0.09092740786304021,0.046261674480622815,2.992328382551769,8.702278137207031e-05,2.982166923706206,1,1,1,1,0.5984294582318765,1.811749929089418,-0.5318089905013217,171.44778723742442,0.0,0.0,0.1,0.0,1,31382.73403017982,-62.47488690340589,-37.113430443402486,2468.6820765354796,31382.73403017982,-40,-37.113430443402486,360,0.0,0.0,0.0,0.0,0.0,0.0,0.0,0.0,573.0,0.0,0.0
1.6606857776641846,-598.2280000178332,-1811.810235405009,631.3947551561961,0.12531057993666733,0.04090973355236838,3.0002011391017565,9.584426879882812e-05,2.983703138501991,1,1,1,1,0.5982280000178332,1.811810235405009,-0.531394755156196,171.89886296087266,0.0,0.0,0.1,0.0,1,34139.71311130546,-62.354133213332254,-32.63672634417696,2833.165082683105,34139.71311130546,-40,-32.63672634417696,360,,,,,,,,,,,
1.6660974025726318,-598.265914125425,-1812.0362255901189,631.5470899640292,0.11087259976497751,0.0351392640927163,2.9977209280055988,9.417533874511719e-05,2.986328951685009,1,1,1,1,0.598265914125425,1.8120362255901188,-0.5315470899640292,171.7567573327613,0.0,0.0,0.1,0.0,1,30375.253628747778,-63.56781930792236,-30.719271769073853,2536.9536908152445,30375.253628747778,-40,-30.719271769073853,360,0.0,0.0,0.0,0.0,0.0,0.0,0.0,0.0,567.0,-1.0,0.0
1.6690876483917236,-598.1881094974652,-1812.2667935901245,631.4982373947668,0.11234884935574804,0.029610083197873855,2.994454977623457,0.0002231597900390625,2.987634922776522,1,1,1,1,0.5981881094974653,1.8122667935901244,-0.5314982373947668,171.56963215976546,0.0,0.0,0.1,0.0,1,31262.873494542797,-64.49916442088646,-27.982300913254115,2479.7290554783394,31262.873494542797,-40,-27.982300913254115,360,,,,,,,,,,,
1.6722912788391113,-597.8582556403818,-1812.3324778300612,630.8102578369208,0.13025738860918976,0.029516929581524437,2.9987774536797125,9.775161743164062e-05,2.9888857688719694,1,1,1,1,0.5978582556403818,1.8123324778300611,-0.5308102578369207,171.81729179483526,0.0,0.0,0.1,0.0,1,34936.618237484145,-63.31404911770882,-24.701363496838198,2693.2096445976044,34936.618237484145,-40,-24.701363496838198,360,0.0,0.0,0.0,0.0,0.0,0.0,0.0,0.0,567.0,0.0,1.0
1.6768136024475098,-597.9634072401534,-1812.6514148999493,630.979069993915,0.06850115903743426,0.012235863142589912,3.0073629697541815,9.179115295410156e-05,2.9904379960550598,1,1,1,1,0.5979634072401534,1.8126514148999493,-0.530979069993915,172.30920563084405,0.0,0.0,0.1,0.0,1,30110.940380940265,-65.1000927288587,-25.439721327883277,2748.006657891742,30110.940380940265,-40,-25.439721327883277,360,,,,,,,,,,,
1.6792974472045898,-598.2655313090523,-1812.8513984243293,631.185955418584,0.07241203189293927,0.015441776323169343,3.0059765777865834,0.00010418891906738281,2.991239027908349,1,1,1,1,0.5982655313090524,1.8128513984243293,-0.5311859554185839,172.22977122234985,0.0,0.0,0.1,0.0,1,29339.53861614954,-65.76131393220682,-26.694610641994768,2535.56326030351,29339.53861614954,-40,-26.694610641994768,360,,,,,,,,,,,
1.6861908435821533,-598.1244833695927,-1812.9164049166284,631.0742347726928,0.08010610149581944,0.008049676691551322,3.0004694677966763,0.00010061264038085938,2.9930829703038393,1,1,1,1,0.5981244833695927,1.8129164049166284,-0.5310742347726928,171.91423706261384,0.0,0.0,0.1,0.0,1,30839.829720079902,-64.12041037802429,-21.769246680584363,2510.0510876742615,30839.829720079902,-40,-21.769246680584363,360,0.0,0.0,0.0,0.0,0.0,0.0,0.0,0.0,567.0,0.0,0.0
1.6891744136810303,-598.513593831083,-1813.009368534055,631.3947581656715,0.10416365555834033,0.0018658349517441455,3.0049716845916943,9.608268737792969e-05,2.993821856857932,1,1,1,1,0.5985135938310829,1.8130093685340551,-0.5313947581656715,172.1721950834213,0.0,0.0,0.1,0.0,1,28591.645517092493,-65.19181890430607,-24.195208447627763,2712.3759155153275,28591.645517092493,-40,-24.195208447627763,360,,,,,,,,,,,
1.692129373550415,-598.3929172346145,-1813.311819828242,630.8940829411127,0.10258545941283387,0.009111991007307302,3.0055281686951756,9.274482727050781e-05,2.9945082408271877,1,1,1,1,0.5983929172346145,1.813311819828242,-0.5308940829411127,172.20407927391688,0.0,0.0,0.1,0.0,1,34269.16204521295,-66.27488222657928,-19.684769839069133,2599.2254100272557,34269.16204521295,-40,-19.684769839069133,360,0.0,0.0,0.0,0.0,0.0,0.0,0.0,0.0,567.0,0.0,-1.0
1.697092056274414,-598.489464258976,-1813.3594519311016,630.7350446372299,0.10060964246323349,0.010529141548385197,3.006575560568484,9.441375732421875e-05,2.9955618604297873,1,1,1,1,0.598489464258976,1.8133594519311016,-0.5307350446372299,172.26409040775374,0.0,0.0,0.1,0.0,1,31190.464297703733,-64.5991046903111,-20.505240908718662,2602.0211192486486,31190.464297703733,-40,-20.505240908718662,360,,,,,,,,,,,
1.7005908489227295,-598.7349026228425,-1813.2214564732078,630.8333456340802,0.0931954268145549,0.00676231354263271,3.008372956120069,0.0004439353942871094,2.9962716894730113,1,1,1,1,0.5987349026228425,1.8132214564732079,-0.5308333456340801,172.36707358697515,0.0,0.0,0.1,0.0,1,29867.934511186213,-63.75592574357787,-21.519982659024667,2629.947707536819,29867.934511186213,-40,-21.519982659024667,360,0.0,0.0,0.0,0.0,0.0,0.0,0.0,0.0,567.0,0.0,0.0
1.7083556652069092,-598.6206583851523,-1813.4359505911941,630.3925410252822,0.09779671560053976,0.0151272072307362,3.008714928892948,0.00043272972106933594,2.9977430155383855,1,1,1,1,0.5986206583851523,1.8134359505911941,-0.5303925410252822,172.3866671835695,0.0,0.0,0.1,0.0,1,31707.722147146414,-65.00375656696855,-18.965741315126582,2589.584034854107,31707.722147146414,-40,-18.965741315126582,360,,,,,,,,,,,
1.710796594619751,-598.6749176369844,-1813.5105408343873,630.3114872615723,0.0959801465863322,0.017128556534490295,3.010414277495982,7.915496826171875e-05,2.9981963468919965,1,1,1,1,0.5986749176369844,1.8135105408343872,-0.5303114872615723,172.4840326864448,0.0,0.0,0.1,0.0,1,31302.805784026044,-65.19441628638604,-19.69650169853407,2647.624185335878,31302.805784026044,-40,-19.69650169853407,360,,,,,,,,,,,
1.7164161205291748,-598.7990675019876,-1813.5598041817032,630.4698314694571,0.09913771332847603,0.018033375235772177,3.0098825684105863,0.00020837783813476562,2.999217782952167,1,1,1,1,0.5987990675019875,1.8135598041817032,-0.530469831469457,172.45356799992288,0.0,0.0,0.1,0.0,1,29955.025375087505,-64.74536753365781,-19.59154251920313,2578.6844352016865,29955.025375087505,-40,-19.59154251920313,360,0.0,0.0,0.0,0.0,0.0,0.0,0.0,0.0,570.0,0.0,0.0
1.7192435264587402,-598.6193617367135,-1813.7331014255974,630.1370708231865,0.10391769332650559,0.019888096926223394,3.013200829824339,9.560585021972656e-05,2.999730294881406,1,1,1,1,0.5986193617367135,1.8137331014255973,-0.5301370708231865,172.643690374252,0.0,0.0,0.1,0.0,1,33002.22944051056,-65.60632156964932,-17.590042740021335,2690.222578810955,33002.22944051056,-40,-17.590042740021335,360,,,,,,,,,,,
1.7222099304199219,-598.5612366628019,-1813.903057603287,630.1536642185483,0.10207834895471013,0.019096910822055304,3.014445503513282,7.867813110351562e-05,3.000270451737596,1,1,1,1,0.5985612366628019,1.8139030576032869,-0.5301536642185484,172.71500492349944,0.0,0.0,0.1,0.0,1,30537.10085443242,-65.6448614622414,-18.642867511996734,2626.8442453828457,30537.10085443242,-40,-18.642867511996734,360,0.0,0.0,0.0,0.0,0.0,0.0,0.0,0.0,570.0,0.0,1.0
1.7269742488861084,-598.6448910020042,-1814.1312955112492,630.3422639121409,0.08904813379437392,0.022101987627230407,3.006699085376929,9.298324584960938e-05,3.0011080156946828,1,1,1,1,0.5986448910020042,1.8141312955112492,-0.5303422639121409,172.2711678579428,0.0,0.0,0.1,0.0,1,29852.75472395665,-65.59672840680633,-19.25382885769763,2444.4344861100317,29852.75472395665,-40,-19.25382885769763,360,,,,,,,,,,,
1.7297265529632568,-598.5830116156448,-1814.2750888379026,630.3566848368206,0.09323828565605936,0.01939577810182446,3.0073314208745385,0.00023937225341796875,3.0015762114307236,1,1,1,1,0.5985830116156448,1.8142750888379024,-0.5303566848368206,172.30739801319214,0.0,0.0,0.1,0.0,1,30510.302420986347,-65.60467424048052,-18.17702085579493,2604.340947487279,30510.302420986347,-40,-18.17702085579493,360,,,,,,,,,,,
1.7329227924346924,-598.5426503726497,-1814.4311963444038,630.4015413104696,0.09064350905732729,0.016428815055903614,3.0038286741243936,8.416175842285156e-05,3.002083571911597,1,1,1,1,0.5985426503726498,1.8144311963444038,-0.5304015413104696,172.10670540770568,0.0,0.0,0.1,0.0,1,30325.67119955148,-65.64072874760063,-18.00067432379429,2486.942158674363,30325.67119955148,-40,-18.00067432379429,360,0.0,0.0,0.0,0.0,0.0,0.0,0.0,0.0,570.0,0.0,0.0
1.737539291381836,-598.5377276783544,-1814.6389895928528,630.8348451658376,0.08549780597800283,0.018638822838956605,3.002560488529879,9.465217590332031e-05,3.0027197828551677,1,1,1,1,0.5985377276783543,1.8146389895928527,-0.5308348451658376,172.0340437255007,0.0,0.0,0.1,0.0,1,28685.09003230947,-65.74525791324515,-17.37577813593333,2557.094798868807,28685.09003230947,-40,-17.37577813593333,360,,,,,,,,,,,
1.739821195602417,-598.6029985780194,-1814.6980502447718,631.0226988823913,0.08500334697185125,0.0165078130299955,3.002147082949423,9.369850158691406e-05,3.0030066339073005,1,1,1,1,0.5986029985780195,1.8146980502447718,-0.5310226988823913,172.0103573305134,0.0,0.0,0.1,0.0,1,28853.45992857721,-65.50906011319218,-17.706255630630473,2564.4025151520605,28853.45992857721,-40,-17.706255630630473,360,,,,,,,,,,,
1.7429747581481934,-598.3058517448458,-1814.7794090407835,630.7729462473401,0.0828694609117033,0.011447885900879166,3.000873040530583,8.273124694824219e-05,3.0033458834195756,1,1,1,1,0.5983058517448457,1.8147794090407836,-0.5307729462473401,171.93736007699323,0.0,0.0,0.1,0.0,1,32012.946174482528,-65.26912233564947,-14.2793683726519,2544.2469529557693,32012.946174482528,-40,-14.2793683726519,360,0.0,0.0,0.0,0.0,0.0,0.0,0.0,0.0,570.0,0.0,-1.0
1.7487730979919434,-598.9124762742795,-1814.534669842033,631.0304781587854,0.07453544950975569,0.007524635203201663,3.0030845189293762,0.0009024143218994141,3.0038004699227154,1,1,1,1,0.5989124762742795,1.814534669842033,-0.5310304781587853,172.06406845572843,0.0,0.0,0.1,0.0,1,29498.852182470197,-64.61037381074298,-17.59635120006609,2613.636363543057,29498.852182470197,-40,-17.59635120006609,360,,,,,,,,,,,
1.7587919235229492,-599.1249740186512,-1814.485246602772,631.3646659590993,0.08811705359128322,0.003114625950387594,3.011165727237613,0.0070230960845947266,3.0044819731762473,1,1,1,1,0.5991249740186512,1.8144852466027719,-0.5313646659590993,172.52708758515647,0.0,0.0,0.1,0.0,1,29725.302414069414,-65.22494807876063,-15.338810069884785,2657.2666433079257,29725.302414069414,-40,-15.338810069884785,360,0.0,0.0,0.0,0.0,0.0,0.0,0.0,0.0,571.0,0.0,0.0
1.7689027786254883,-598.8232319640233,-1814.7908117314862,631.6318466143913,0.0983926710613213,0.003817097115322872,3.007924026560204,0.00748753547668457,3.00508568060904,1,1,1,1,0.5988232319640233,1.8147908117314862,-0.5316318466143913,172.34135181789622,0.0,0.0,0.1,0.0,1,29919.2499675901,-65.89202841350414,-13.822650270658773,2557.5926351637545,29919.2499675901,-40,-13.822650270658773,360,0.0,0.0,0.0,0.0,0.0,0.0,0.0,0.0,571.0,0.0,0.0
1.778057336807251,-599.0368406327971,-1814.5801810359442,631.8064886453304,0.08825746382243367,0.0034894989788749487,3.0106839377458656,0.007203578948974609,3.0056450823994805,1,1,1,1,0.599036840632797,1.814580181035944,-0.5318064886453304,172.49948308066558,0.0,0.0,0.1,0.0,1,29939.401054840662,-64.88057974152296,-15.224332564920733,2613.3849636432365,29939.401054840662,-40,-15.224332564920733,360,0.0,0.0,0.0,0.0,0.0,0.0,0.0,0.0,571.0,0.0,1.0
1.7891342639923096,-598.9468509874781,-1814.952126122369,631.6835583599275,0.08320933902371493,-0.005616489688035391,3.00455625007163,0.006353139877319336,3.0060955183255595,1,1,1,1,0.5989468509874781,1.8149521261223691,-0.5316835583599274,172.14839243875755,0.0,0.0,0.1,0.0,1,30721.94673769077,-66.16401629201337,-13.575318683704811,2534.6721443730507,30721.94673769077,-40,-13.575318683704811,360,0.0,0.0,0.0,0.0,0.0,0.0,0.0,0.0,571.0,0.0,-1.0
1.7987391948699951,-599.2227730782662,-1814.8207315568065,631.6749603062759,0.07791998470755475,0.0022742330365169454,3.0078975990313532,0.007599592208862305,3.0063958178828116,1,1,1,1,0.5992227730782662,1.8148207315568066,-0.5316749603062759,172.3398376320301,0.0,0.0,0.1,0.0,1,30387.346683765543,-65.31932007297935,-14.15255961595101,2614.9910671580496,30387.346683765543,-40,-14.15255961595101,360,0.0,0.0,0.0,0.0,0.0,0.0,0.0,0.0,569.0,0.0,0.0
1.808314323425293,-598.8774933928031,-1814.851706142204,631.3677280419645,0.06812310517855266,0.009452871846147569,3.001826264464222,0.007667064666748047,3.0064559140817115,1,1,1,1,0.598877493392803,1.814851706142204,-0.5313677280419645,171.9919757853216,0.0,0.0,0.1,0.0,1,31019.013620415157,-65.6814084834633,-11.68411043210042,2525.502835382357,31019.013620415157,-40,-11.68411043210042,360,0.0,0.0,0.0,0.0,0.0,0.0,0.0,0.0,569.0,0.0,0.0
1.8185348510742188,-599.2981629305693,-1815.0094584644091,631.8473899387238,0.07430913515127976,0.005524152629107712,3.0039049626046967,0.007486104965209961,3.006331964240557,1,1,1,1,0.5992981629305694,1.8150094584644092,-0.5318473899387238,172.11107641565252,0.0,0.0,0.1,0.0,1,29524.3296073733,-66.31901959274458,-12.563676154307268,2599.1858183250183,29524.3296073733,-40,-12.563676154307268,360,0.0,0.0,0.0,0.0,0.0,0.0,0.0,0.0,569.0,0.0,0.0
1.8285799026489258,-599.4604969649428,-1815.1014544689683,632.0608190726562,0.08045688404007457,-0.002615821920107328,3.005482601189253,0.007672548294067383,3.006154728344878,1,1,1,1,0.5994604969649427,1.8151014544689683,-0.5320608190726561,172.20146844814457,0.0,0.0,0.1,0.0,1,29995.020333420176,-66.15750012604262,-11.812257988493098,2596.5171382566427,29995.020333420176,-40,-11.812257988493098,360,0.0,0.0,0.0,0.0,0.0,0.0,0.0,0.0,569.0,0.0,-1.0
1.8387150764465332,-599.4558811350614,-1815.1771448716988,632.0735467214263,0.0912647694163144,0.0019630045596693234,3.0069053240200456,0.008500099182128906,3.0060291461657505,1,1,1,1,0.5994558811350614,1.815177144871699,-0.5320735467214263,172.2829844617659,0.0,0.0,0.1,0.0,1,30377.40998240653,-66.03701363575887,-11.665003616054138,2596.315053659383,30377.40998240653,-40,-11.665003616054138,360,,,,,,,,,,,
1.8488726615905762,-599.1704481102462,-1814.9469570531849,631.3852883062256,0.07351336183219563,0.009592809297650258,3.0073543413789636,0.008563518524169922,3.005996883027484,1,1,1,1,0.5991704481102462,1.8149469570531849,-0.5313852883062256,172.30871126136,0.0,0.0,0.1,0.0,1,31662.09300693117,-65.22875842534457,-11.52341363890745,2588.4343731872477,31662.09300693117,-40,-11.52341363890745,360,0.0,0.0,0.0,0.0,0.0,0.0,0.0,0.0,567.0,0.0,0.0
1.8582336902618408,-599.165454346345,-1815.5941403373913,631.7457882060079,0.08380123951797631,0.002651807242541502,2.998832938045569,0.007077217102050781,3.005789904370968,1,1,1,1,0.5991654543463449,1.8155941403373914,-0.5317457882060079,171.8204708148278,0.0,0.0,0.1,0.0,1,29856.892946974272,-67.44984208495602,-11.059571509294292,2499.1715018027644,29856.892946974272,-40,-11.059571509294292,360,0.0,0.0,0.0,0.0,0.0,0.0,0.0,0.0,567.0,0.0,-1.0
1.869142770767212,-598.9487092490838,-1815.41228958439,631.2703705309472,0.08697970758583226,0.0034918183542125085,3.0054034855249196,0.009063005447387695,3.0055302918553464,1,1,1,1,0.5989487092490837,1.81541228958439,-0.5312703705309472,172.1969354544849,0.0,0.0,0.1,0.0,1,31212.941642602822,-65.55819567983964,-10.801018037351524,2634.751930517326,31212.941642602822,-40,-10.801018037351524,360,0.0,0.0,0.0,0.0,0.0,0.0,0.0,0.0,567.0,-1.0,0.0
1.8787996768951416,-599.0350024191421,-1815.5753992619148,631.3804208854065,0.0895021513533839,0.001091802310719637,3.0052055028570277,0.008076667785644531,3.0053396966986248,1,1,1,1,0.5990350024191421,1.8155753992619148,-0.5313804208854065,172.18559188319796,0.0,0.0,0.1,0.0,1,30242.88256279877,-66.34276288066259,-11.476795975626743,2581.019493970616,30242.88256279877,-40,-11.476795975626743,360,0.0,0.0,0.0,0.0,0.0,0.0,0.0,0.0,572.0,1.0,0.0
1.8882882595062256,-599.1272891094254,-1815.9434974090807,631.4789124076901,0.09904388892342782,-0.0038907202436275798,3.0009047123858514,0.007964134216308594,3.0050741348425647,1,1,1,1,0.5991272891094254,1.8159434974090807,-0.5314789124076902,171.93917474062945,0.0,0.0,0.1,0.0,1,30345.716298574873,-66.89389269604848,-11.076972740601647,2540.1298975231757,30345.716298574873,-40,-11.076972740601647,360,,,,,,,,,,,
1.899582862854004,-599.0634528757047,-1816.0200868465533,631.2544347462973,0.09548842409275629,-0.00202029284375487,3.0007787824115546,0.009852170944213867,3.004631103189447,1,1,1,1,0.5990634528757047,1.8160200868465532,-0.5312544347462973,171.93195948458808,0.0,0.0,0.1,0.0,1,30838.413785773457,-66.24960512385636,-10.35931238427888,2578.0263276895002,30838.413785773457,-40,-10.35931238427888,360,0.0,0.0,0.0,0.0,0.0,0.0,0.0,0.0,572.0,1.0,0.0
1.908618450164795,-598.983104143845,-1816.1729736541108,631.0909727177752,0.0945239565782082,-0.00286812189331918,2.999353217368599,0.00733184814453125,3.004184854621821,1,1,1,1,0.598983104143845,1.8161729736541108,-0.5310909727177753,171.8502806242053,0.0,0.0,0.1,0.0,1,30851.714116907944,-66.54884425546585,-9.792226626751237,2564.130333962663,30851.714116907944,-40,-9.792226626751237,360,,,,,,,,,,,
1.9185686111450195,-598.886302454643,-1816.3102017409587,630.9807569986133,0.09594251516319216,-0.0007137355450713861,2.999272942763861,0.008238077163696289,3.0036132060342875,1,1,1,1,0.598886302454643,1.8163102017409587,-0.5309807569986132,171.84568122815176,0.0,0.0,0.1,0.0,1,30701.790340867392,-66.54618888666703,-9.421726651071388,2576.9915209131073,30701.790340867392,-40,-9.421726651071388,360,0.0,0.0,0.0,0.0,0.0,0.0,0.0,0.0,572.0,-1.0,1.0
1.9288203716278076,-598.916222865243,-1816.4133814980166,630.8703810367196,0.0968486592651061,0.0011883981567646499,2.998297615804832,0.008682966232299805,3.0029597863848503,1,1,1,1,0.5989162228652429,1.8164133814980166,-0.5308703810367196,171.78979910975406,0.0,0.0,0.1,0.0,1,30701.53549901046,-66.56059877930112,-9.405188442150605,2568.668998483999,30701.53549901046,-40,-9.405188442150605,360,0.0,0.0,0.0,0.0,0.0,0.0,0.0,0.0,568.0,1.0,0.0
1.938079595565796,-598.8396595971373,-1816.4851456384379,630.7447336736511,0.09979072969308715,-0.00011343531843105307,2.9985079048431347,0.0077135562896728516,3.0023561530329803,1,1,1,1,0.5988396595971373,1.8164851456384379,-0.5307447336736512,171.80184778412666,0.0,0.0,0.1,0.0,1,30744.2989954203,-66.49520169842334,-9.070952323301373,2578.9787051974176,30744.2989954203,-40,-9.070952323301373,360,0.0,0.0,0.0,0.0,0.0,0.0,0.0,0.0,568.0,0.0,0.0
1.9485886096954346,-598.8331801954822,-1816.5818795454438,630.8127410824045,0.10324412905251781,-0.00023984538550947884,3.0012263486091566,0.0076007843017578125,3.001802205829903,1,1,1,1,0.5988331801954823,1.8165818795454438,-0.5308127410824045,171.95760313876337,0.0,0.0,0.1,0.0,1,30341.909671515707,-66.46609373882721,-9.700835421297892,2601.6053135754987,30341.909671515707,-40,-9.700835421297892,360,0.0,0.0,0.0,0.0,0.0,0.0,0.0,0.0,568.0,-1.0,0.0
1.958500862121582,-598.7892912925972,-1816.7617850002482,630.7747080710027,0.10403272060543096,0.0013668659977557553,2.998180218491109,0.007492542266845703,3.0013234559674835,1,1,1,1,0.5987892912925973,1.8167617850002482,-0.5307747080710027,171.78307273915155,0.0,0.0,0.1,0.0,1,30582.201105032436,-66.62455024469318,-9.738405526975852,2550.3303306508747,30582.201105032436,-40,-9.738405526975852,360,,,,,,,,,,,
1.9688117504119873,-598.7841103114981,-1816.8668835018743,630.7869161949711,0.10100777092619138,0.002562317338366892,2.9984474871097824,0.00880289077758789,3.000863699460846,1,1,1,1,0.5987841103114981,1.8168668835018744,-0.5307869161949711,171.79838610299785,0.0,0.0,0.1,0.0,1,30453.40891008273,-66.4467239758522,-9.965654971134335,2579.2054456725077,30453.40891008273,-40,-9.965654971134335,360,0.0,0.0,0.0,0.0,0.0,0.0,0.0,0.0,571.0,0.0,0.0
1.9789841175079346,-599.0591963028887,-1816.8451769901505,630.9119934040052,0.09400668830404962,0.0064526303008931715,2.9979012387163437,0.00722503662109375,3.0004311513621076,1,1,1,1,0.5990591963028887,1.8168451769901506,-0.5309119934040052,171.76708837548802,0.0,0.0,0.1,0.0,1,30206.32064892619,-66.2546266870162,-10.664144171627049,2571.9009304707492,30206.32064892619,-40,-10.664144171627049,360,,,,,,,,,,,
1.988879680633545,-599.0451098949742,-1816.8400688498564,630.8873650343518,0.09454298185667184,0.001896559950064827,3.0028267682996814,0.008403539657592773,3.0001978615718503,1,1,1,1,0.5990451098949742,1.8168400688498563,-0.5308873650343517,172.0493004324801,0.0,0.0,0.1,0.0,1,30479.029604451636,-66.06672574144791,-10.802813723815653,2623.561413711357,30479.029604451636,-40,-10.802813723815653,360,0.0,0.0,0.0,0.0,0.0,0.0,0.0,0.0,571.0,-1.0,-1.0
1.9984185695648193,-599.1738510768439,-1816.857726127777,631.0383837581459,0.08907215688926302,0.003527528147151694,2.999606282986003,0.007635593414306641,3.00006337858135,1,1,1,1,0.599173851076844,1.816857726127777,-0.5310383837581458,171.86478021602244,0.0,0.0,0.1,0.0,1,30123.818853558598,-66.09624589925008,-11.500134389928364,2548.9984372187278,30123.818853558598,-40,-11.500134389928364,360,0.0,0.0,0.0,0.0,0.0,0.0,0.0,0.0,571.0,0.0,0.0
2.0099072456359863,-599.2957331833109,-1817.004166890801,631.1360425238356,0.08629204159752028,0.005887875907038591,3.0007066902104818,0.009754419326782227,3.0000118628064953,1,1,1,1,0.5992957331833109,1.8170041668908008,-0.5311360425238356,171.9278289057308,0.0,0.0,0.1,0.0,1,30305.003268970766,-66.25786805789741,-11.797311755625202,2587.1535545352117,30305.003268970766,-40,-11.797311755625202,360,0.0,0.0,0.0,0.0,0.0,0.0,0.0,0.0,569.0,0.0,0.0
2.0183591842651367,-599.419648409569,-1817.0757137809878,631.1045826682831,0.0897153676324604,0.007808899421002116,2.997921733551253,0.00623321533203125,2.999953790219595,1,1,1,1,0.5994196484095691,1.8170757137809879,-0.5311045826682831,171.7682626430301,0.0,0.0,0.1,0.0,1,30545.56142833921,-66.19935334998571,-11.800002314332442,2548.2090582220767,30545.56142833921,-40,-11.800002314332442,360,,,,,,,,,,,
2.0288808345794678,-599.2388948480112,-1817.392578150072,630.7769348634765,0.07057020125195865,0.013763839958620445,2.996768428130153,0.00901031494140625,2.9997727184090937,1,1,1,1,0.5992388948480112,1.817392578150072,-0.5307769348634765,171.70218310991154,0.0,0.0,0.1,0.0,1,31166.790186836373,-66.65537081462254,-10.605967301387242,2566.1011244449933,31166.790186836373,-40,-10.605967301387242,360,0.0,0.0,0.0,0.0,0.0,0.0,0.0,0.0,569.0,0.0,0.0
2.039608955383301,-599.419436422686,-1817.6002845727692,631.023377722015,0.0816622953617427,0.011385377139001611,2.9901599755768955,0.007604837417602539,2.9992321200574423,1,1,1,1,0.599419436422686,1.8176002845727692,-0.531023377722015,171.32354666949743,0.0,0.0,0.1,0.0,1,30059.3410278244,-66.7831677085695,-9.98511074179032,2516.965350815917,30059.3410278244,-40,-9.98511074179032,360,0.0,0.0,0.0,0.0,0.0,0.0,0.0,0.0,569.0,0.0,0.0
2.0485546588897705,-599.6582733601302,-1817.446146205804,631.2350131887641,0.08783239725845846,0.01115334508764461,2.9965442000725506,0.005650758743286133,2.998721362979907,1,1,1,1,0.5996582733601302,1.817446146205804,-0.5312350131887641,171.68933578856252,0.0,0.0,0.1,0.0,1,29917.003219418606,-66.0783529440084,-10.009006281239413,2636.674919903962,29917.003219418606,-40,-10.009006281239413,360,,,,,,,,,,,
2.0585763454437256,-599.3022199985232,-1817.7429629058438,630.7032598555569,0.07052380808021799,0.019058122674493413,2.9954776305385313,0.008527040481567383,2.9981570236454766,1,1,1,1,0.5993022199985233,1.8177429629058437,-0.5307032598555569,171.62822585570595,0.0,0.0,0.1,0.0,1,31613.46364467908,-66.90085735230191,-8.506437853510803,2565.271508432351,31613.46364467908,-40,-8.506437853510803,360,0.0,0.0,0.0,0.0,0.0,0.0,0.0,0.0,570.0,0.0,0.0
2.0693359375,-599.881730811963,-1817.9663695830363,631.138627141976,0.08996507629301503,0.022815287726380126,2.9854834861088047,0.006926536560058594,2.9972219355229033,1,1,1,1,0.599881730811963,1.8179663695830364,-0.531138627141976,171.05560356003843,0.0,0.0,0.1,0.0,1,29757.67629934572,-67.22503990250993,-9.167203938989916,2486.23027988905,29757.67629934572,-40,-9.167203938989916,360,0.0,0.0,0.0,0.0,0.0,0.0,0.0,0.0,570.0,0.0,0.0
2.079519271850586,-599.5922304987182,-1817.8447629542918,630.7996510247815,0.07582523678331923,0.02856521288672551,2.9990225682486105,0.006964206695556641,2.9965314321256824,1,1,1,1,0.5995922304987182,1.8178447629542918,-0.5307996510247815,171.83133582513028,0.0,0.0,0.1,0.0,1,31064.09885242086,-66.13229477653161,-8.213213104477092,2691.992409575323,31064.09885242086,-40,-8.213213104477092,360,0.0,0.0,0.0,0.0,0.0,0.0,0.0,0.0,570.0,-1.0,0.0
2.0886735916137695,-600.0991227159407,-1817.9836199502042,631.2304349470859,0.06449817988706794,0.020415451868063775,2.989604507286397,0.0067784786224365234,2.9959068280367815,1,1,1,1,0.6000991227159407,1.8179836199502042,-0.5312304349470859,171.2917206807985,0.0,0.0,0.1,0.0,1,29592.695033310887,-66.99314433444417,-9.892990094598941,2480.9468422630034,29592.695033310887,-40,-9.892990094598941,360,,,,,,,,,,,
2.099141836166382,-600.2534116800078,-1818.1167391957567,631.2921239814787,0.09395159256511522,0.0277964978359683,2.996032409347404,0.008971691131591797,2.9953802796834372,1,1,1,1,0.6002534116800079,1.8181167391957567,-0.5312921239814786,171.66001234001766,0.0,0.0,0.1,0.0,1,30376.99924700793,-66.69531960867796,-9.730639085049077,2627.69693058627,30376.99924700793,-40,-9.730639085049077,360,0.0,0.0,0.0,0.0,0.0,0.0,0.0,0.0,572.0,1.0,0.0
2.1088523864746094,-600.8166286619087,-1818.3172150604385,631.8726874252593,0.08883112212061656,0.02110567005170826,2.996147296952378,0.0071070194244384766,2.9950831570562064,1,1,1,1,0.6008166286619087,1.8183172150604385,-0.5318726874252593,171.66659491490103,0.0,0.0,0.1,0.0,1,29326.877802203602,-66.87368511582808,-11.439972128849032,2576.014993309261,29326.877802203602,-40,-11.439972128849032,360,0.0,0.0,0.0,0.0,0.0,0.0,0.0,0.0,572.0,0.0,0.0
2.119173049926758,-601.1553655872134,-1818.5216540935207,631.6512516281576,0.08480499793630385,-0.009535946311648138,3.0072774055392086,0.007712125778198242,2.9953492393777887,1,1,1,1,0.6011553655872134,1.8185216540935207,-0.5316512516281576,172.30430316244875,0.0,0.0,0.1,0.0,1,30962.03147472965,-66.37978763671299,-13.238286192976325,2677.2487412152286,30962.03147472965,-40,-13.238286192976325,360,0.0,0.0,0.0,0.0,0.0,0.0,0.0,0.0,572.0,-1.0,0.0
