time,x_pos,y_pos,z_pos,x_rot,y_rot,z_rot,delta_time,z_filtered,x_pos_est,y_pos_est,z_pos_est,z_rot_est,x_error,y_error,z_error,yaw_error,x_setpoint,y_setpoint,z_setpoint,yaw_setpoint,vicon_available,thrust_cal,pitch_cal,roll_cal,yaw_cal,thrust_lim,pitch_lim,roll_lim,yaw_lim,gyro_x,gyro_y,acc_x,acc_y,acc_z,stateEstimate_az,stateEstimate_vz,stateEstimate_yaw,range_zrange,motion_deltaX,motion_deltaY
1.3150041103363037,94.61933886585268,-1550.8226764150684,1275.8153954830755,-0.028461520437272514,-0.061948921025201366,-1.5959298214656163,0.0002512931823730469,-1.5218314271442623,1,1,1,1,-0.09461933886585268,1.5508226764150683,-1.1758153954830755,-91.44004316904679,0.0,0.0,0.1,0.0,1,89712754.25508827,-433.6282765468314,-35852.51014159399,-145844.48066666134,65535,-40,-40,-360,0.0,0.0,0.0,0.0,0.0,0.0,0.0,0.0,1190.0,-1.0,3.0
1.3192481994628906,94.02472740508836,-1544.3641056585325,1276.7358361873576,0.02488063645265601,-0.05700840681678208,-1.5820976819507075,0.0003902912139892578,-1.526629637564994,1,1,1,1,-0.09402472740508835,1.5443641056585324,-1.1767358361873577,-90.64751995320638,0.0,0.0,0.1,0.0,1,2414.8415892414787,-38.27296635245307,-19.700849052325346,-1073.120953026202,10000,-38.27296635245307,-19.700849052325346,-360,,,,,,,,,,,
1.3210639953613281,92.70654277804954,-1537.4103005101972,1277.1787479410423,0.0462107762657423,-0.001707980807077785,-1.589487991949545,0.00032711029052734375,-1.5286824686384972,1,1,1,1,-0.09270654277804954,1.5374103005101971,-1.1771787479410423,-91.0709535254331,0.0,0.0,0.1,0.0,1,1974.0004934568526,-26.72817472031283,30.65330673832898,-1716.684688323348,10000,-26.72817472031283,30.65330673832898,-360,,,,,,,,,,,
1.3237237930297852,92.66716202426005,-1531.9011393321496,1278.2859034645887,0.08722429793833975,0.05617261938956172,-1.572488347742206,0.00010776519775390625,-1.5316229618252004,1,1,1,1,-0.09266716202426005,1.5319011393321496,-1.1782859034645887,-90.09694565912856,0.0,0.0,0.1,0.0,1,-1182.0079285491745,-39.56406445758078,-8.005025229836633,-801.7163509846365,10000,-39.56406445758078,-8.005025229836633,-360,,,,,,,,,,,
1.3280515670776367,92.16297099109633,-1526.0025473858109,1278.0867721660074,0.13641869627527742,0.07926241030832792,-1.5696472423406882,8.225440979003906e-05,-1.5361236846819648,1,1,1,1,-0.09216297099109633,1.526002547385811,-1.1780867721660075,-89.93416231046977,0.0,0.0,0.1,0.0,1,7228.056441611241,-34.53731967487686,-22.984648956424298,-1292.4985688795691,10000,-34.53731967487686,-22.984648956424298,-360,0.0,0.0,0.0,0.0,0.0,0.0,0.0,0.0,1190.0,-4.0,2.0
1.3317065238952637,91.6667376648613,-1521.260159072976,1278.7763978654402,0.09697365348372283,0.08966104574529109,-1.5859267609170085,0.000102996826171875,-1.5397433709426653,1,1,1,1,-0.0916667376648613,1.521260159072976,-1.1787763978654402,-90.86691001739774,0.0,0.0,0.1,0.0,1,2938.697553385564,-32.25503302120271,-24.25581308752328,-1744.833382659835,10000,-32.25503302120271,-24.25581308752328,-360,,,,,,,,,,,
1.339752197265625,91.72341053813092,-1516.379071808068,1279.8124801778267,0.11397911911797931,0.12791931897600237,-1.57922106420705,0.00010418891906738281,-1.546702241809475,1,1,1,1,-0.09172341053813092,1.5163790718080679,-1.1798124801778267,-90.48270189722237,0.0,0.0,0.1,0.0,1,4118.2298505871695,-30.97998570872206,-39.05071319038112,-1285.6380377765597,10000,-30.97998570872206,-39.05071319038112,-360,0.0,0.0,0.0,0.0,0.0,0.0,0.0,0.0,1405.0,-2.0,10.0
1.3424770832061768,91.19653334510548,-1512.5963475046635,1281.2728362063976,0.11901089632805638,0.14677345239464656,-1.586633313809184,0.0003864765167236328,-1.5489595553808915,1,1,1,1,-0.09119653334510548,1.5125963475046635,-1.1812728362063976,-90.90739251612216,0.0,0.0,0.1,0.0,1,-3331.225402330462,-25.69876921983824,-21.889293783513374,-1596.4987411734357,10000,-25.69876921983824,-21.889293783513374,-360,,,,,,,,,,,
1.3516829013824463,90.76413229378781,-1507.9683873641038,1282.0337237937206,0.11362129981349242,0.14889117993934795,-1.5876380541522395,0.0002124309539794922,-1.555562935786391,1,1,1,1,-0.09076413229378781,1.5079683873641039,-1.1820337237937206,-90.96495989728577,0.0,0.0,0.1,0.0,1,4871.454264177408,-25.108978846322437,-40.90136209199515,-1373.864910155884,10000,-25.108978846322437,-40,-360,0.0,0.0,0.0,0.0,0.0,0.0,0.0,0.0,1405.0,0.0,3.0
1.3597404956817627,89.94529016923383,-1503.3780833831424,1283.308742495672,0.1331013627889187,0.14320666212008354,-1.5803229161355525,0.00010633468627929688,-1.5604998326304937,1,1,1,1,-0.08994529016923383,1.5033780833831425,-1.183308742495672,-90.5458333623739,0.0,0.0,0.1,0.0,1,3383.378085267248,-20.584513038341985,-39.31956724784919,-1280.1953042560615,10000,-20.584513038341985,-39.31956724784919,-360,,,,,,,,,,,
1.3623902797698975,88.80389085168886,-1499.3711149341839,1285.3839028462762,0.12569038209470867,0.13962270421733816,-1.5758189767993596,0.000270843505859375,-1.5620154863615263,1,1,1,1,-0.08880389085168887,1.499371114934184,-1.1853839028462763,-90.28777664722709,0.0,0.0,0.1,0.0,1,-7700.424262776821,-12.34307297456822,-18.675702793608366,-1208.2743299413225,10000,-12.34307297456822,-18.675702793608366,-360,,,,,,,,,,,
1.3694841861724854,88.29940413674116,-1495.426019691875,1287.6307858564996,0.15765051689544377,0.14671603102436806,-1.5705927266711064,8.20159912109375e-05,-1.5652892271453596,1,1,1,1,-0.08829940413674116,1.495426019691875,-1.1876307858564996,-89.98833457219848,0.0,0.0,0.1,0.0,1,312.5887411749422,-16.34332798185575,-39.45541300518963,-1286.296890456483,10000,-16.34332798185575,-39.45541300518963,-360,,,,,,,,,,,
1.37261962890625,87.26768236369514,-1491.8923710831973,1289.0286957798821,0.1696850491543645,0.15963229470150656,-1.5849424159570775,8.106231689453125e-05,-1.5666087287068533,1,1,1,1,-0.08726768236369514,1.4918923710831973,-1.1890286957798821,-90.81051120560872,0.0,0.0,0.1,0.0,1,-1984.5793153182958,-9.454348734235536,-27.01238125326527,-1755.2489450298438,10000,-9.454348734235536,-27.01238125326527,-360,0.0,0.0,0.0,0.0,0.0,0.0,0.0,0.0,1252.0,-4.0,4.0
1.377204418182373,86.09823838576565,-1488.8296322936794,1291.0997763339471,0.17883856398455605,0.13959879827890295,-1.5764086954149146,0.00010085105895996094,-1.5682815963368641,1,1,1,1,-0.08609823838576565,1.4888296322936794,-1.1910997763339473,-90.3215650349987,0.0,0.0,0.1,0.0,1,-2184.6416526042995,-9.181155079221947,-37.000722127019124,-1195.3117659703298,10000,-9.181155079221947,-37.000722127019124,-360,,,,,,,,,,,
1.3794894218444824,85.28158068741743,-1485.918713295971,1292.7658835781174,0.17620392980366895,0.15021167275418723,-1.5671147712997142,0.00010395050048828125,-1.5690434748529798,1,1,1,1,-0.08528158068741744,1.485918713295971,-1.1927658835781174,-89.78906240808286,0.0,0.0,0.1,0.0,1,-7003.478921049551,-5.956570823546709,-23.787056420001072,-997.673158932557,10000,-5.956570823546709,-23.787056420001072,-360,,,,,,,,,,,
1.3823518753051758,84.64101082989824,-1483.3725040122436,1294.1495212629297,0.19600427258447517,0.16420108649639456,-1.56756068011687,0.00020170211791992188,-1.569878418897611,1,1,1,1,-0.08464101082989824,1.4833725040122436,-1.1941495212629298,-89.81461110135355,0.0,0.0,0.1,0.0,1,-2893.089481658673,-7.511915130730729,-31.953414045769797,-1360.6982843039561,10000,-7.511915130730729,-31.953414045769797,-360,,,,,,,,,,,
1.387727975845337,84.15930022275924,-1480.6248156093,1295.1302122184384,0.17637948467891643,0.16197230962242176,-1.5702430544509514,8.106231689453125e-05,-1.5710807734215015,1,1,1,1,-0.08415930022275925,1.4806248156093,-1.1951302122184384,-89.96829982977063,0.0,0.0,0.1,0.0,1,2530.8679664598135,-8.20871242286881,-40.32796995839663,-1392.3808875064838,10000,-8.20871242286881,-40,-360,0.0,0.0,0.0,0.0,0.0,0.0,0.0,0.0,1252.0,-4.0,5.0
1.390904426574707,83.80173075355665,-1478.4657244981308,1296.1560924709586,0.1930072340420724,0.18097822852866932,-1.5738009828586035,0.00010085105895996094,-1.5716793765899961,1,1,1,1,-0.08380173075355665,1.4784657244981307,-1.1961560924709587,-90.1721541113388,0.0,0.0,0.1,0.0,1,-24.674757090495184,-6.561474512589605,-36.72381012021007,-1448.3657502733492,10000,-6.561474512589605,-36.72381012021007,-360,,,,,,,,,,,
1.3932762145996094,83.29222880517482,-1475.6816485380868,1296.6870466667704,0.18913802128605428,0.1818128906018222,-1.5623647338282916,7.677078247070312e-05,-1.572055035817149,1,1,1,1,-0.08329222880517481,1.4756816485380868,-1.1966870466667703,-89.51690530844134,0.0,0.0,0.1,0.0,1,1617.8578992817625,-3.371568012208114,-25.61859844052044,-924.1012984768233,10000,-3.371568012208114,-25.61859844052044,-360,,,,,,,,,,,
1.3989231586456299,82.7518629942774,-1473.7962161358114,1297.441441418545,0.182391023099069,0.16809447367034747,-1.5672357020722683,0.0002224445343017578,-1.572616867851105,1,1,1,1,-0.0827518629942774,1.4737962161358114,-1.197441441418545,-89.79599123096345,0.0,0.0,0.1,0.0,1,3388.5830328768193,-4.081951762971145,-44.18123311916263,-1420.7743077969983,10000,-4.081951762971145,-40,-360,0.0,0.0,0.0,0.0,0.0,0.0,0.0,0.0,1260.0,-2.0,1.0
1.402543544769287,82.39282051946071,-1472.1774281414869,1298.4213372458676,0.17972941661141176,0.14480933637743715,-1.5627627338508419,0.0002970695495605469,-1.5728373313710087,1,1,1,1,-0.08239282051946072,1.4721774281414868,-1.1984213372458676,-89.53970902997959,0.0,0.0,0.1,0.0,1,825.898330842186,-2.7644777903688844,-41.71458157716961,-1236.9546183294833,10000,-2.7644777903688844,-40,-360,,,,,,,,,,,
1.411604881286621,81.92041606552988,-1469.6537553795454,1298.8747305804975,0.2357669781379688,0.10402910274299594,-1.5593111979678764,9.72747802734375e-05,-1.5726022327305973,1,1,1,1,-0.08192041606552988,1.4696537553795455,-1.1988747305804974,-89.3419505910477,0.0,0.0,0.1,0.0,1,4885.212468738456,-0.9884946076745607,-45.43741058650702,-1307.3865941332585,10000,-0.9884946076745607,-40,-360,0.0,0.0,0.0,0.0,0.0,0.0,0.0,0.0,1260.0,-2.0,0.0
1.4196124076843262,81.39892731583271,-1468.3173375675901,1298.9834092220726,0.21037145782658878,0.09419298521892201,-1.5637892412212682,0.00010085105895996094,-1.5720143457663611,1,1,1,1,-0.0813989273158327,1.4683173375675902,-1.1989834092220726,-89.59852356994409,0.0,0.0,0.1,0.0,1,5605.719254154464,0.845891520573526,-47.903303630027295,-1392.0214741186885,10000,0.845891520573526,-40,-360,,,,,,,,,,,
1.422379970550537,80.96133927860105,-1466.5245902940264,1299.1307840684924,0.22854758994820315,0.09753133229297661,-1.5636566283147797,9.632110595703125e-05,-1.5717741610950144,1,1,1,1,-0.08096133927860104,1.4665245902940265,-1.1991307840684924,-89.59092541009333,0.0,0.0,0.1,0.0,1,4693.566627180907,3.3243935830099347,-37.42622937638134,-1339.7453760784258,10000,3.3243935830099347,-37.42622937638134,-360,0.0,0.0,0.0,0.0,0.0,0.0,0.0,0.0,1266.0,-4.0,0.0
1.4269037246704102,81.20293210855714,-1464.9027899109824,1299.3154059370488,0.21362687090461524,0.09161692978061024,-1.5619757658828959,9.965896606445312e-05,-1.5713054467620182,1,1,1,1,-0.08120293210855714,1.4649027899109823,-1.1993154059370488,-89.49461908680429,0.0,0.0,0.1,0.0,1,5008.976694442919,-0.7250753013533204,-43.67081772721997,-1310.4739604469064,10000,-0.7250753013533204,-40,-360,,,,,,,,,,,
1.4298956394195557,80.34236030698838,-1464.0178190842241,1298.9037143116695,0.19245710284033915,0.10366226788775276,-1.5721784302251023,0.0005307197570800781,-1.5709869089341095,1,1,1,1,-0.08034236030698838,1.4640178190842241,-1.1989037143116696,-90.07918869340133,0.0,0.0,0.1,0.0,1,8337.010719829477,6.775596301206007,-45.03176118449649,-1643.377705577202,10000,6.775596301206007,-40,-360,,,,,,,,,,,
1.4323806762695312,80.55872917192436,-1462.512075030318,1299.1665025594361,0.17397143933165338,0.10036143577183101,-1.5746536410452097,7.915496826171875e-05,-1.5707340867337678,1,1,1,1,-0.08055872917192436,1.462512075030318,-1.1991665025594362,-90.22100782679861,0.0,0.0,0.1,0.0,1,3724.6244398199483,-1.4555308170244843,-38.02143895791576,-1440.245050929561,10000,-1.4555308170244843,-38.02143895791576,-360,,,,,,,,,,,
1.4377830028533936,80.28358891616166,-1461.3967965296379,1299.0069443606621,0.17474230573237917,0.11060522649324839,-1.5725516202918606,0.00017690658569335938,-1.5702756141006815,1,1,1,1,-0.08028358891616166,1.461396796529638,-1.1990069443606621,-90.10057090918279,0.0,0.0,0.1,0.0,1,6379.858287115022,1.0100966265611295,-46.82132395527457,-1318.0977621052425,10000,1.0100966265611295,-40,-360,0.0,0.0,0.0,0.0,0.0,0.0,0.0,0.0,1266.0,0.0,2.0
1.4408435821533203,80.1206668647684,-1459.4647706386036,1298.4586009387824,0.1783505360775517,0.09940843563763366,-1.5752659159207325,9.465217590332031e-05,-1.5700581577039472,1,1,1,1,-0.08012066686476839,1.4594647706386035,-1.1984586009387823,-90.25608859306797,0.0,0.0,0.1,0.0,1,8875.587473162454,0.6191163561150996,-37.55913906913512,-1429.7653349009481,10000,0.6191163561150996,-37.55913906913512,-360,,,,,,,,,,,
1.443974494934082,80.00435327032743,-1458.0776995146584,1298.270353974708,0.20002088191413858,0.11738438341567421,-1.5651020116476864,9.274482727050781e-05,-1.569864638480112,1,1,1,1,-0.08000435327032743,1.4580776995146585,-1.1982703539747082,-89.67373977484743,0.0,0.0,0.1,0.0,1,6840.363569610432,-0.0003102590473380573,-41.53471361070537,-1066.382478023509,10000,-0.0003102590473380573,-40,-360,0.0,0.0,0.0,0.0,0.0,0.0,0.0,0.0,1266.0,-1.0,-2.0
1.448838472366333,79.9580549418491,-1456.4304344175027,1298.0434485902476,0.18962511277884223,0.10019331887362493,-1.5644004871638106,9.131431579589844e-05,-1.5695931097998495,1,1,1,1,-0.0799580549418491,1.4564304344175028,-1.1980434485902476,-89.63354538269627,0.0,0.0,0.1,0.0,1,6621.6302063397425,-0.7714437058075461,-44.05435844905872,-1332.676905210079,10000,-0.7714437058075461,-40,-360,,,,,,,,,,,
1.4523470401763916,80.24868873383791,-1454.7570676571315,1297.8076713236014,0.19642424288379975,0.11508758296889271,-1.5567858392310574,8.845329284667969e-05,-1.569379740490303,1,1,1,1,-0.0802486887338379,1.4547570676571315,-1.1978076713236014,-89.19725819367149,0.0,0.0,0.1,0.0,1,7040.054503835328,-2.6266262089602836,-39.93598575991632,-1137.777888868236,10000,-2.6266262089602836,-39.93598575991632,-360,0.0,0.0,0.0,0.0,0.0,0.0,0.0,0.0,1285.0,-4.0,-3.0
1.4568407535552979,80.3081251247461,-1453.0311545049262,1297.5302889607042,0.1880774681715397,0.10054597384043032,-1.5650131501573012,9.250640869140625e-05,-1.569089260597164,1,1,1,1,-0.0803081251247461,1.4530311545049261,-1.1975302889607042,-89.66864838648713,0.0,0.0,0.1,0.0,1,6920.003361087748,-0.984698244018773,-42.63849678595724,-1502.3378813657132,10000,-0.984698244018773,-40,-360,,,,,,,,,,,
1.4590401649475098,80.49156953689602,-1451.5831155985757,1297.9943834729854,0.1543191817044474,0.11492158090937778,-1.55403870529358,9.226799011230469e-05,-1.5689347981760444,1,1,1,1,-0.08049156953689603,1.4515831155985757,-1.1979943834729854,-89.03985901329688,0.0,0.0,0.1,0.0,1,1885.6652378105355,-2.344130229561132,-36.62565387341158,-906.1113283984446,10000,-2.344130229561132,-36.62565387341158,-360,,,,,,,,,,,
1.4617509841918945,80.7140497431375,-1449.433289608122,1297.980276448188,0.14345917444839001,0.10443293405652371,-1.5728382248809458,0.0002944469451904297,-1.5687441044152346,1,1,1,1,-0.08071404974313749,1.4494332896081221,-1.1979802764481882,-90.11699214252646,0.0,0.0,0.1,0.0,1,5717.789351815254,-2.3207462704891277,-33.63677827953963,-1948.1935099050343,10000,-2.3207462704891277,-33.63677827953963,-360,,,,,,,,,,,
1.4671940803527832,81.19983769570065,-1447.3724828228035,1297.207525568057,0.16736870614638874,0.12600744382711726,-1.566795751258647,7.605552673339844e-05,-1.5683859469670385,1,1,1,1,-0.08119983769570065,1.4473724828228034,-1.197207525568057,-89.77078390614962,0.0,0.0,0.1,0.0,1,8397.755635469037,-2.6063813144159,-42.55393832318272,-1251.045450663702,10000,-2.6063813144159,-40,-360,0.0,0.0,0.0,0.0,0.0,0.0,0.0,0.0,1285.0,-1.0,-2.0
1.4703004360198975,81.5292097540884,-1445.7266503161156,1297.4893279830137,0.1376734138257874,0.116306039440438,-1.5726104843122284,9.441375732421875e-05,-1.568204668467363,1,1,1,1,-0.0815292097540884,1.4457266503161157,-1.1974893279830137,-90.10394356911505,0.0,0.0,0.1,0.0,1,4102.450539119178,-3.218011892441896,-39.26167205134457,-1511.7838409332876,10000,-3.218011892441896,-39.26167205134457,-360,,,,,,,,,,,
1.4727723598480225,81.93326565344813,-1443.8334357103422,1297.5377751677838,0.14001711012118118,0.11467033381439358,-1.5688914986493951,7.033348083496094e-05,-1.5680772834771728,1,1,1,1,-0.08193326565344813,1.4438334357103422,-1.1975377751677838,-89.89086138656504,0.0,0.0,0.1,0.0,1,5294.741014931357,-4.720890829893982,-33.88041207532721,-1217.941948340322,10000,-4.720890829893982,-33.88041207532721,-360,,,,,,,,,,,
1.478402853012085,82.6090016846484,-1442.0002560495273,1297.6598449149867,0.15038408504370446,0.11927087224914475,-1.5672581783068684,9.107589721679688e-05,-1.567851830949724,1,1,1,1,-0.08260900168464841,1.4420002560495273,-1.1976598449149867,-89.7972790243454,0.0,0.0,0.1,0.0,1,5414.826537874952,-4.108877419543159,-43.51096306179029,-1322.1092586239115,10000,-4.108877419543159,-40,-360,0.0,0.0,0.0,0.0,0.0,0.0,0.0,0.0,1285.0,-5.0,-2.0
1.4819166660308838,83.16301372738347,-1440.015404441793,1297.788033502567,0.1482433492711564,0.11641872466874187,-1.5724486784152774,0.0003120899200439453,-1.5677490339735216,1,1,1,1,-0.08316301372738347,1.440015404441793,-1.197788033502567,-90.09467277411942,0.0,0.0,0.1,0.0,1,5053.202680460976,-5.2988497095191756,-38.21909817477066,-1478.2788407729709,10000,-5.2988497095191756,-38.21909817477066,-360,,,,,,,,,,,
1.485222339630127,84.02707539534018,-1438.44869595021,1298.2438923050004,0.14272081390799196,0.12478022773477208,-1.560744853538332,9.34600830078125e-05,-1.567661049019027,1,1,1,1,-0.08402707539534017,1.43844869595021,-1.1982438923050003,-89.42409300451023,0.0,0.0,0.1,0.0,1,3233.929213866752,-7.654495977880594,-40.13262285723917,-1037.0316601627728,10000,-7.654495977880594,-40,-360,0.0,0.0,0.0,0.0,0.0,0.0,0.0,0.0,1168.0,-4.0,-2.0
1.4904487133026123,84.810940768118,-1436.376602689548,1297.6989836124299,0.16692733133109067,0.1306062336332348,-1.5646396774915532,9.512901306152344e-05,-1.567523738189487,1,1,1,1,-0.084810940768118,1.436376602689548,-1.1976989836124299,-89.64724997897626,0.0,0.0,0.1,0.0,1,7675.505346629057,-5.266821152661924,-41.734841377536135,-1408.7561145834254,10000,-5.266821152661924,-40,-360,,,,,,,,,,,
1.49904465675354,85.78868306828385,-1434.9011777097776,1297.668967895297,0.18789606285453625,0.1377331966606059,-1.5714380144987345,8.988380432128906e-05,-1.5674414335220108,1,1,1,1,-0.08578868306828384,1.4349011777097775,-1.1976689678952972,-90.03676599719536,0.0,0.0,0.1,0.0,1,5940.59209714622,-5.016341355740076,-46.53173718576801,-1418.5186213624304,10000,-5.016341355740076,-40,-360,0.0,0.0,0.0,0.0,0.0,0.0,0.0,0.0,1168.0,-3.0,-4.0
1.5021109580993652,86.85968438724144,-1433.3841949104212,1297.8231538178816,0.1835324121155743,0.15436210683952267,-1.5694814595448645,9.751319885253906e-05,-1.5674297533809904,1,1,1,1,-0.08685968438724144,1.4333841949104211,-1.1978231538178816,-89.9246636559532,0.0,0.0,0.1,0.0,1,4837.967637352725,-10.35524309418934,-39.495022417118555,-1294.1286518726681,10000,-10.35524309418934,-39.495022417118555,-360,,,,,,,,,,,
1.5088562965393066,87.86116338706901,-1431.6897971661524,1297.7531186984725,0.14529574360423217,0.14052897113177454,-1.5730105410219761,8.988380432128906e-05,-1.5675250355165318,1,1,1,1,-0.08786116338706901,1.4316897971661524,-1.1977531186984725,-90.12686513014948,0.0,0.0,0.1,0.0,1,6028.144865910809,-6.594042422235869,-44.64720838570822,-1396.9170131873743,10000,-6.594042422235869,-40,-360,0.0,0.0,0.0,0.0,0.0,0.0,0.0,0.0,1168.0,-2.0,0.0
1.5121583938598633,88.75386253566187,-1430.12827995766,1297.67075173596,0.13680019620616576,0.1407999463585267,-1.5772058168299208,9.322166442871094e-05,-1.5676124525773651,1,1,1,1,-0.08875386253566186,1.43012827995766,-1.19767075173596,-90.36723672783805,0.0,0.0,0.1,0.0,1,6207.463654379609,-9.66143631615687,-39.78527545768715,-1464.5729768880965,10000,-9.66143631615687,-39.78527545768715,-360,,,,,,,,,,,
1.5187230110168457,89.72027619747897,-1428.2750756019448,1297.382080057481,0.14262716208467652,0.15111670675558475,-1.5691509747120478,0.00011420249938964844,-1.5678531001473042,1,1,1,1,-0.08972027619747897,1.4282750756019447,-1.197382080057481,-89.9057282698397,0.0,0.0,0.1,0.0,1,6641.571713936304,-7.34525369457663,-43.81254143098383,-1243.082484596832,10000,-7.34525369457663,-40,-360,0.0,0.0,0.0,0.0,0.0,0.0,0.0,0.0,1234.0,-4.0,0.0
1.5218088626861572,90.64781743323663,-1426.4284880274508,1297.2173704684344,0.15833222226829988,0.1618112500822574,-1.5760320641930228,9.72747802734375e-05,-1.5679882515602908,1,1,1,1,-0.09064781743323662,1.426428488027451,-1.1972173704684343,-90.29998565555144,0.0,0.0,0.1,0.0,1,6685.462175179956,-10.936918132390744,-36.90445887560951,-1545.8632314372246,10000,-10.936918132390744,-36.90445887560951,-360,,,,,,,,,,,
1.531620979309082,91.28638013389863,-1424.8005717317112,1297.0479411382698,0.14738845967513334,0.16283786950671358,-1.569772507015613,9.083747863769531e-05,-1.568442493566578,1,1,1,1,-0.09128638013389863,1.4248005717317112,-1.1970479411382697,-89.94133944766503,0.0,0.0,0.1,0.0,1,6210.579784737372,-5.93254983260906,-46.18989801363059,-1294.2757274039502,10000,-5.93254983260906,-40,-360,0.0,0.0,0.0,0.0,0.0,0.0,0.0,0.0,1234.0,-2.0,0.0
1.536754846572876,92.16144953566658,-1422.7339013069363,1296.7943712586482,0.12839363541407486,0.16989285703609883,-1.571111673893399,9.250640869140625e-05,-1.5686799513812848,1,1,1,1,-0.09216144953566657,1.4227339013069362,-1.1967943712586482,-90.01806805782589,0.0,0.0,0.1,0.0,1,6699.290600023548,-8.268970076353574,-40.98471327470409,-1372.6945936455459,10000,-8.268970076353574,-40,-360,,,,,,,,,,,
1.5394856929779053,92.88458997986469,-1420.9692363426693,1296.5974954266237,0.11085272187667242,0.16857945596375085,-1.5567136722514567,8.893013000488281e-05,-1.5687833590512226,1,1,1,1,-0.09288458997986468,1.4209692363426694,-1.1965974954266236,-89.19312333032016,0.0,0.0,0.1,0.0,1,7015.098449144185,-10.10424699506439,-35.6340017477905,-884.0974746348542,10000,-10.10424699506439,-35.6340017477905,-360,,,,,,,,,,,
1.542442798614502,93.53616394828849,-1418.7746042050633,1296.0547603034101,0.10143973534927436,0.16042509037641284,-1.5596605201873794,7.534027099609375e-05,-1.5688554469884546,1,1,1,1,-0.0935361639482885,1.4187746042050633,-1.1960547603034102,-89.36196527991537,0.0,0.0,0.1,0.0,1,8976.864424538984,-8.75667916314816,-33.47064762541169,-1426.3451777455152,10000,-8.75667916314816,-33.47064762541169,-360,0.0,0.0,0.0,0.0,0.0,0.0,0.0,0.0,1234.0,-7.0,-2.0
1.5480625629425049,94.38169634384995,-1416.7199685791104,1295.8917771019178,0.10059142518016023,0.1696545504265535,-1.5582186371708502,9.083747863769531e-05,-1.5688057167196654,1,1,1,1,-0.09438169634384995,1.4167199685791103,-1.1958917771019177,-89.27935146851665,0.0,0.0,0.1,0.0,1,6363.469218743261,-6.20675816895565,-41.699650304024466,-1317.190730869394,10000,-6.20675816895565,-40,-360,,,,,,,,,,,
1.5506973266601562,95.00814809572435,-1414.8111151983626,1295.5246341486136,0.1094868558493353,0.16636665177248994,-1.5522698674179627,9.512901306152344e-05,-1.5687313932273326,1,1,1,1,-0.09500814809572435,1.4148111151983627,-1.1955246341486137,-88.93851206838112,0.0,0.0,0.1,0.0,1,8194.844537680734,-7.540589975858083,-33.90157690911937,-1140.402094951013,10000,-7.540589975858083,-33.90157690911937,-360,,,,,,,,,,,
1.5584301948547363,95.59006573579956,-1413.0386522915965,1295.5030382232435,0.08455736863539105,0.16360851605996907,-1.5481306409974183,8.416175842285156e-05,-1.5679816799639823,1,1,1,1,-0.09559006573579956,1.4130386522915965,-1.1955030382232434,-88.70135186403488,0.0,0.0,0.1,0.0,1,5952.996571678669,-1.8735067313844638,-44.677551426807,-1284.4042838144755,10000,-1.8735067313844638,-40,-360,,,,,,,,,,,
1.561166524887085,96.06175611102933,-1410.6882008612404,1294.8888775596822,0.09252876754404114,0.14749704158267843,-1.5513616028031898,7.772445678710938e-05,-1.5676534926235,1,1,1,1,-0.09606175611102932,1.4106882008612405,-1.1948888775596822,-88.88647233927355,0.0,0.0,0.1,0.0,1,9644.06341418928,-3.327784073400029,-31.005442621171063,-1434.7144766480742,10000,-3.327784073400029,-31.005442621171063,-360,0.0,0.0,0.0,0.0,0.0,0.0,0.0,0.0,1248.0,0.0,2.0
1.5681157112121582,96.82162853319689,-1408.344035178596,1294.42963735206,0.10675415809534561,0.15242620180466868,-1.5462533073962526,0.00010156631469726562,-1.5664490859330296,1,1,1,1,-0.09682162853319688,1.4083440351785959,-1.19442963735206,-88.59378857194999,0.0,0.0,0.1,0.0,1,7050.825133487313,-0.27936130869223463,-42.35617589434138,-1265.9010445502872,10000,-0.27936130869223463,-40,-360,,,,,,,,,,,
1.571868658065796,97.51580779707814,-1406.0726634769337,1293.845085258599,0.10757711119615881,0.15695296078786264,-1.5453640230643155,8.606910705566406e-05,-1.56570295910159,1,1,1,1,-0.09751580779707814,1.4060726634769336,-1.1938450852585991,-88.54283633294288,0.0,0.0,0.1,0.0,1,8783.181141632595,-1.1573481866237096,-36.45281716383002,-1307.6906010223001,10000,-1.1573481866237096,-36.45281716383002,-360,,,,,,,,,,,
1.577470302581787,97.92962859905134,-1403.6773843029355,1293.0900609055223,0.09835497611890785,0.1397270306412049,-1.5512411916465947,0.0002276897430419922,-1.564470280611077,1,1,1,1,-0.09792962859905134,1.4036773843029355,-1.1930900609055222,-88.87957328819436,0.0,0.0,0.1,0.0,1,8334.63467806705,1.9403703224277917,-40.30242061889565,-1423.4259660139442,10000,1.9403703224277917,-40,-360,0.0,0.0,0.0,0.0,0.0,0.0,0.0,0.0,1248.0,-6.0,0.0
1.5803773403167725,98.66945658191777,-1401.0369613668383,1292.3520312295545,0.10526979737636408,0.14920085193220187,-1.5491103535023745,0.00021696090698242188,-1.5638055075758137,1,1,1,1,-0.09866945658191777,1.4010369613668383,-1.1923520312295546,-88.75748525570506,0.0,0.0,0.1,0.0,1,10184.969952326199,-1.8095709610532251,-29.9534323809644,-1268.802294755676,10184.969952326199,-1.8095709610532251,-29.9534323809644,-360,,,,,,,,,,,
1.5819087028503418,99.11947609373094,-1398.5240037176043,1291.944217213388,0.1077984906260858,0.14611180578289215,-1.5448311075098857,7.128715515136719e-05,-1.5634536851048244,1,1,1,1,-0.09911947609373094,1.3985240037176043,-1.1919442172133878,-88.51230252083718,0.0,0.0,0.1,0.0,1,10241.702506088408,-2.7545685060633973,-13.280169500188258,-1083.4932463164448,10241.702506088408,-2.7545685060633973,-13.280169500188258,-360,,,,,,,,,,,
1.5873284339904785,99.66399309543561,-1395.682420789628,1291.1033241046882,0.11696135158851623,0.13822840535462785,-1.5463745639347595,9.751319885253906e-05,-1.5621356720759874,1,1,1,1,-0.09966399309543561,1.395682420789628,-1.1911033241046882,-88.6007360598448,0.0,0.0,0.1,0.0,1,8680.32307163393,1.9981989725520024,-38.075846998314745,-1353.2761950513968,10000,1.9981989725520024,-38.075846998314745,-360,0.0,0.0,0.0,0.0,0.0,0.0,0.0,0.0,1190.0,-4.0,2.0
1.5893797874450684,100.11371270323814,-1392.7233203502972,1290.2407827562174,0.1063150870569215,0.13640189189135016,-1.5503441075891566,0.00012445449829101562,-1.5616414217607524,1,1,1,1,-0.10011371270323814,1.3927233203502971,-1.1902407827562174,-88.8281741578347,0.0,0.0,0.1,0.0,1,12969.685038517384,-0.7831061340840249,-17.75384629186196,-1499.9184318954472,12969.685038517384,-0.7831061340840249,-17.75384629186196,-360,,,,,,,,,,,
1.5918118953704834,100.72266943660794,-1389.77139496115,1289.4529504294446,0.11881626944716939,0.13532205449000426,-1.5505896138594464,8.702278137207031e-05,-1.56105739228964,1,1,1,1,-0.10072266943660795,1.38977139496115,-1.1894529504294447,-88.8422406309663,0.0,0.0,0.1,0.0,1,11421.624640207194,-1.465809907564577,-22.6108164544705,-1341.388911876711,11421.624640207194,-1.465809907564577,-22.6108164544705,-360,,,,,,,,,,,
1.5975286960601807,101.1985195161073,-1386.7867382740706,1288.9147708106736,0.10664247956737387,0.1279883221242894,-1.5515295154836113,9.1552734375e-05,-1.5597513269963195,1,1,1,1,-0.1011985195161073,1.3867867382740706,-1.1889147708106735,-88.89609302718844,0.0,0.0,0.1,0.0,1,7667.566116189721,1.956596414815098,-37.69734149981367,-1347.5655400353971,10000,1.956596414815098,-37.69734149981367,-360,0.0,0.0,0.0,0.0,0.0,0.0,0.0,0.0,1190.0,-4.0,0.0
1.6000370979309082,101.8457318740566,-1383.9397303724718,1288.4718082620311,0.08561419117390902,0.12387117066706023,-1.554622507975603,0.0003991127014160156,-1.559199284429749,1,1,1,1,-0.1018457318740566,1.3839397303724719,-1.1884718082620311,-89.07330844304522,0.0,0.0,0.1,0.0,1,8857.429338329348,-2.2625589153754473,-24.442655624502294,-1441.5415588742223,10000,-2.2625589153754473,-24.442655624502294,-360,,,,,,,,,,,
1.6021032333374023,102.33353802657598,-1380.812402013051,1288.1149403609352,0.08485062119069116,0.12663069670403537,-1.5492770826564766,7.2479248046875e-05,-1.5587638564887543,1,1,1,1,-0.10233353802657598,1.380812402013051,-1.1881149403609352,-88.7670381325569,0.0,0.0,0.1,0.0,1,8734.560241819829,-2.174935611854755,-15.599485604602748,-1106.533454937148,10000,-2.174935611854755,-15.599485604602748,-360,,,,,,,,,,,
1.607546091079712,102.86769899128366,-1377.44889240236,1287.5187043132864,0.09643903649874054,0.1353402871623542,-1.546032808066753,9.417533874511719e-05,-1.557672515969673,1,1,1,1,-0.10286769899128366,1.3774488924023598,-1.1875187043132864,-88.5811548909842,0.0,0.0,0.1,0.0,1,7927.326283328813,0.730894800269803,-35.27677686914307,-1277.6217171304008,10000,0.730894800269803,-35.27677686914307,-360,0.0,0.0,0.0,0.0,0.0,0.0,0.0,0.0,1190.0,0.0,4.0
1.6100285053253174,38.386260914055626,-955.9313754442783,1260.0979531406927,0.13711273643805708,0.16616106173246645,-1.578280078884429,0.00037097930908203125,-1.5572244797560408,1,1,1,1,-0.03838626091405563,0.9559313754442783,-1.1600979531406928,-90.42878740965241,0.0,0.0,0.1,0.0,1,-1022718.950043273,516.3769812526201,3644.7738095394484,-2468.592038409452,10000,40,40,-360,,,,,,,,,,,
1.6120755672454834,37.06697725544015,-948.4497683212601,1260.7377577158816,0.1349307696258155,0.16812898484373442,-1.5837952151147077,7.510185241699219e-05,-1.5569104626219978,1,1,1,1,-0.03706697725544015,0.94844976832126,-1.1607377577158815,-90.74478143908708,0.0,0.0,0.1,0.0,1,1234.3689562091868,15.415283434945012,47.14638706183014,-1595.5301481395165,10000,15.415283434945012,40,-360,,,,,,,,,,,
1.6178653240203857,35.741985234420916,-940.4081595321144,1260.7135129118308,0.13763706832344588,0.16084971147538588,-1.5770830571561556,9.107589721679688e-05,-1.5565277766015635,1,1,1,1,-0.03574198523442092,0.9404081595321144,-1.1607135129118307,-90.3602031166369,0.0,0.0,0.1,0.0,1,6581.09940521542,5.098579773334932,-2.840560397563582,-1256.0576312599567,10000,5.098579773334932,-2.840560397563582,-360,0.0,0.0,0.0,0.0,0.0,0.0,0.0,0.0,1260.0,-3.0,1.0
1.6205332279205322,34.47119873005478,-932.5968141948478,1261.3105098653289,0.1348403667156974,0.1657265535708622,-1.571271048394949,0.00032258033752441406,-1.5564551640505804,1,1,1,1,-0.03447119873005478,0.9325968141948477,-1.161310509865329,-90.0271995441267,0.0,0.0,0.1,0.0,1,2796.0887172038015,9.227162637580085,30.88979054746961,-1163.531057626204,10000,9.227162637580085,30.88979054746961,-360,,,,,,,,,,,
1.622563123703003,33.33014619210753,-924.6152621916756,1261.572375315029,0.13384622573026228,0.1631498155908069,-1.5724492254048876,8.058547973632812e-05,-1.5564572974486945,1,1,1,1,-0.03333014619210753,0.9246152621916756,-1.1615723753150289,-90.09470411431553,0.0,0.0,0.1,0.0,1,4803.577450338236,10.304001795693523,53.57035359602663,-1401.5802443817863,10000,10.304001795693523,40,-360,,,,,,,,,,,
1.6280109882354736,32.15306827186339,-916.440969783007,1262.046442986452,0.12783049706529692,0.15532149989338206,-1.5683677265931644,8.940696716308594e-05,-1.5567742041463943,1,1,1,1,-0.03215306827186339,0.9164409697830069,-1.1620464429864519,-89.86085145831612,0.0,0.0,0.1,0.0,1,4984.262497471689,2.3869483095508413,0.5442300303838508,-1283.5610378195677,10000,2.3869483095508413,0.5442300303838508,-360,0.0,0.0,0.0,0.0,0.0,0.0,0.0,0.0,1260.0,-1.0,1.0
1.6303229331970215,31.380489054566038,-908.0574944089782,1262.324869183157,0.11099921837284267,0.16154315012643838,-1.5660348607831434,9.179115295410156e-05,-1.5569550477044798,1,1,1,1,-0.03138048905456604,0.9080574944089782,-1.1623248691831571,-89.72718809323155,0.0,0.0,0.1,0.0,1,4808.084522181143,3.940517874674208,46.905543917878305,-1259.2936304167526,10000,3.940517874674208,40,-360,,,,,,,,,,,
1.635321855545044,30.375185794424205,-899.8311363733924,1262.7042690278386,0.12820099449660743,0.13962379992771282,-1.5652185366842013,0.0001087188720703125,-1.5574829446976322,1,1,1,1,-0.030375185794424206,0.8998311363733924,-1.1627042690278386,-89.68041616764735,0.0,0.0,0.1,0.0,1,5163.296280873023,1.154085782887706,4.114648930799881,-1331.254153384359,10000,1.154085782887706,4.114648930799881,-360,0.0,0.0,0.0,0.0,0.0,0.0,0.0,0.0,1260.0,-5.0,1.0
1.6397361755371094,29.619397865138367,-891.7416980731722,1263.3391963660051,0.12150277216951394,0.13145985684904932,-1.5720476889322632,0.00010800361633300781,-1.5580447478092467,1,1,1,1,-0.029619397865138366,0.8917416980731722,-1.1633391963660051,-90.07169776911358,0.0,0.0,0.1,0.0,1,3987.488908088828,0.08406657367094039,8.674690761919738,-1484.142005954776,10000,0.08406657367094039,8.674690761919738,-360,,,,,,,,,,,
1.642162799835205,28.846617610551483,-883.4616100305282,1263.7243324462008,0.12292044918766754,0.12911105098865466,-1.5668388346762485,9.632110595703125e-05,-1.5583756537110554,1,1,1,1,-0.028846617610551482,0.8834616100305281,-1.1637243324462008,-89.77325240414518,0.0,0.0,0.1,0.0,1,3986.683192398872,2.7344507420680046,43.466917283195656,-1161.498639955845,10000,2.7344507420680046,40,-360,,,,,,,,,,,
1.6457138061523438,28.333606226603187,-875.003339819143,1263.9916412885461,0.12117392080156376,0.13877888624462376,-1.5608960093156263,9.703636169433594e-05,-1.5588698108400119,1,1,1,1,-0.02833360622660319,0.875003339819143,-1.163991641288546,-89.43275359259822,0.0,0.0,0.1,0.0,1,5212.119258103629,-0.7768270846229709,21.172893436733872,-1197.5917075364496,10000,-0.7768270846229709,21.172893436733872,-360,0.0,0.0,0.0,0.0,0.0,0.0,0.0,0.0,1287.0,-2.0,1.0
1.650233507156372,27.887289155174077,-866.7382542669048,1264.4669074629396,0.12378070869045084,0.1234084594092279,-1.5717977640410503,0.000102996826171875,-1.5595277330695576,1,1,1,1,-0.027887289155174078,0.8667382542669049,-1.1644669074629397,-90.05737812765182,0.0,0.0,0.1,0.0,1,4620.440659665621,-1.7016728966613006,9.347409869409798,-1557.8010499458553,10000,-1.7016728966613006,9.347409869409798,-360,,,,,,,,,,,
1.6548519134521484,27.476694773605608,-858.4212686661265,1264.9067946218993,0.1278821361945173,0.11413830020021455,-1.5817304184960448,9.965896606445312e-05,-1.5602876600121194,1,1,1,1,-0.02747669477360561,0.8584212686661264,-1.1649067946218994,-90.62647730728482,0.0,0.0,0.1,0.0,1,4770.859237208331,-2.2245804245562777,9.149380221003536,-1544.4339786427147,10000,-2.2245804245562777,9.149380221003536,-360,,,,,,,,,,,
1.660999059677124,27.201384775455328,-849.8327316883904,1265.0016086292612,0.13956240708397488,0.11020584823764727,-1.5772583445714774,9.274482727050781e-05,-1.5614371540331942,1,1,1,1,-0.027201384775455327,0.8498327316883904,-1.1650016086292612,-90.37024634573659,0.0,0.0,0.1,0.0,1,6114.508293455191,-3.470676623126069,0.5466528959642609,-1293.2444102286292,10000,-3.470676623126069,0.5466528959642609,-360,0.0,0.0,0.0,0.0,0.0,0.0,0.0,0.0,1287.0,-6.0,0.0
1.669297695159912,27.038507337097435,-841.1071285463504,1265.236128019381,0.1304295031788499,0.11829929304380182,-1.5771412985886553,0.00010967254638671875,-1.5631372261593743,1,1,1,1,-0.027038507337097437,0.8411071285463504,-1.165236128019381,-90.36354010491192,0.0,0.0,0.1,0.0,1,5898.630705984895,-4.24275979134697,-6.513578546313941,-1354.2397807283976,10000,-4.24275979134697,-6.513578546313941,-360,,,,,,,,,,,
1.6720008850097656,26.855593986908893,-832.3555768974302,1265.2617070949084,0.13815640482521585,0.11849069783440702,-1.5780808175869616,9.250640869140625e-05,-1.5637007569702712,1,1,1,1,-0.026855593986908892,0.8323555768974302,-1.1652617070949083,-90.41737057828723,0.0,0.0,0.1,0.0,1,6640.912869781876,-3.587288869771196,41.692847090565515,-1386.332664401529,10000,-3.587288869771196,40,-360,0.0,0.0,0.0,0.0,0.0,0.0,0.0,0.0,1265.0,-7.0,-2.0
1.6764678955078125,26.868347471305036,-823.6601646003501,1265.5318069930079,0.13909007370166313,0.10715025230474746,-1.5811008966716904,0.00010275840759277344,-1.5646752079366,1,1,1,1,-0.026868347471305037,0.8236601646003501,-1.1655318069930078,-90.59040836363793,0.0,0.0,0.1,0.0,1,5373.086895083748,-5.017376470275595,13.4217713740383,-1416.8561048297092,10000,-5.017376470275595,13.4217713740383,-360,,,,,,,,,,,
1.6789038181304932,26.90709507618455,-814.7324456558345,1265.4746161029125,0.14304119596615963,0.11300644310381149,-1.5818436631931543,9.775161743164062e-05,-1.5652162653654473,1,1,1,1,-0.02690709507618455,0.8147324456558345,-1.1654746161029126,-90.63296575048142,0.0,0.0,0.1,0.0,1,7506.8706578529345,-5.5525070512857795,51.30905557509246,-1385.7674650424983,10000,-5.5525070512857795,40,-360,,,,,,,,,,,
1.6821658611297607,27.151074417931845,-805.7133358281712,1265.3852041503142,0.13588204751885785,0.1254280680636084,-1.5826264477804526,9.369850158691406e-05,-1.5659611105467142,1,1,1,1,-0.027151074417931846,0.8057133358281713,-1.165385204150314,-90.6778160036015,0.0,0.0,0.1,0.0,1,7114.807236684974,-6.770685749208384,31.963059331032344,-1380.8075292862588,10000,-6.770685749208384,31.963059331032344,-360,0.0,0.0,0.0,0.0,0.0,0.0,0.0,0.0,1265.0,-3.0,0.0
1.68764328956604,27.297851615994773,-796.5960316095099,1265.177391456824,0.14395540781845895,0.12305585628161302,-1.579657744908022,0.00010371208190917969,-1.5672243230426586,1,1,1,1,-0.027297851615994774,0.7965960316095099,-1.165177391456824,-90.50772185838287,0.0,0.0,0.1,0.0,1,7038.035350674835,-5.59039530270151,8.281826846267954,-1311.1243937589347,10000,-5.59039530270151,8.281826846267954,-360,,,,,,,,,,,
1.6901445388793945,27.468701213637786,-787.2790151922268,1264.7651972664303,0.12965842745750408,0.12639018687279005,-1.5812867285991197,0.00010418891906738281,-1.5678007248755808,1,1,1,1,-0.027468701213637786,0.7872790151922268,-1.1647651972664304,-90.6010557487784,0.0,0.0,0.1,0.0,1,10307.037219811966,-6.595335626857724,53.53153912383152,-1415.0897537958829,10307.037219811966,-6.595335626857724,40,-360,,,,,,,,,,,
1.6925792694091797,27.928036805397706,-778.1652749819705,1264.3915610968845,0.1332214722303467,0.13875543923943395,-1.5797751429174374,9.393692016601562e-05,-1.568357038615269,1,1,1,1,-0.027928036805397707,0.7781652749819705,-1.1643915610968845,-90.51444826884561,0.0,0.0,0.1,0.0,1,10162.837027705933,-9.138388676463565,54.41706384663273,-1304.1493676359028,10162.837027705933,-9.138388676463565,40,-360,,,,,,,,,,,
1.6984655857086182,28.14669104350675,-768.8462636032428,1263.777312775,0.14752950195096945,0.13903648741855146,-1.587253303183328,8.678436279296875e-05,-1.5697295838166911,1,1,1,1,-0.02814669104350675,0.7688462636032428,-1.163777312775,-90.94291529060357,0.0,0.0,0.1,0.0,1,8212.662814575535,-5.738190917409188,7.590139034719506,-1473.3602197099651,10000,-5.738190917409188,7.590139034719506,-360,0.0,0.0,0.0,0.0,0.0,0.0,0.0,0.0,1265.0,-1.0,-2.0
1.7028539180755615,28.48319342725161,-759.4592467483742,1263.0205451271984,0.13359242105982483,0.15491679573986766,-1.577601361005903,0.00010442733764648438,-1.5707212496938139,1,1,1,1,-0.02848319342725161,0.7594592467483742,-1.1630205451271984,-90.38989973973281,0.0,0.0,0.1,0.0,1,9512.120077796533,-6.418228463163529,19.83405068858507,-1167.3619580593104,10000,-6.418228463163529,19.83405068858507,-360,,,,,,,,,,,
1.7069270610809326,28.720803063702494,-749.7574878844905,1262.0049384338524,0.1434556381307367,0.14915714714732,-1.5750338867220322,9.918212890625e-05,-1.5715769460633522,1,1,1,1,-0.028720803063702494,0.7497574878844905,-1.1620049384338524,-90.24279429925863,0.0,0.0,0.1,0.0,1,10989.315104165571,-5.71479174895497,25.599472250779392,-1299.4489524263483,10989.315104165571,-5.71479174895497,25.599472250779392,-360,0.0,0.0,0.0,0.0,0.0,0.0,0.0,0.0,1230.0,-3.0,-3.0
1.7110204696655273,29.187215229496392,-739.9717502545606,1261.057032182265,0.14322369138148372,0.14043828616980056,-1.5795178581102,0.000102996826171875,-1.57237287748306,1,1,1,1,-0.029187215229496393,0.7399717502545605,-1.1610570321822649,-90.49970693525808,0.0,0.0,0.1,0.0,1,10720.265843433608,-6.614255645961521,26.083363077300174,-1451.5900588684626,10720.265843433608,-6.614255645961521,26.083363077300174,-360,,,,,,,,,,,
1.7187507152557373,29.641766496457574,-729.94343795355,1259.9374849879641,0.13208481173340855,0.14141382646950135,-1.578420734407585,0.00012874603271484375,-1.5736362429503479,1,1,1,1,-0.029641766496457573,0.72994343795355,-1.1599374849879642,-90.43684637749446,0.0,0.0,0.1,0.0,1,8998.419112380869,-4.931399996068745,2.728467718357777,-1344.3512816215928,10000,-4.931399996068745,2.728467718357777,-360,,,,,,,,,,,
1.7218563556671143,30.023050744406152,-719.7423866058905,1258.6434034478964,0.13225172000596247,0.14107290474358722,-1.5851971778331162,9.036064147949219e-05,-1.5741196494754697,1,1,1,1,-0.030023050744406154,0.7197423866058905,-1.1586434034478963,-90.82510798588658,0.0,0.0,0.1,0.0,1,14884.29227995252,-6.035254651925442,46.36029187849147,-1550.3368249043508,14884.29227995252,-6.035254651925442,40,-360,0.0,0.0,0.0,0.0,0.0,0.0,0.0,0.0,1230.0,-4.0,-1.0
1.7270517349243164,30.310584379758797,-709.5193848165005,1257.6289928804142,0.12608042644939982,0.13249939902790872,-1.5796404102952954,0.00011515617370605469,-1.5748556712937938,1,1,1,1,-0.0303105843797588,0.7095193848165006,-1.1576289928804142,-90.50672865823414,0.0,0.0,0.1,0.0,1,10032.179028229653,-4.393271141041132,17.852240700616225,-1265.956626847713,10032.179028229653,-4.393271141041132,17.852240700616225,-360,,,,,,,,,,,
1.7295258045196533,30.56256273583075,-698.9988815103766,1256.2287320563187,0.13984747258429955,0.13236260836054825,-1.5809747390763866,9.942054748535156e-05,-1.575188897818126,1,1,1,1,-0.03056256273583075,0.6989988815103766,-1.1562287320563187,-90.5831800658735,0.0,0.0,0.1,0.0,1,19728.946033482247,-5.071365155705265,68.34152540284725,-1405.319221834457,19728.946033482247,-5.071365155705265,40,-360,,,,,,,,,,,
1.7326600551605225,31.02945321901893,-688.5625136514294,1255.1077337235138,0.12297507084815512,0.11960434717659597,-1.5756150540270946,7.390975952148438e-05,-1.5755751287970985,1,1,1,1,-0.03102945321901893,0.6885625136514294,-1.1551077337235138,-90.2760927330297,0.0,0.0,0.1,0.0,1,14102.753180577463,-5.998016928026731,48.96160001082548,-1205.6267901234212,14102.753180577463,-5.998016928026731,40,-360,0.0,0.0,0.0,0.0,0.0,0.0,0.0,0.0,1188.0,-3.0,-8.0
1.737145185470581,31.206071150833665,-677.9038660703844,1253.9083806925155,0.12115786731703113,0.1174889639614878,-1.570858053509234,8.654594421386719e-05,-1.57601970710579,1,1,1,1,-0.031206071150833667,0.6779038660703844,-1.1539083806925154,-90.00353668021475,0.0,0.0,0.1,0.0,1,11583.522722027736,-3.2770613188100963,27.794628085105064,-1259.1366399482547,11583.522722027736,-3.2770613188100963,27.794628085105064,-360,,,,,,,,,,,
1.739542007446289,31.282378056436986,-667.2942780785125,1252.8555926938625,0.12079757534899714,0.11398375719175609,-1.5718189253937314,8.630752563476562e-05,-1.5762222782950532,1,1,1,1,-0.03128237805643699,0.6672942780785125,-1.1528555926938624,-90.05859058384922,0.0,0.0,0.1,0.0,1,17665.622777101213,-2.635754547284674,72.86843364599342,-1385.3674789254696,17665.622777101213,-2.635754547284674,40,-360,,,,,,,,,,,
1.7421479225158691,31.440645620914246,-656.4025507417632,1251.9404270935918,0.12986137074273188,0.11885374362075424,-1.5675285941273491,8.106231689453125e-05,-1.5763946314153836,1,1,1,1,-0.03144064562091425,0.6564025507417632,-1.1519404270935918,-89.8127727095725,0.0,0.0,0.1,0.0,1,15366.67765028898,-2.998085524615734,67.88600356905822,-1205.5269996363927,15366.67765028898,-2.998085524615734,40,-360,,,,,,,,,,,
1.7477328777313232,31.504099736051714,-645.3915982698649,1250.9010472423556,0.12447970243844501,0.09561679528522228,-1.5694526163104723,7.963180541992188e-05,-1.5765494810259473,1,1,1,1,-0.03150409973605171,0.6453915982698648,-1.1509010472423555,-89.92301106035501,0.0,0.0,0.1,0.0,1,10101.1973713238,-1.6261782526900612,20.038494415235785,-1378.3244762067118,10101.1973713238,-1.6261782526900612,20.038494415235785,-360,0.0,0.0,0.0,0.0,0.0,0.0,0.0,0.0,1188.0,-2.0,-2.0
1.7514400482177734,31.30326980448049,-634.2924772221539,1250.2504255238725,0.1265460868940238,0.10058591963548776,-1.5668598637382272,8.630752563476562e-05,-1.5765551427959024,1,1,1,1,-0.03130326980448049,0.634292477222154,-1.1502504255238726,-89.77445728064367,0.0,0.0,0.1,0.0,1,10549.510671183367,0.312068379488073,43.07934157600472,-1286.2214105060973,10549.510671183367,0.312068379488073,40,-360,,,,,,,,,,,
1.7536332607269287,31.195472617351324,-623.4486127908476,1250.2499241799205,0.11680358199862205,0.09499650530632646,-1.5579266771848608,6.961822509765625e-05,-1.576517657116773,1,1,1,1,-0.031195472617351325,0.6234486127908476,-1.1502499241799204,-89.26262339353276,0.0,0.0,0.1,0.0,1,9304.611091847026,0.7045433544536759,85.73663376713347,-987.9660124760422,10000,0.7045433544536759,40,-360,,,,,,,,,,,
1.7596666812896729,31.10135907220709,-612.2558653831358,1250.1221345293106,0.1325664653425882,0.09240756607874623,-1.5638681946011759,8.559226989746094e-05,-1.5761403727958114,1,1,1,1,-0.03110135907220709,0.6122558653831358,-1.1501221345293107,-89.6030472653911,0.0,0.0,0.1,0.0,1,7276.151610053056,0.19459959724216924,18.74271201405286,-1428.5967259618917,10000,0.19459959724216924,18.74271201405286,-360,0.0,0.0,0.0,0.0,0.0,0.0,0.0,0.0,1188.0,-3.0,-2.0
1.770719051361084,30.77715640045136,-601.0879313911043,1250.3782336702582,0.14070560637940777,0.07577276309019962,-1.556779690764737,0.004568576812744141,-1.5745865858965704,1,1,1,1,-0.03077715640045136,0.6010879313911044,-1.1503782336702582,-89.19690591250085,0.0,0.0,0.1,0.0,1,6418.895487529085,1.4270901164407581,0.7602747748680301,-1282.9043513070392,10000,1.4270901164407581,0.7602747748680301,-360,,,,,,,,,,,
1.7798490524291992,30.671344425654386,-589.8197786267583,1250.69986947682,0.11919260754427875,0.07273607078152994,-1.5586214770853253,0.007467508316040039,-1.5729424739838291,1,1,1,1,-0.030671344425654386,0.5898197786267583,-1.15069986947682,-89.30243249543548,0.0,0.0,0.1,0.0,1,6212.25924722855,1.5395299844692487,6.012038007915855,-1356.873368313203,10000,1.5395299844692487,6.012038007915855,-360,0.0,0.0,0.0,0.0,0.0,0.0,0.0,0.0,1263.0,-8.0,-2.0
1.78997802734375,30.502626608369322,-578.6484150762558,1251.2730685205047,0.12068810864562313,0.06395293788933691,-1.557400206887458,0.008100271224975586,-1.5709005035620864,1,1,1,1,-0.03050262660836932,0.5786484150762558,-1.1512730685205046,-89.23245886745258,0.0,0.0,0.1,0.0,1,5826.321148169641,1.874698072653726,3.5446006027577255,-1328.1244877190948,10000,1.874698072653726,3.5446006027577255,-360,0.0,0.0,0.0,0.0,0.0,0.0,0.0,0.0,1263.0,-2.0,-3.0
1.8002314567565918,30.50959048043034,-567.3044089517292,1251.951640718679,0.12692109804426288,0.0531550629715897,-1.5500992241811618,0.008011102676391602,-1.5685521491516181,1,1,1,1,-0.03050959048043034,0.5673044089517292,-1.1519516407186792,-88.8141433720838,0.0,0.0,0.1,0.0,1,5643.336020923092,1.784399601467371,4.004218508459942,-1271.0057612877654,10000,1.784399601467371,4.004218508459942,-360,0.0,0.0,0.0,0.0,0.0,0.0,0.0,0.0,1226.0,-4.0,-4.0
1.8098087310791016,30.659087097198885,-555.6048766137949,1252.1191291159469,0.10161386953101102,0.03504186417487971,-1.5582605375773682,0.007973432540893555,-1.5664745702019016,1,1,1,1,-0.030659087097198886,0.5556048766137949,-1.152119129115947,-89.28175218497002,0.0,0.0,0.1,0.0,1,6474.264833426507,1.2289780322138548,6.926634576717774,-1412.4781196224621,10000,1.2289780322138548,6.926634576717774,-360,,,,,,,,,,,
1.8199543952941895,30.70540762695871,-544.5605584381369,1252.7691012063156,0.11606859627430645,0.01770187707193588,-1.5589809557722218,0.00867462158203125,-1.5646029649403337,1,1,1,1,-0.03070540762695871,0.5445605584381369,-1.1527691012063155,-89.32302910701956,0.0,0.0,0.1,0.0,1,5654.181870040941,1.0246074133533598,4.467296124022766,-1345.9541103654121,10000,1.0246074133533598,4.467296124022766,-360,0.0,0.0,0.0,0.0,0.0,0.0,0.0,0.0,1226.0,-3.0,-10.0
1.8298847675323486,30.651722904646505,-533.1261346188916,1252.9797692828654,0.11810222891351405,0.019388028536937794,-1.5448479351685345,0.008103132247924805,-1.5626578175801655,1,1,1,1,-0.030651722904646506,0.5331261346188916,-1.1529797692828654,-88.51326667465685,0.0,0.0,0.1,0.0,1,6383.292381071753,1.3047584775984236,6.159453111528801,-1205.6116097279669,10000,1.3047584775984236,6.159453111528801,-360,,,,,,,,,,,
1.8402645587921143,30.841768649394165,-522.1208280120708,1253.525203550436,0.11052152929221579,0.020064973570808376,-1.5503825246293077,0.008894205093383789,-1.5606687738639344,1,1,1,1,-0.030841768649394165,0.5221208280120708,-1.153525203550436,-88.83037529209673,0.0,0.0,0.1,0.0,1,5827.31313869985,0.6958909600997772,4.648467840952975,-1378.3563521202952,10000,0.6958909600997772,4.648467840952975,-360,0.0,0.0,0.0,0.0,0.0,0.0,0.0,0.0,1198.0,0.0,0.0
1.8496994972229004,30.91921640185612,-511.06580452129054,1254.0399047496423,0.10887886212781128,0.003105965279929609,-1.5569763372877958,0.007223606109619141,-1.5591722825332002,1,1,1,1,-0.030919216401856117,0.5110658045212906,-1.1540399047496424,-89.20817292832804,0.0,0.0,0.1,0.0,1,5787.879102977638,0.4485062042776642,7.401905567814271,-1398.1043539686605,10000,0.4485062042776642,7.401905567814271,-360,0.0,0.0,0.0,0.0,0.0,0.0,0.0,0.0,1198.0,-4.0,-10.0
1.8594045639038086,30.925173802055788,-499.9215374911162,1254.536207275048,0.10240057741266638,-0.0013558978598754972,-1.5560131077380028,0.007529258728027344,-1.5580050551801445,1,1,1,1,-0.030925173802055787,0.49992153749111623,-1.1545362072750478,-89.15298394042262,0.0,0.0,0.1,0.0,1,5830.078865165187,0.1443861466498384,7.347797755449793,-1328.7627390284074,10000,0.1443861466498384,7.347797755449793,-360,0.0,0.0,0.0,0.0,0.0,0.0,0.0,0.0,1198.0,-2.0,-3.0
1.8696250915527344,31.154501832271475,-489.4828456418532,1255.6846828418616,0.10419341788150718,-0.01289937567761016,-1.558313525799251,0.007815361022949219,-1.5572205975512738,1,1,1,1,-0.031154501832271475,0.4894828456418532,-1.1556846828418617,-89.28478818644781,0.0,0.0,0.1,0.0,1,4745.244014296695,-0.8122182524525313,4.97044748150509,-1358.6158699759817,10000,-0.8122182524525313,4.97044748150509,-360,0.0,0.0,0.0,0.0,0.0,0.0,0.0,0.0,1210.0,-2.0,-1.0
1.880612850189209,31.1777866970812,-478.95590618226345,1256.698306388355,0.09812926555481727,-0.005782402430692462,-1.5470483076811896,0.008678436279296875,-1.556339796798519,1,1,1,1,-0.0311777866970812,0.47895590618226347,-1.156698306388355,-88.63933873298858,0.0,0.0,0.1,0.0,1,5058.214880117768,-0.3436067056424086,3.9480074223770742,-1241.5545088426654,10000,-0.3436067056424086,3.9480074223770742,-360,0.0,0.0,0.0,0.0,0.0,0.0,0.0,0.0,1210.0,-4.0,-2.0
1.8897731304168701,31.1898756208884,-468.4905235633046,1258.1304785197492,0.10458262564008179,-0.010433791212441257,-1.5375874165536028,0.0068666934967041016,-1.555233997779999,1,1,1,1,-0.031189875620888402,0.46849052356330456,-1.1581304785197493,-88.09726960094508,0.0,0.0,0.1,0.0,1,3932.0856784007046,0.0048007859006045095,8.30680345163108,-1232.7180772631202,10000,0.0048007859006045095,8.30680345163108,-360,0.0,0.0,0.0,0.0,0.0,0.0,0.0,0.0,1210.0,1.0,-4.0
1.900144338607788,31.251580895499053,-457.999970155275,1259.9515583743648,0.09744442734290687,-0.008613579092374568,-1.5469309879895947,0.008140087127685547,-1.5538568224658929,1,1,1,1,-0.03125158089549905,0.457999970155275,-1.159951558374365,-88.63261680980642,0.0,0.0,0.1,0.0,1,3554.165039638684,0.025405623811663003,5.756044182134751,-1406.6528391542195,10000,0.025405623811663003,5.756044182134751,-360,0.0,0.0,0.0,0.0,0.0,0.0,0.0,0.0,1376.0,-7.0,-3.0
1.9107930660247803,31.043893233600784,-447.4849327983887,1261.6090045672047,0.09428914836895338,-0.018468241865504994,-1.54723848283963,0.009003162384033203,-1.5525293959288258,1,1,1,1,-0.031043893233600784,0.4474849327983887,-1.1616090045672047,-88.65023496693544,0.0,0.0,0.1,0.0,1,3824.2653591257417,0.4761747198200619,5.7666252016772095,-1332.2441179290024,10000,0.4761747198200619,5.7666252016772095,-360,0.0,0.0,0.0,0.0,0.0,0.0,0.0,0.0,1376.0,0.0,-2.0
1.9204339981079102,31.0124106114504,-437.3303507142921,1263.4212162573097,0.10515889950605274,-0.02332155040555616,-1.5438124217819131,0.007740974426269531,-1.5513587097505197,1,1,1,1,-0.031012410611450398,0.4373303507142921,-1.1634212162573097,-88.45393612797415,0.0,0.0,0.1,0.0,1,3228.1984983573725,0.020078520949076584,7.490871968146271,-1296.2358148326932,10000,0.020078520949076584,7.490871968146271,-360,0.0,0.0,0.0,0.0,0.0,0.0,0.0,0.0,1376.0,-2.0,-1.0
1.93021821975708,30.747783888814897,-427.1098759173368,1265.4553307026347,0.10287551925306408,-0.01923783162898147,-1.5455251158431134,0.007848262786865234,-1.5502772046205604,1,1,1,1,-0.030747783888814897,0.4271098759173368,-1.1654553307026347,-88.55206626927804,0.0,0.0,0.1,0.0,1,2830.5620476770255,0.4029892688076757,7.660237917849562,-1343.329535605184,10000,0.4029892688076757,7.660237917849562,-360,0.0,0.0,0.0,0.0,0.0,0.0,0.0,0.0,1256.0,-4.0,0.0
1.9470841884613037,30.38612206032166,-416.8833776401586,1267.3476737693616,0.09968095923297808,-0.0031217768433525086,-1.5367113591679555,0.015290260314941406,-1.5480475699335767,1,1,1,1,-0.030386122060321662,0.4168833776401586,-1.1673476737693615,-88.04707521013624,0.0,0.0,0.1,0.0,1,4397.37188409315,0.6603842638907322,-1.5188228764152818,-1275.8333257427666,10000,0.6603842638907322,-1.5188228764152818,-360,0.0,0.0,0.0,0.0,0.0,0.0,0.0,0.0,1256.0,-3.0,2.0
1.949122667312622,29.849048763404475,-406.87622181792483,1268.9724126174413,0.10517778799353626,-0.01757795751771427,-1.5527021536735106,0.0001347064971923828,-1.5477827407043145,1,1,1,1,-0.029849048763404475,0.4068762218179248,-1.1689724126174412,-88.96328024636553,0.0,0.0,0.1,0.0,1,-10432.015307802683,3.7141651145163364,91.96389518184249,-2006.3531170204578,10000,3.7141651145163364,40,-360,,,,,,,,,,,
1.960113525390625,29.318283224203398,-396.62894244634447,1270.408820096259,0.10511817569507634,-0.030116238385442713,-1.5417483460840298,0.009172439575195312,-1.546545742047241,1,1,1,1,-0.0293182832242034,0.39662894244634445,-1.170408820096259,-88.33567330188991,0.0,0.0,0.1,0.0,1,3992.375260255199,0.8644111318392285,6.3219653834096246,-1239.2806967384088,10000,0.8644111318392285,6.3219653834096246,-360,0.0,0.0,0.0,0.0,0.0,0.0,0.0,0.0,1229.0,-5.0,2.0
1.969573736190796,28.650610015268825,-386.52620653932087,1272.074476685967,0.10570488123981507,-0.03555737999099003,-1.5375357337153635,0.007299900054931641,-1.5454999928732578,1,1,1,1,-0.028650610015268824,0.38652620653932085,-1.172074476685967,-88.09430839244072,0.0,0.0,0.1,0.0,1,3179.6039428131785,1.2370969104936487,9.603716370541509,-1283.151801592924,10000,1.2370969104936487,9.603716370541509,-360,0.0,0.0,0.0,0.0,0.0,0.0,0.0,0.0,1229.0,-8.0,-2.0
1.9806694984436035,28.050266586583252,-376.15785733449485,1273.8336912831037,0.12163936891282534,-0.009752369406756662,-1.53033942644148,0.009302616119384766,-1.5439934475272126,1,1,1,1,-0.02805026658658325,0.37615785733449486,-1.1738336912831038,-87.6819903575679,0.0,0.0,0.1,0.0,1,3419.4411109257335,1.142437471155206,7.060184127714731,-1259.4923169692242,10000,1.142437471155206,7.060184127714731,-360,0.0,0.0,0.0,0.0,0.0,0.0,0.0,0.0,1307.0,-2.0,1.0
1.98966383934021,27.199265091760576,-365.74742988565583,1274.576229199026,0.1035878821568882,-0.017058952644021498,-1.530273164137118,0.007434368133544922,-1.5426023301280964,1,1,1,1,-0.027199265091760575,0.36574742988565584,-1.174576229199026,-87.67819380718714,0.0,0.0,0.1,0.0,1,4713.409737321733,2.0181563800725497,12.2143867324634,-1314.541424499154,10000,2.0181563800725497,12.2143867324634,-360,,,,,,,,,,,
1.9997367858886719,26.284012590679414,-355.48103235185147,1276.0296078435529,0.10079418765830696,-0.018123984474391144,-1.5288839645756664,0.008559226989746094,-1.5408971833381115,1,1,1,1,-0.026284012590679414,0.35548103235185147,-1.1760296078435528,-87.59859853541455,0.0,0.0,0.1,0.0,1,3594.848611582317,2.1096984028659675,9.71151200407225,-1302.0881543107146,10000,2.1096984028659675,9.71151200407225,-360,0.0,0.0,0.0,0.0,0.0,0.0,0.0,0.0,1307.0,-4.0,0.0
2.010134220123291,25.339480868782843,-345.50695393655576,1277.0227967540404,0.10871732192472124,-0.032273253865494296,-1.517372350198457,0.008790016174316406,-1.538685140438055,1,1,1,1,-0.025339480868782842,0.3455069539365558,-1.1770227967540405,-86.93903161621833,0.0,0.0,0.1,0.0,1,4403.54209916393,2.4454420238559824,8.665015055963284,-1209.0193516504091,10000,2.4454420238559824,8.665015055963284,-360,0.0,0.0,0.0,0.0,0.0,0.0,0.0,0.0,1307.0,-2.0,0.0
2.019432783126831,24.242264620633694,-334.9971602655551,1278.0540651271192,0.11342004902844094,-0.0313536879565097,-1.5262688857185713,0.0077288150787353516,-1.5366738881119517,1,1,1,1,-0.024242264620633693,0.33499716026555515,-1.1780540651271192,-87.44876555380911,0.0,0.0,0.1,0.0,1,4122.797926983506,2.8997721879715486,12.791299220748334,-1393.969883144534,10000,2.8997721879715486,12.791299220748334,-360,,,,,,,,,,,
2.030431032180786,23.367749781638793,-324.6217947289087,1279.0834650051247,0.10183447940837623,-0.012896388181347841,-1.528927405377223,0.009510278701782227,-1.5346161864212284,1,1,1,1,-0.023367749781638792,0.3246217947289087,-1.1790834650051247,-87.60108751000242,0.0,0.0,0.1,0.0,1,4373.279371835549,1.9403734519066937,9.089561680223307,-1334.7962008764143,10000,1.9403734519066937,9.089561680223307,-360,0.0,0.0,0.0,0.0,0.0,0.0,0.0,0.0,1296.0,0.0,-1.0
2.04034423828125,22.359203334439062,-314.3195111523216,1279.934411980865,0.11150170944748575,-0.025512652780948355,-1.5238494396053068,0.008260011672973633,-1.5329386032550973,1,1,1,1,-0.02235920333443906,0.3143195111523216,-1.179934411980865,-87.31014150275972,0.0,0.0,0.1,0.0,1,4489.7119395792715,2.181264478533525,11.550737089989207,-1265.6397637305495,10000,2.181264478533525,11.550737089989207,-360,0.0,0.0,0.0,0.0,0.0,0.0,0.0,0.0,1235.0,-5.0,-1.0
2.050166368484497,21.45841215705244,-304.1820069672373,1280.581593534142,0.10225358374607393,-0.016630761539099093,-1.5262987049158692,0.008255243301391602,-1.5315152257325826,1,1,1,1,-0.02145841215705244,0.30418200696723735,-1.180581593534142,-87.45047406796274,0.0,0.0,0.1,0.0,1,4811.054460646168,1.7671214227794183,11.759466679309977,-1333.1913116783708,10000,1.7671214227794183,11.759466679309977,-360,,,,,,,,,,,
2.0597341060638428,20.46561610940478,-294.09500384725396,1281.2857529824605,0.1137721977226433,-0.032526469383742186,-1.5257117709906343,0.007636308670043945,-1.5303468245558263,1,1,1,1,-0.02046561610940478,0.29409500384725396,-1.1812857529824605,-87.41684523119373,0.0,0.0,0.1,0.0,1,4661.34726908189,1.8339659050657442,12.624638679083837,-1305.9771680112692,10000,1.8339659050657442,12.624638679083837,-360,0.0,0.0,0.0,0.0,0.0,0.0,0.0,0.0,1235.0,-4.0,1.0
2.0703608989715576,19.495900658370914,-283.9430342402799,1281.844418554776,0.10939865425462875,-0.03349494445049245,-1.52644292490999,0.009076833724975586,-1.5293202382783564,1,1,1,1,-0.019495900658370913,0.28394303424027995,-1.181844418554776,-87.45873726494726,0.0,0.0,0.1,0.0,1,4997.261549561814,1.4658563051760667,10.805337680239774,-1317.789855905289,10000,1.4658563051760667,10.805337680239774,-360,0.0,0.0,0.0,0.0,0.0,0.0,0.0,0.0,1235.0,-5.0,-1.0
2.079871654510498,18.573220837872277,-273.75009782592355,1282.103143744255,0.10771685129180074,-0.03407646497634375,-1.5238671581420378,0.007944107055664062,-1.5285178329805673,1,1,1,1,-0.018573220837872276,0.2737500978259235,-1.182103143744255,-87.31115670013355,0.0,0.0,0.1,0.0,1,5437.69999875013,1.3920950734678172,13.642443203679946,-1286.4589962144887,10000,1.3920950734678172,13.642443203679946,-360,0.0,0.0,0.0,0.0,0.0,0.0,0.0,0.0,1240.0,-1.0,-1.0
