time,x_pos,y_pos,z_pos,x_rot,y_rot,z_rot,delta_time,z_filtered,x_pos_est,y_pos_est,z_pos_est,z_rot_est,x_error,y_error,z_error,yaw_error,x_setpoint,y_setpoint,z_setpoint,yaw_setpoint,vicon_available,thrust_cal,pitch_cal,roll_cal,yaw_cal,thrust_lim,pitch_lim,roll_lim,yaw_lim,gyro_x,gyro_y,acc_x,acc_y,acc_z,stateEstimate_az,stateEstimate_vz,stateEstimate_yaw,range_zrange,motion_deltaX,motion_deltaY
1.322335958480835,-12.763655615505167,2686.494625206196,673.3735106733894,1.024388694095361,-1.0978946487068306,-0.35022139011398584,0.0013947486877441406,-0.33404761803968913,1,1,1,1,0.012763655615505166,-2.686494625206196,-0.5733735106733895,-20.066207548736124,0.0,0.0,0.1,0.0,1,-8295203.540785454,-29776.905986464204,10452.709720848354,-16449.069587999675,10000,-40,40,-360,0.0,0.0,0.0,0.0,0.0,0.0,0.0,0.0,653.0,0.0,0.0
1.3254308700561523,-3.8133052988860783,2685.5712128344107,676.4166500739025,1.0784388282524713,-1.0773597460860154,-0.3338163367190453,6.961822509765625e-05,-0.3347884668155865,1,1,1,1,0.003813305298886078,-2.685571212834411,-0.5764166500739025,-19.126267226519268,0.0,0.0,0.1,0.0,1,10636.766470206516,-98.87377999185527,-18.620274221427135,181.84356134326765,10636.766470206516,-40,-18.620274221427135,181.84356134326765,,,,,,,,,,,
1.3268673419952393,23.682431170997347,2691.8961184602804,552.9131460821912,-1.3470379182886103,0.9221197248941788,-0.9908219182484995,7.033348083496094e-05,-0.3352963989561377,1,1,1,1,-0.02368243117099735,-2.6918961184602805,-0.45291314608219124,-56.76991416469531,0.0,0.0,0.1,0.0,1,1804174.2315291548,-309.99976191586455,-312.20274840281434,-40297.47615935073,65535,-40,-40,-360,,,,,,,,,,,
1.3292975425720215,33.02871509852747,2686.0626156983303,559.2981700993782,-1.2568408212213436,0.9242496480427425,-1.0769304357746825,7.176399230957031e-05,-0.33728990373054396,1,1,1,1,-0.03302871509852747,-2.6860626156983303,-0.45929817009937823,-61.70356879907387,0.0,0.0,0.1,0.0,1,-19343.844859672998,-52.15813483161112,-20.58345350222585,-3969.5734448417334,10000,-40,-20.58345350222585,-360,0.0,0.0,0.0,0.0,0.0,0.0,0.0,0.0,653.0,0.0,0.0
1.3324546813964844,37.5200997120155,2686.006372998516,559.541074460293,-1.3513060766284923,0.9428605250886508,-0.9440941340353023,6.723403930664062e-05,-0.342376915891673,1,1,1,1,-0.0375200997120155,-2.686006372998516,-0.45954107446029296,-54.09260934328107,0.0,0.0,0.1,0.0,1,44960.13858218496,-68.78418960823399,90.0199274491867,2802.771666998822,44960.13858218496,-40,40,360,,,,,,,,,,,
1.3365769386291504,20.609693129940297,2714.524671342552,536.3353017150813,1.3274573208655676,-0.39959393682835137,-1.7198159489630982,7.295608520507812e-05,-0.35711141495149545,1,1,1,1,-0.020609693129940296,-2.714524671342552,-0.4363353017150813,-98.53819541487212,0.0,0.0,0.1,0.0,1,-294437.2151482043,-130.14218885099734,365.1753276324392,-17655.5360011466,10000,-40,40,-360,,,,,,,,,,,
1.3385248184204102,-651.6662869567574,-1858.1746077552948,634.309801524254,0.11947405898874315,-0.07259522710404019,2.727775757179358,5.364418029785156e-05,-0.36720962823185277,1,1,1,1,0.6516662869567574,1.8581746077552947,-0.534309801524254,156.29003834447968,0.0,0.0,0.1,0.0,1,-1356036.2989197457,50687.702410708676,-11079.251639550683,-79073.5822100332,10000,40,-40,-360,,,,,,,,,,,
1.3416531085968018,-615.1161241162924,-1837.5553476311618,576.7082373672323,0.10304496481586353,-0.1581744242166433,2.7136165556869365,5.698204040527344e-05,-0.39519478707788525,1,1,1,1,0.6151161241162925,1.8375553476311617,-0.4767082373672323,155.4787758576886,0.0,0.0,0.1,0.0,1,123579613.28508355,-178.55647794917866,-565.2275141245453,1943.3037529055766,65535,-40,-40,360,0.0,0.0,0.0,0.0,0.0,0.0,0.0,0.0,653.0,0.0,0.0
1.3476672172546387,-590.920872042876,-1821.139293066306,538.8840925418077,0.07309879099163502,-0.24774398024923017,2.6967042280061944,7.867813110351562e-05,-0.49785173681728623,1,1,1,1,0.590920872042876,1.821139293066306,-0.4388840925418077,154.5097708598398,0.0,0.0,0.1,0.0,1,280301.22625616234,-115.757514482538,-770.5626245771291,2076.6705437764535,65535,-40,-40,360,,,,,,,,,,,
1.3503344058990479,-711.9207580539284,-1858.1291454994116,735.2796429337078,0.007325628986984253,-0.0911094737278327,2.6968488475291883,6.747245788574219e-05,-0.5526555440775802,1,1,1,1,0.7119207580539284,1.8581291454994115,-0.6352796429337078,154.51805694814254,0.0,0.0,0.1,0.0,1,-13539906.515336763,664.2556959103039,-168.16150471744638,2322.4496874629285,10000,40,-40,360,0.0,0.0,0.0,0.0,0.0,0.0,0.0,0.0,653.0,0.0,0.0
1.3570115566253662,-711.5047835792831,-1850.942737330719,734.8326239194095,0.009512335683556528,-0.09155546061189411,2.6943142209608606,7.653236389160156e-05,-0.7387885951946225,1,1,1,1,0.711504783579283,1.850942737330719,-0.6348326239194094,154.37283354313564,0.0,0.0,0.1,0.0,1,39858.51102138696,-285.2376927174235,-1164.657561623543,2282.9999635411737,39858.51102138696,-40,-40,360,,,,,,,,,,,
1.3601930141448975,-711.1310581476689,-1843.8022681066202,734.1074618830389,0.047508180520486096,-0.09634493377123064,2.713893722299115,6.914138793945312e-05,-0.8367913231390245,1,1,1,1,0.7111310581476689,1.8438022681066202,-0.6341074618830389,155.49465633478835,0.0,0.0,0.1,0.0,1,270500.54081685183,-514.6688150381016,-1207.6119536671322,2861.974071723517,65535,-40,-40,360,0.0,0.0,0.0,0.0,0.0,0.0,0.0,0.0,653.0,-1.0,0.0
1.3623378276824951,-710.697159375495,-1836.4792861420667,733.0770308900425,0.07407107895488423,-0.07639711153063102,2.713875455769767,7.43865966796875e-05,-0.9069421073703352,1,1,1,1,0.7106971593754949,1.8364792861420667,-0.6330770308900424,155.49360973975038,0.0,0.0,0.1,0.0,1,-71766.42288627355,-663.6196771381897,-1202.4300297198467,2331.67551860581,10000,-40,-40,360,,,,,,,,,,,
1.3642292022705078,-710.5707582023095,-1829.2142493843846,732.5764929608704,0.05593457477413647,-0.09011255244507035,2.7048696351696138,5.698204040527344e-05,-0.9707054480357661,1,1,1,1,0.7105707582023095,1.8292142493843846,-0.6325764929608704,154.97761422830962,0.0,0.0,0.1,0.0,1,-57707.33561812286,-776.7496627217328,-1196.0342956541378,1911.0093897208903,10000,-40,-40,360,,,,,,,,,,,
1.3690476417541504,-710.4059562174531,-1822.1440676212524,732.0901879263147,0.05495030146217016,-0.07835799149317531,2.7035938007935116,6.532669067382812e-05,-1.1456465373291045,1,1,1,1,0.7104059562174531,1.8221440676212524,-0.6320901879263147,154.90451430320127,0.0,0.0,0.1,0.0,1,155387.10083844792,-942.8290339969154,-1209.7869267551525,2300.8630856764507,65535,-40,-40,360,0.0,0.0,0.0,0.0,0.0,0.0,0.0,0.0,653.0,-1.0,0.0
1.3715922832489014,-710.6088890748341,-1814.760680004892,731.2679438051829,0.046502344671941094,-0.08879702175599669,2.7035828331045737,6.961822509765625e-05,-1.2401935824134056,1,1,1,1,0.7106088890748341,1.814760680004892,-0.6312679438051829,154.9038859009141,0.0,0.0,0.1,0.0,1,30718.41937475043,-1127.5199980186521,-1064.9451424959702,2323.1882084481886,30718.41937475043,-40,-40,360,,,,,,,,,,,
1.373436689376831,-710.8839983874341,-1807.4884098057184,730.7420577748007,0.0556969716308593,-0.0842466265918251,2.7048894101161207,5.435943603515625e-05,-1.309275456649464,1,1,1,1,0.7108839983874341,1.8074884098057185,-0.6307420577748007,154.97874724928457,0.0,0.0,0.1,0.0,1,205946.6575499337,-1229.6892736495838,-960.9076907603853,2386.063572791586,65535,-40,-40,360,,,,,,,,,,,
1.378267526626587,-711.7082091976191,-1800.160823346463,730.6991775839803,0.07785378466950522,-0.10900302612623496,2.7160069512324845,6.604194641113281e-05,-1.4925765915927294,1,1,1,1,0.7117082091976191,1.800160823346463,-0.6306991775839803,155.61573543381536,0.0,0.0,0.1,0.0,1,96434.17304651647,-1332.068949232129,-853.150410819203,2531.5372886702557,65535,-40,-40,360,0.0,0.0,0.0,0.0,0.0,0.0,0.0,0.0,653.0,0.0,0.0
1.3813161849975586,-711.5546220619264,-1792.8138403668386,728.5820964910788,0.03441084929794479,-0.0783852714397449,2.7110390620067255,0.00022077560424804688,-1.607691139522033,1,1,1,1,0.7115546220619263,1.7928138403668386,-0.6285820964910788,155.33109634809085,0.0,0.0,0.1,0.0,1,51446.16326266407,-1436.2537145150147,-623.5270872311212,2190.169857889906,51446.16326266407,-40,-40,360,,,,,,,,,,,
1.382735013961792,-712.0673576218792,-1785.5754753722779,726.9647764867394,0.07079160817685012,-0.08460169594763625,2.721535560495099,4.5299530029296875e-05,-1.6602734476878709,1,1,1,1,0.7120673576218792,1.785575475372278,-0.6269647764867394,155.93250141114012,0.0,0.0,0.1,0.0,1,-58354.07559006254,-1467.9317582639499,-443.18409248488416,2989.3336009800464,10000,-40,-40,360,,,,,,,,,,,
1.3865840435028076,-712.7954719021758,-1778.7244590882667,725.5907813008333,0.07595020269394137,-0.10104524398055811,2.7295365987407734,6.198883056640625e-05,-1.8021141771509759,1,1,1,1,0.7127954719021757,1.7787244590882667,-0.6255907813008333,156.39092713434002,0.0,0.0,0.1,0.0,1,-29517.33146374991,-1468.7587882535197,-361.8156036452326,2523.5259291156494,10000,-40,-40,360,,,,,,,,,,,
1.3890862464904785,-712.9327186692168,-1772.1260938507141,722.6686403471653,0.0500598891160938,-0.08619665286069839,2.7218027171760366,6.341934204101562e-05,-1.892384338331225,1,1,1,1,0.7129327186692168,1.7721260938507142,-0.6226686403471653,155.94780836142655,0.0,0.0,0.1,0.0,1,474691.3003032523,-1466.8649719874095,-169.44260475116937,2073.832807233958,65535,-40,-40,360,0.0,0.0,0.0,0.0,0.0,0.0,0.0,0.0,656.0,0.0,-1.0
1.3927192687988281,-713.8987709035746,-1765.857038518838,720.85453194426,0.05621360717995419,-0.0913295367584547,2.72328499973384,6.747245788574219e-05,-2.01863256683953,1,1,1,1,0.7138987709035746,1.765857038518838,-0.62085453194426,156.03273689603455,0.0,0.0,0.1,0.0,1,32879.42552628608,-1421.3451919223057,-32.10758582752337,2375.5309995767034,32879.42552628608,-40,-32.10758582752337,360,,,,,,,,,,,
1.396935224533081,-715.0124744740108,-1760.0571151652532,719.3306283413549,0.09404817588147062,-0.09892692606995449,2.729214890150426,0.00019025802612304688,-2.1577841782158202,1,1,1,1,0.7150124744740108,1.7600571151652533,-0.6193306283413549,156.37249458988,0.0,0.0,0.1,0.0,1,120307.62509309882,-1343.377687151248,137.66959305958824,2466.5112510307063,65535,-40,40,360,,,,,,,,,,,
1.3994767665863037,-715.2605186749311,-1754.1545535728906,716.8591574401487,0.09417595788183063,-0.08273579155510781,2.7195241382045396,6.175041198730469e-05,-2.238728254458647,1,1,1,1,0.715260518674931,1.7541545535728906,-0.6168591574401487,155.81725540307252,0.0,0.0,0.1,0.0,1,-2297812.749579135,-1262.4069844478413,289.3964487782311,2008.7902919511125,10000,-40,40,360,,,,,,,,,,,
1.4024839401245117,-716.0771786064377,-1748.7806298815347,714.6874139489385,0.0828645572407563,-0.09480806134727301,2.7001700685008467,5.5789947509765625e-05,-2.330468022915616,1,1,1,1,0.7160771786064376,1.7487806298815347,-0.6146874139489384,154.7083488926489,0.0,0.0,0.1,0.0,1,54952.86606962085,-1180.3590476963723,364.68716363899466,1767.4068907964609,54952.86606962085,-40,40,360,0.0,0.0,0.0,0.0,0.0,0.0,0.0,0.0,656.0,-2.0,0.0
1.4066135883331299,-716.7441027547819,-1742.9911566886597,712.0290478265589,0.1103706098184696,-0.0890531323564869,2.707958488091995,6.723403930664062e-05,-2.448382317633361,1,1,1,1,0.716744102754782,1.7429911566886596,-0.6120290478265589,155.1545924642987,0.0,0.0,0.1,0.0,1,46323.98984429927,-1067.2501878241262,445.2195530263333,2489.0518091557115,46323.98984429927,-40,40,360,,,,,,,,,,,
1.4091887474060059,-717.9512793831793,-1737.34017691621,709.9325853314679,0.11363351778930679,-0.0750568572536612,2.6983177684689843,0.00014400482177734375,-2.5186351708695898,1,1,1,1,0.7179512793831794,1.73734017691621,-0.6099325853314679,154.60221991843125,0.0,0.0,0.1,0.0,1,459250.2363086071,-956.865671852076,520.586587684022,1997.1635601515652,65535,-40,40,360,0.0,0.0,0.0,0.0,0.0,0.0,0.0,0.0,656.0,-2.0,-1.0
1.4117391109466553,-718.6909269928445,-1731.5615445008775,707.1237995735911,0.08411499759249264,-0.0537584714451725,2.6914934940188324,6.818771362304688e-05,-2.5851043861917584,1,1,1,1,0.7186909269928445,1.7315615445008776,-0.6071237995735911,154.21121779419857,0.0,0.0,0.1,0.0,1,1340426.3406815487,-876.8354190564107,557.8850312255407,2083.2212992072036,65535,-40,40,360,,,,,,,,,,,
1.413639783859253,-720.0546267356971,-1725.2353348245856,705.2532035607056,0.08373292183773931,-0.07015053791429919,2.691498819149264,5.555152893066406e-05,-2.6327312973705093,1,1,1,1,0.7200546267356971,1.7252353348245857,-0.6052532035607057,154.21152290169766,0.0,0.0,0.1,0.0,1,121860.60931710564,-788.8404604408306,586.9085728512134,2313.415244132332,65535,-40,40,360,,,,,,,,,,,
1.4177682399749756,-720.5488671159081,-1719.247334983303,702.5062602916837,0.09394786183452324,-0.04692568487173931,2.69862840727615,6.365776062011719e-05,-2.7286411383706586,1,1,1,1,0.7205488671159082,1.719247334983303,-0.6025062602916837,154.62001821103482,0.0,0.0,0.1,0.0,1,103948.94028139807,-725.2947600349098,578.8469260241335,2467.369079117075,65535,-40,40,360,0.0,0.0,0.0,0.0,0.0,0.0,0.0,0.0,656.0,-1.0,-1.0
1.4222371578216553,-722.3101072169935,-1713.2646207285725,701.4641874846174,0.09172941522910742,-0.049125272312105187,2.7189325279317624,6.747245788574219e-05,-2.8231162503754055,1,1,1,1,0.7223101072169935,1.7132646207285724,-0.6014641874846174,155.7833586313258,0.0,0.0,0.1,0.0,1,156107.92472310443,-609.0503365321179,575.8637784598084,2726.9777769577413,65535,-40,40,360,,,,,,,,,,,
1.4296467304229736,-723.4260507226824,-1707.459951479236,699.8611670949451,0.08017938519072604,-0.042110819857400554,2.7198358735269403,6.771087646484375e-05,-2.956287775751784,1,1,1,1,0.7234260507226824,1.707459951479236,-0.5998611670949451,155.83511652137122,0.0,0.0,0.1,0.0,1,-23135825.68310737,-475.6046790225807,540.2510058493351,2347.999939891635,10000,-40,40,360,0.0,0.0,0.0,0.0,0.0,0.0,0.0,0.0,672.0,0.0,-2.0
1.4316635131835938,-724.3976272413477,-1702.1348639071425,698.1080698963133,0.07100121798520537,-0.033900043779909135,2.7251479922994473,7.104873657226562e-05,-2.990803081525724,1,1,1,1,0.7243976272413477,1.7021348639071425,-0.5981080698963133,156.1394785073081,0.0,0.0,0.1,0.0,1,-1098669.794335193,-367.5701454226546,543.9883868754517,2568.3303678972507,10000,-40,40,360,,,,,,,,,,,
1.433521032333374,-725.9960891152148,-1697.2753124620049,697.4008666270458,0.09775790480317605,-0.04554067874053962,2.7369992679524495,5.269050598144531e-05,-3.0209921113819895,1,1,1,1,0.7259960891152147,1.6972753124620048,-0.5974008666270458,156.81850658407126,0.0,0.0,0.1,0.0,1,194293.318790852,-334.3159433402067,521.8117178475873,2906.229267293232,65535,-40,40,360,,,,,,,,,,,
1.4376246929168701,-727.6140417917808,-1692.745344686958,696.9197881221797,0.10422353690348245,-0.06428756731495047,2.73733159272986,6.461143493652344e-05,-3.0816517317727783,1,1,1,1,0.7276140417917808,1.692745344686958,-0.5969197881221797,156.83754739124453,0.0,0.0,0.1,0.0,1,58749.953601338166,-313.587775167821,483.87089937059034,2359.5070087202275,58749.953601338166,-40,40,360,,,,,,,,,,,
1.4403157234191895,-729.1390141542499,-1688.6698833220833,696.1823819896783,0.09602758319880013,-0.0462366433255768,2.7332989789787825,6.4849853515625e-05,-3.1187208899249694,1,1,1,1,0.72913901415425,1.6886698833220832,-0.5961823819896783,156.60649564290136,0.0,0.0,0.1,0.0,1,64037.36259353843,-263.2482492776021,457.34938702406373,2220.523941947246,64037.36259353843,-40,40,360,0.0,0.0,0.0,0.0,0.0,0.0,0.0,0.0,672.0,0.0,-2.0
1.4470949172973633,-730.400705165003,-1684.8041380470374,695.4623671352666,0.1114453168714964,-0.051381496825133884,2.7341089757989323,0.0001442432403564453,3.0862601617809027,1,1,1,1,0.730400705165003,1.6848041380470375,-0.5954623671352666,156.65290504211495,0.0,0.0,0.1,0.0,1,71989.17083657163,-223.5601845966815,397.92094109002414,2360.0472170539297,65535,-40,40,360,,,,,,,,,,,
1.4502646923065186,-731.4276038910388,-1681.3488046242098,694.6601471284123,0.10646368837433966,-0.054293917239280516,2.7233118604784416,6.794929504394531e-05,3.0528287249235047,1,1,1,1,0.7314276038910388,1.6813488046242098,-0.5946601471284123,156.03427590333482,0.0,0.0,0.1,0.0,1,-1171746.1573663673,-177.27324143340303,368.57718813911083,2046.7058795515231,10000,-40,40,360,0.0,0.0,0.0,0.0,0.0,0.0,0.0,0.0,672.0,-1.0,0.0
1.452399730682373,-732.5917959559536,-1678.0502622908286,693.4431769878015,0.10186270967597294,-0.05657201886303546,2.7203290233400477,7.128715515136719e-05,3.0315626217005804,1,1,1,1,0.7325917959559536,1.6780502622908287,-0.5934431769878015,155.86337192432995,0.0,0.0,0.1,0.0,1,-130267.99960475073,-150.09892843022504,341.49231941014915,2218.3471457021,10000,-40,40,360,,,,,,,,,,,
1.45900559425354,-734.0872445404215,-1674.8031356941185,693.2259904899532,0.09610833018333409,-0.04099910145315544,2.7138860662254327,6.437301635742188e-05,2.9766225865709823,1,1,1,1,0.7340872445404215,1.6748031356941184,-0.5932259904899533,155.49421767407873,0.0,0.0,0.1,0.0,1,-86874.31305854228,-141.8844470639798,296.2290920641375,2248.4648185461338,10000,-40,40,360,,,,,,,,,,,
1.4609062671661377,-735.3822774198541,-1671.610442240766,692.0924428763393,0.09445142971814875,-0.03450238691860474,2.706881190315572,6.413459777832031e-05,2.9616101582375007,1,1,1,1,0.7353822774198541,1.6716104422407658,-0.5920924428763393,155.09286784843084,0.0,0.0,0.1,0.0,1,-78361.38639451555,-103.5993316352374,268.0765101173215,2010.0072554571566,10000,-40,40,360,,,,,,,,,,,
1.4628028869628906,-736.2283471750007,-1668.292284343092,691.3331148304059,0.09045622863131436,-0.045057001029458345,2.7072360112720903,5.054473876953125e-05,2.947518039436872,1,1,1,1,0.7362283471750007,1.668292284343092,-0.5913331148304058,155.11319759172213,0.0,0.0,0.1,0.0,1,-70465.69019424114,-93.48422357528338,258.17625936076575,2342.906769528907,10000,-40,40,360,,,,,,,,,,,
1.467592477798462,-737.4113928709929,-1665.2270767090483,690.3535421272359,0.09636788137326628,-0.036665817555258086,2.716424852922489,5.364418029785156e-05,2.916202202004831,1,1,1,1,0.7374113928709929,1.6652270767090482,-0.5903535421272359,155.639679436904,0.0,0.0,0.1,0.0,1,-98406.36487456654,-103.08775225291237,232.53519313735154,2499.28977010172,10000,-40,40,360,0.0,0.0,0.0,0.0,0.0,0.0,0.0,0.0,650.0,0.0,-2.0
1.4696776866912842,-738.2897289171851,-1662.4394174065542,690.2097865064235,0.10362114392387395,-0.036158384277327864,2.711918504392729,7.295608520507812e-05,2.9033204138609143,1,1,1,1,0.7382897289171851,1.6624394174065542,-0.5902097865064235,155.38148468513378,0.0,0.0,0.1,0.0,1,-121588.37877184147,-81.39568285078187,211.18692296334888,2146.3803592246627,10000,-40,40,360,,,,,,,,,,,
1.4716336727142334,-738.6893202076268,-1659.8260143950026,689.0400322254458,0.12846802542014912,-0.01242612091576355,2.746284876298008,8.225440979003906e-05,2.8920499016907466,1,1,1,1,0.7386893202076268,1.6598260143950025,-0.5890400322254458,157.35053275248325,0.0,0.0,0.1,0.0,1,-207950.6340068377,-75.16425129344162,203.75149431861055,3884.206727615724,10000,-40,40,360,,,,,,,,,,,
1.4777195453643799,-739.4514920249571,-1657.8490784488097,689.3699308567285,0.09899734954390717,-0.02823089272273722,2.715783620929755,6.318092346191406e-05,2.862421227686751,1,1,1,1,0.7394514920249571,1.6578490784488096,-0.5893699308567285,155.60293955003158,0.0,0.0,0.1,0.0,1,900448.6296449273,-86.373453713445,176.03347758120933,1903.731943466756,65535,-40,40,360,,,,,,,,,,,
1.480318307876587,-740.2219691621526,-1656.1569611724449,689.4699277412702,0.10579474685171943,-0.03748678380154548,2.7095589584939916,6.079673767089844e-05,2.850712053731767,1,1,1,1,0.7402219691621527,1.656156961172445,-0.5894699277412703,155.2462926635687,0.0,0.0,0.1,0.0,1,147890.8861622081,-75.06922896116299,157.39466018206875,2122.9141080644868,65535,-40,40,360,0.0,0.0,0.0,0.0,0.0,0.0,0.0,0.0,650.0,0.0,-2.0
1.4828355312347412,-740.8385085664228,-1654.743667829643,689.6726732307969,0.11270508877349456,-0.03547356285304559,2.7037000241768037,6.866455078125e-05,2.840177567059718,1,1,1,1,0.7408385085664227,1.654743667829643,-0.589672673230797,154.9106004547495,0.0,0.0,0.1,0.0,1,96882.34765331363,-73.31318379354161,146.70126853533685,2124.282743125512,65535,-40,40,360,,,,,,,,,,,
1.4876468181610107,-741.0823265478743,-1653.24517476911,689.4381770310106,0.12094691355443801,-0.058140685170537436,2.6903365525826928,6.771087646484375e-05,2.822555205347208,1,1,1,1,0.7410823265478743,1.65324517476911,-0.5894381770310105,154.14492993276397,0.0,0.0,0.1,0.0,1,77345.02413135512,-72.93510757999591,133.66899468575468,2073.321192170308,65535,-40,40,360,0.0,0.0,0.0,0.0,0.0,0.0,0.0,0.0,650.0,0.0,-2.0
1.4908332824707031,-741.18247446736,-1651.9487049069785,688.8476156978066,0.09235461174865948,-0.03882032252595361,2.681759219526316,0.00021600723266601562,2.811826897609344,1,1,1,1,0.74118247446736,1.6519487049069785,-0.5888476156978066,153.6534849491555,0.0,0.0,0.1,0.0,1,67082.0727507803,-67.79136180420285,122.43796528468992,2073.406937402028,65535,-40,40,360,,,,,,,,,,,
1.492253065109253,-741.1162113894562,-1650.6701345827214,688.5526775423511,0.09170870355027956,-0.021045463462533474,2.6776884238635392,5.2928924560546875e-05,2.8072479253775224,1,1,1,1,0.7411162113894563,1.6506701345827215,-0.5885526775423512,153.42024553841827,0.0,0.0,0.1,0.0,1,58579.55038253213,-55.566258780431454,116.57965643640497,2051.9976195154045,58579.55038253213,-40,40,360,,,,,,,,,,,
1.4987835884094238,-741.6807873007414,-1649.3950588833711,688.5680129490338,0.09652296295582839,-0.049522317423256836,2.674749664594256,6.127357482910156e-05,2.7889184280532557,1,1,1,1,0.7416807873007414,1.649395058883371,-0.5885680129490338,153.25186703528337,0.0,0.0,0.1,0.0,1,45259.104661486046,-68.43119961058916,101.71095164191033,2260.2927209321747,45259.104661486046,-40,40,360,,,,,,,,,,,
1.500685691833496,-742.0010107178555,-1648.2252767444916,688.7648898212807,0.11025193446626026,-0.049006274654160485,2.6739964976229778,5.4836273193359375e-05,2.783821683443177,1,1,1,1,0.7420010107178555,1.6482252767444916,-0.5887648898212807,153.2087137465605,0.0,0.0,0.1,0.0,1,36896.254634338184,-58.924730363892394,94.17612903105109,2263.5627131687174,36896.254634338184,-40,40,360,,,,,,,,,,,
1.5024983882904053,-742.1789489315421,-1646.860721111572,689.4237905774833,0.12172102822046446,-0.04985459042853333,2.675313713664072,4.7206878662109375e-05,2.7791531852983153,1,1,1,1,0.7421789489315421,1.646860721111572,-0.5894237905774833,153.2841846664221,0.0,0.0,0.1,0.0,1,27656.55484966855,-54.9183249643947,89.4037844742093,2361.8711523260768,27656.55484966855,-40,40,360,,,,,,,,,,,
1.5072996616363525,-742.5056319430776,-1645.6096110663232,689.5905466270391,0.12767250051576473,-0.05632301756142885,2.6740987795508206,5.4836273193359375e-05,2.767941698111894,1,1,1,1,0.7425056319430776,1.6456096110663232,-0.5895905466270391,153.21457406934636,0.0,0.0,0.1,0.0,1,36636.46105182263,-63.446698236838664,84.61625254144697,2276.514180044268,36636.46105182263,-40,40,360,0.0,0.0,0.0,0.0,0.0,0.0,0.0,0.0,663.0,0.0,-5.0
1.509371042251587,-742.6644346104936,-1644.5145826658718,689.8627317475353,0.1260330849976822,-0.04934472100958424,2.6747900289397246,7.033348083496094e-05,2.7633061087819897,1,1,1,1,0.7426644346104936,1.6445145826658718,-0.5898627317475353,153.25417974192155,0.0,0.0,0.1,0.0,1,31476.410214471554,-57.26871312696467,78.41543820728995,2327.322689991206,31476.410214471554,-40,40,360,,,,,,,,,,,
1.5113260746002197,-742.9181893567892,-1643.3716244127374,690.7040864318383,0.12389064907799262,-0.04189469964609924,2.678389877023846,5.626678466796875e-05,2.7591460569061557,1,1,1,1,0.7429181893567892,1.6433716244127374,-0.5907040864318382,153.46043584402997,0.0,0.0,0.1,0.0,1,22984.02186719254,-55.944399928857635,73.85852481636987,2461.460354351298,22984.02186719254,-40,40,360,,,,,,,,,,,
1.5174603462219238,-743.0466749941651,-1642.1776977629308,691.2893434244935,0.12220355552155485,-0.05034435655992571,2.6800064692130916,6.127357482910156e-05,2.747627165322805,1,1,1,1,0.7430466749941651,1.6421776977629308,-0.5912893434244935,153.55305975366755,0.0,0.0,0.1,0.0,1,31164.55332071035,-62.00326000808183,69.38618962390997,2325.9265468693943,31164.55332071035,-40,40,360,,,,,,,,,,,
1.5218117237091064,-743.0726890714168,-1641.349892066835,691.724294605887,0.11566105479242597,-0.04881837477017989,2.678264458274483,6.985664367675781e-05,2.7401953026384698,1,1,1,1,0.7430726890714168,1.641349892066835,-0.591724294605887,153.45324987901964,0.0,0.0,0.1,0.0,1,29853.685343545036,-61.117398428154324,63.3514376767199,2267.501438954158,29853.685343545036,-40,40,360,0.0,0.0,0.0,0.0,0.0,0.0,0.0,0.0,663.0,-2.0,-5.0
1.5263707637786865,-743.1848770715271,-1640.6082273382808,692.3861591074847,0.1232005255096557,-0.060298513457805,2.681053981578061,6.914138793945312e-05,2.733205521281861,1,1,1,1,0.7431848770715271,1.6406082273382807,-0.5923861591074847,153.61307779116805,0.0,0.0,0.1,0.0,1,27874.358215305347,-61.21112376160674,57.03351455533423,2356.8427782211133,27874.358215305347,-40,40,360,,,,,,,,,,,
1.5289828777313232,-743.3898925341871,-1640.0297988787274,693.3529820572953,0.12582377329402308,-0.05284186354204954,2.6830551341352864,7.128715515136719e-05,2.729439864128272,1,1,1,1,0.7433898925341871,1.6400297988787274,-0.5933529820572954,153.72773538685888,0.0,0.0,0.1,0.0,1,22154.66379004678,-60.14855203255353,51.967019072991036,2371.7158318021206,22154.66379004678,-40,40,360,0.0,0.0,0.0,0.0,0.0,0.0,0.0,0.0,663.0,-2.0,1.0
1.5318102836608887,-742.859918076376,-1639.512935098051,693.1908669979424,0.11270660422717028,-0.045229348118495605,2.686712167436594,6.794929504394531e-05,2.7256592730036977,1,1,1,1,0.742859918076376,1.639512935098051,-0.5931908669979424,153.9372679605626,0.0,0.0,0.1,0.0,1,31469.168767482766,-58.31982192070528,53.83654910628678,2420.3801617850354,31469.168767482766,-40,40,360,,,,,,,,,,,
1.5376801490783691,-743.196142677515,-1639.3082444311228,693.6303543571106,0.09738265891092031,-0.0427849823172603,2.6874192879170686,6.699562072753906e-05,2.7189500831752715,1,1,1,1,0.743196142677515,1.6393082444311229,-0.5936303543571106,153.97778297970106,0.0,0.0,0.1,0.0,1,28050.972655009,-63.09033680721774,43.01883226525438,2320.0213151244398,28050.972655009,-40,40,360,,,,,,,,,,,
1.540851354598999,-743.2811169063993,-1639.3188483022766,694.0818124189914,0.08085642745020497,-0.04203721035833204,2.6850045885520752,6.008148193359375e-05,2.7156389490317614,1,1,1,1,0.7432811169063993,1.6393188483022767,-0.5940818124189914,153.83943089729402,0.0,0.0,0.1,0.0,1,26387.191423505225,-63.35979368341388,40.33821437294024,2242.0860421038824,26387.191423505225,-40,40,360,0.0,0.0,0.0,0.0,0.0,0.0,0.0,0.0,663.0,-1.0,-1.0
1.5429496765136719,-743.22048211993,-1639.3345105519988,694.6283071201811,0.0932161641237405,-0.027782698405627047,2.6875564310084403,7.82012939453125e-05,2.713573430864989,1,1,1,1,0.74322048211993,1.6393345105519987,-0.5946283071201811,153.98564070002604,0.0,0.0,0.1,0.0,1,23725.66724072475,-62.83582235975518,38.97061579775892,2413.5842652800297,23725.66724072475,-40,38.97061579775892,360,,,,,,,,,,,
1.5468578338623047,-743.3396610640583,-1639.618311577325,695.0452064076879,0.09292258706743091,-0.02567440023501596,2.6919586029882363,6.67572021484375e-05,2.7101965738530045,1,1,1,1,0.7433396610640584,1.6396183115773248,-0.595045206407688,154.2378665751591,0.0,0.0,0.1,0.0,1,26803.592657670877,-64.58432286793965,34.29287195929243,2410.7549165267724,26803.592657670877,-40,34.29287195929243,360,,,,,,,,,,,
1.5495514869689941,-743.4706832565719,-1640.0983497520867,695.6295327032095,0.1091913894446764,-0.013290975377815314,2.699319086437171,6.198883056640625e-05,2.7080777782340144,1,1,1,1,0.7434706832565718,1.6400983497520867,-0.5956295327032095,154.65959121195894,0.0,0.0,0.1,0.0,1,24622.110949602593,-66.76524680645122,31.87355357208163,2554.550452290303,24622.110949602593,-40,31.87355357208163,360,0.0,0.0,0.0,0.0,0.0,0.0,0.0,0.0,663.0,0.0,-1.0
1.5520758628845215,-742.7716096947989,-1647.6873987887448,697.2423365840967,0.11458833817649926,-0.046623188317097775,2.7167829412313096,6.985664367675781e-05,2.706300736658137,1,1,1,1,0.7427716096947989,1.6476873987887448,-0.5972423365840968,155.66019638569242,0.0,0.0,0.1,0.0,1,28984.53903804773,-119.56162472168793,61.118063344264556,2928.6276863226417,28984.53903804773,-40,40,360,,,,,,,,,,,
1.5560884475708008,-742.8253666787962,-1649.303544627592,697.931902814822,0.13011562057952367,-0.046862409041621304,2.7258353093244034,6.365776062011719e-05,2.7040675607370646,1,1,1,1,0.7428253666787962,1.6493035446275919,-0.597931902814822,156.17885887202556,0.0,0.0,0.1,0.0,1,25814.25916605787,-71.07109429077744,26.205566653631074,2536.7904442971794,25814.25916605787,-40,26.205566653631074,360,,,,,,,,,,,
1.5580685138702393,-742.957896908435,-1651.369608570921,697.8669725512345,0.12842380771541229,-0.062226951585763766,2.719495830929369,6.127357482910156e-05,2.7031082738904084,1,1,1,1,0.7429578969084351,1.6513696085709209,-0.5978669725512346,155.81563351567573,0.0,0.0,0.1,0.0,1,33302.640250085875,-84.25313909658311,28.374398137810076,2061.342151224901,33302.640250085875,-40,28.374398137810076,360,,,,,,,,,,,
1.5610642433166504,-742.4332137389179,-1653.5188933853167,697.3139528251196,0.10425033723206266,-0.044863927309631006,2.718261866922024,5.888938903808594e-05,2.701964657098006,1,1,1,1,0.7424332137389179,1.6535188933853167,-0.5973139528251196,155.7449325859838,0.0,0.0,0.1,0.0,1,34496.22200201565,-75.65095074280448,26.172674939415742,2300.784396275171,34496.22200201565,-40,26.172674939415742,360,0.0,0.0,0.0,0.0,0.0,0.0,0.0,0.0,670.0,-1.0,-11.0
1.5630509853363037,-742.0981517970872,-1655.9145332955259,696.8710713821143,0.10326108440768715,-0.03479932621363881,2.7134229040133326,7.939338684082031e-05,2.7013306546986824,1,1,1,1,0.7420981517970872,1.6559145332955258,-0.5968710713821144,155.46768043409546,0.0,0.0,0.1,0.0,1,38059.45381695778,-85.22679313427105,28.01228866179494,2124.2839078915845,38059.45381695778,-40,28.01228866179494,360,,,,,,,,,,,
1.5672693252563477,-742.2246645614823,-1658.6059273213123,697.1416366246666,0.12384107866692541,-0.047125927556769524,2.721243418394233,6.842613220214844e-05,2.7005172492122944,1,1,1,1,0.7422246645614823,1.6586059273213123,-0.5971416366246666,155.9157629017424,0.0,0.0,0.1,0.0,1,28589.684932299075,-76.25724348449373,14.225918652989733,2498.349801558757,28589.684932299075,-40,14.225918652989733,360,,,,,,,,,,,
1.569936752319336,-741.7898363847346,-1661.4376573232184,696.5631146118407,0.14345308786864808,-0.03890373160220055,2.7293896069536245,6.365776062011719e-05,2.700208558222395,1,1,1,1,0.7417898363847346,1.6614376573232184,-0.5965631146118406,156.3825051253133,0.0,0.0,0.1,0.0,1,36689.89775190549,-82.92359745261408,18.995378260424793,2608.5576039931348,36689.89775190549,-40,18.995378260424793,360,0.0,0.0,0.0,0.0,0.0,0.0,0.0,0.0,670.0,-2.0,-4.0
1.5724494457244873,-741.7472303692178,-1664.3743073359917,696.3769561475004,0.12951817060586907,-0.048340831943617865,2.721992557999782,6.747245788574219e-05,2.7000834066143784,1,1,1,1,0.7417472303692179,1.6643743073359918,-0.5963769561475004,155.95868543940645,0.0,0.0,0.1,0.0,1,34160.49715609185,-86.4622313614569,14.539759840392577,2086.708727927051,34160.49715609185,-40,14.539759840392577,360,,,,,,,,,,,
1.5750219821929932,-741.4041847429523,-1667.4980161077897,695.952890700812,0.12875846948026567,-0.056068309734475685,2.7278412502001346,5.2928924560546875e-05,2.7001184028922522,1,1,1,1,0.7414041847429523,1.6674980161077897,-0.5959528907008119,156.29379081815773,0.0,0.0,0.1,0.0,1,36368.026743169285,-86.5347045570828,14.86811413346867,2540.6373858927136,36368.026743169285,-40,14.86811413346867,360,0.0,0.0,0.0,0.0,0.0,0.0,0.0,0.0,670.0,-1.0,-1.0
1.5792388916015625,-741.1148027373107,-1670.7759692379962,695.2683968266675,0.12628721063133005,-0.05038180090065472,2.726319448432458,6.747245788574219e-05,2.7005489127124678,1,1,1,1,0.7411148027373107,1.6707759692379962,-0.5952683968266675,156.20659799961433,0.0,0.0,0.1,0.0,1,33929.17548250954,-78.62441510684583,5.99751141144387,2312.183179790102,33929.17548250954,-40,5.99751141144387,360,,,,,,,,,,,
1.581207275390625,-740.5076724681727,-1674.238946414536,694.2701347823473,0.12225247185020606,-0.04032595477473212,2.725081704699147,5.7697296142578125e-05,2.7008216980099373,1,1,1,1,0.7405076724681727,1.674238946414536,-0.5942701347823474,156.13568050757684,0.0,0.0,0.1,0.0,1,48728.55607078289,-96.02666090875718,18.50619086764962,2287.6568674815076,48728.55607078289,-40,18.50619086764962,360,,,,,,,,,,,
1.5886852741241455,-739.930087081676,-1678.0077296116326,693.3224305870497,0.13390101154007159,-0.04324291663799245,2.729622735928353,9.012222290039062e-05,2.7026385636898533,1,1,1,1,0.739930087081676,1.6780077296116327,-0.5933224305870497,156.39586243164743,0.0,0.0,0.1,0.0,1,32033.141349289785,-73.5219532789803,-1.9414439889332704,2397.713085996646,32033.141349289785,-40,-1.9414439889332704,360,0.0,0.0,0.0,0.0,0.0,0.0,0.0,0.0,670.0,-2.0,-1.0
1.591461181640625,-739.1730299102032,-1681.7511312652302,692.7930511255792,0.13253123192246757,-0.049378961466441634,2.7224930780662833,0.00011801719665527344,2.703393820539045,1,1,1,1,0.7391730299102033,1.6817511312652302,-0.5927930511255791,155.98736312677858,0.0,0.0,0.1,0.0,1,37387.82628833338,-88.31402099831709,8.438803248868632,2121.0823275303605,37387.82628833338,-40,8.438803248868632,360,,,,,,,,,,,
1.5982520580291748,-738.3827255209484,-1685.612871942952,692.0556722363111,0.11201680174748276,-0.03498402406264056,2.720731387238454,0.00010275840759277344,2.7054071619033517,1,1,1,1,0.7383827255209484,1.6856128719429522,-0.5920556722363112,155.88642567753706,0.0,0.0,0.1,0.0,1,32001.99065290593,-74.81191349970885,-2.824799608717286,2315.9309727289074,32001.99065290593,-40,-2.824799608717286,360,,,,,,,,,,,
1.6025984287261963,-737.6507301200089,-1689.7389440010797,691.7868065404093,0.12277942506533233,-0.04005503782863963,2.722884564823189,9.489059448242188e-05,2.7067284796461517,1,1,1,1,0.7376507301200089,1.6897389440010797,-0.5917868065404093,156.00979366568455,0.0,0.0,0.1,0.0,1,32611.033184880158,-81.93800180486869,1.3566147156626247,2382.74414274601,32611.033184880158,-40,1.3566147156626247,360,0.0,0.0,0.0,0.0,0.0,0.0,0.0,0.0,655.0,0.0,-5.0
1.6071069240570068,-736.9410848541066,-1694.1073705720153,691.2247659015377,0.12569600834428196,-0.05447982447675053,2.7288736698760436,0.00010633468627929688,2.708127392542231,1,1,1,1,0.7369410848541066,1.6941073705720153,-0.5912247659015377,156.3529441082736,0.0,0.0,0.1,0.0,1,34193.31644086977,-82.53135324989444,1.0180233125465166,2459.203089547358,34193.31644086977,-40,1.0180233125465166,360,,,,,,,,,,,
1.610680103302002,-735.4198273351224,-1698.3528438459311,689.7723938377986,0.08709594632522795,-0.022941019894030894,2.7172116662232653,0.00025200843811035156,2.709210685428244,1,1,1,1,0.7354198273351223,1.6983528438459312,-0.5897723938377987,155.68476051830325,0.0,0.0,0.1,0.0,1,41388.98214592886,-84.56597663637707,8.57647093933824,2054.9027498967016,41388.98214592886,-40,8.57647093933824,360,0.0,0.0,0.0,0.0,0.0,0.0,0.0,0.0,655.0,-1.0,-2.0
1.6144208908081055,-734.4625362140168,-1702.7681858030335,689.5634725137602,0.12064457050823076,-0.03511564015021023,2.727735546216172,0.00010156631469726562,2.7103191347061095,1,1,1,1,0.7344625362140168,1.7027681858030335,-0.5895634725137602,156.28773442599896,0.0,0.0,0.1,0.0,1,33694.17857989908,-86.13780163735827,5.420744202184716,2586.4545119166096,33694.17857989908,-40,5.420744202184716,360,,,,,,,,,,,
1.6196038722991943,-733.3115253674483,-1707.2592155365403,689.7079146009344,0.1310033341803927,-0.028176786913094463,2.717528658305988,0.0002512931823730469,2.7117357263103004,1,1,1,1,0.7333115253674484,1.7072592155365403,-0.5897079146009344,155.70292282678233,0.0,0.0,0.1,0.0,1,30316.05645225611,-80.34066707144812,2.7909384755423656,2166.473148312906,30316.05645225611,-40,2.7909384755423656,360,0.0,0.0,0.0,0.0,0.0,0.0,0.0,0.0,655.0,-3.0,-5.0
1.6233549118041992,-732.27489732199,-1711.7548717178067,688.9889788417918,0.11358630886079113,-0.041964904147518585,2.71923971067207,9.655952453613281e-05,2.71268151310652,1,1,1,1,0.73227489732199,1.7117548717178068,-0.5889889788417918,155.8009589058847,0.0,0.0,0.1,0.0,1,37062.23606665297,-86.57204509502573,7.723563991577624,2376.2878428741724,37062.23606665297,-40,7.723563991577624,360,,,,,,,,,,,
1.6276111602783203,-730.9471952518506,-1716.318944672596,688.5586492689989,0.10147096467003278,-0.02439327980331945,2.7216279544967104,0.00024247169494628906,2.7136607166961557,1,1,1,1,0.7309471952518506,1.716318944672596,-0.5885586492689989,155.93779519748477,0.0,0.0,0.1,0.0,1,34210.01603248296,-83.86513815536857,8.178498405711279,2387.3046994535616,34210.01603248296,-40,8.178498405711279,360,,,,,,,,,,,
1.6302416324615479,-729.4527823912947,-1720.902096120409,688.2427847119607,0.11979966511915212,-0.03129647362391634,2.7228862867524577,8.940696716308594e-05,2.7142311084192032,1,1,1,1,0.7294527823912947,1.720902096120409,-0.5882427847119607,156.00989232496426,0.0,0.0,0.1,0.0,1,38677.73370317443,-95.03538484510587,19.928457493064467,2381.4594873574824,38677.73370317443,-40,19.928457493064467,360,,,,,,,,,,,
1.6377623081207275,-728.4325235449563,-1725.685809508022,688.039653755637,0.11662377528195042,-0.043225674598323424,2.7228199440882905,0.0003535747528076172,2.7156335393685134,1,1,1,1,0.7284325235449564,1.725685809508022,-0.588039653755637,156.00609117030584,0.0,0.0,0.1,0.0,1,30869.83147944055,-77.07422694426461,2.5618713605692838,2339.333994952528,30869.83147944055,-40,2.5618713605692838,360,0.0,0.0,0.0,0.0,0.0,0.0,0.0,0.0,655.0,-1.0,0.0
1.639683723449707,-727.038068191745,-1730.3827396020624,687.4306682879752,0.11130508446340841,-0.023800816306827417,2.724552921425767,0.00012564659118652344,2.715980024226768,1,1,1,1,0.727038068191745,1.7303827396020623,-0.5874306682879752,156.10538345773506,0.0,0.0,0.1,0.0,1,50682.99531848875,-107.20711683793837,30.392743289721512,2418.145656572522,50682.99531848875,-40,30.392743289721512,360,,,,,,,,,,,
1.6432445049285889,-725.5819158889095,-1734.9962825709279,687.948485616818,0.14282936631711426,-0.04053494120927213,2.7329684605689883,9.34600830078125e-05,2.716601888320873,1,1,1,1,0.7255819158889095,1.7349962825709278,-0.5879484856168179,156.58755833296877,0.0,0.0,0.1,0.0,1,29724.895264305072,-88.08264233880448,14.551108132421904,2553.3153307609045,29724.895264305072,-40,14.551108132421904,360,0.0,0.0,0.0,0.0,0.0,0.0,0.0,0.0,648.0,-3.0,-4.0
1.648533582687378,-724.3585575800438,-1739.6962906351107,687.4572558572623,0.0899353566392261,-0.026062600100934457,2.7193024783868824,0.00010323524475097656,2.717438649776698,1,1,1,1,0.7243585575800437,1.7396962906351108,-0.5874572558572624,155.80455523103313,0.0,0.0,0.1,0.0,1,33471.0064717369,-81.59973196720946,8.001635049510703,2115.335890976567,33471.0064717369,-40,8.001635049510703,360,,,,,,,,,,,
1.6515090465545654,-723.7391993601688,-1744.5076903740583,687.9052080679717,0.09776795109105954,-0.029369468134470545,2.7230902178991263,9.512901306152344e-05,2.717880373944509,1,1,1,1,0.7237391993601687,1.7445076903740582,-0.5879052080679716,156.02157671897965,0.0,0.0,0.1,0.0,1,31950.55600334666,-96.42702586498795,14.513215038976686,2449.9840107935293,31950.55600334666,-40,14.513215038976686,360,0.0,0.0,0.0,0.0,0.0,0.0,0.0,0.0,648.0,-2.0,-7.0
1.658681869506836,-722.9436285579451,-1749.2575205716007,688.1310217043474,0.10153049469552435,-0.04086529580966859,2.7252190747485763,0.00024700164794921875,2.7188272782400364,1,1,1,1,0.7229436285579451,1.7492575205716008,-0.5881310217043474,156.14355123164063,0.0,0.0,0.1,0.0,1,29910.756302961076,-78.47281140904609,4.721084313186127,2367.4999879728266,29910.756302961076,-40,4.721084313186127,360,,,,,,,,,,,
1.6622509956359863,-721.4759098366354,-1754.0066382737448,687.6571047371309,0.10929571124266775,-0.03008910561289527,2.7253420150614187,0.00010085105895996094,2.719271942908297,1,1,1,1,0.7214759098366355,1.7540066382737447,-0.587657104737131,156.15059519269852,0.0,0.0,0.1,0.0,1,36902.99279509546,-89.23663870995351,17.030074260884017,2345.2526974683624,36902.99279509546,-40,17.030074260884017,360,0.0,0.0,0.0,0.0,0.0,0.0,0.0,0.0,648.0,0.0,-5.0
1.669459581375122,-720.7244031046272,-1758.8967920087232,688.4298896980721,0.11306591381351702,-0.03231990537924575,2.7252995846009385,0.0021562576293945312,2.720084073090931,1,1,1,1,0.7207244031046272,1.7588967920087233,-0.5884298896980721,156.14816410639023,0.0,0.0,0.1,0.0,1,28377.87610367456,-79.12063846575289,5.614699380026864,2341.7177236972684,28377.87610367456,-40,5.614699380026864,360,0.0,0.0,0.0,0.0,0.0,0.0,0.0,0.0,648.0,-6.0,1.0
1.6796228885650635,-719.5313084376048,-1763.7465217711688,688.3447394764702,0.10136709260328311,-0.03682486622470033,2.7215516320930573,0.00851297378540039,2.720939501000996,1,1,1,1,0.7195313084376048,1.7637465217711688,-0.5883447394764701,155.93342224587315,0.0,0.0,0.1,0.0,1,30080.5373521408,-75.15024282032002,5.301386386536181,2307.336605284381,30080.5373521408,-40,5.301386386536181,360,0.0,0.0,0.0,0.0,0.0,0.0,0.0,0.0,648.0,0.0,1.0
1.689610242843628,-718.4481695446686,-1768.6776764792137,687.7672071940849,0.11174398188858402,-0.0258962130000926,2.7273524099897997,0.00835108757019043,2.7216999640586717,1,1,1,1,0.7184481695446686,1.7686776764792136,-0.5877672071940849,156.26578233724928,0.0,0.0,0.1,0.0,1,31296.89530863693,-75.73358336742572,5.6571179179541815,2394.0928620368113,31296.89530863693,-40,5.6571179179541815,360,,,,,,,,,,,
1.6997969150543213,-717.8416611154338,-1773.76690880939,688.513541954255,0.13409633258902684,-0.0457942665174007,2.7287131529649766,0.008605003356933594,2.7225021745617513,1,1,1,1,0.7178416611154338,1.7737669088093901,-0.588513541954255,156.34374716672897,0.0,0.0,0.1,0.0,1,28559.27283193809,-76.42861872438029,4.646577413064891,2356.6492671841283,28559.27283193809,-40,4.646577413064891,360,0.0,0.0,0.0,0.0,0.0,0.0,0.0,0.0,636.0,-6.0,-8.0
1.7091243267059326,-717.5767877866397,-1779.002214426734,689.0768794130211,0.10093069311127094,-0.06581345714904961,2.7163612896450307,0.007793903350830078,2.722899751496938,1,1,1,1,0.7175767877866397,1.7790022144267341,-0.5890768794130211,155.63603752937362,0.0,0.0,0.1,0.0,1,29159.670738839755,-78.02253167328736,6.11019101603166,2220.8948842811915,29159.670738839755,-40,6.11019101603166,360,0.0,0.0,0.0,0.0,0.0,0.0,0.0,0.0,636.0,-4.0,0.0
1.7199537754058838,-717.5695452200772,-1784.332030518498,689.3544624275683,0.11271129316717603,-0.03965455427329629,2.6985017457373184,0.009274005889892578,2.7221447949987194,1,1,1,1,0.7175695452200772,1.784332030518498,-0.5893544624275683,154.61276103943314,0.0,0.0,0.1,0.0,1,29741.775667536713,-76.90720321747646,9.756043602687074,2177.5091819971176,29741.775667536713,-40,9.756043602687074,360,,,,,,,,,,,
1.7302873134613037,-715.3771795636721,-1788.7575666803536,687.8932585106434,0.0969644671349991,-0.03595344039303835,2.708618951901843,0.008858442306518555,2.720790186367881,1,1,1,1,0.7153771795636722,1.7887575666803537,-0.5878932585106433,155.19243425312413,0.0,0.0,0.1,0.0,1,32949.06757716959,-73.77058432784858,16.19178541113182,2412.071747709179,32949.06757716959,-40,16.19178541113182,360,0.0,0.0,0.0,0.0,0.0,0.0,0.0,0.0,635.0,0.0,-2.0
1.7393977642059326,-714.0275048120723,-1793.478121979187,686.0040614498072,0.04433494813755983,-0.09697808365901486,2.693265365019419,0.007571697235107422,2.718927779429837,1,1,1,1,0.7140275048120722,1.793478121979187,-0.5860040614498072,154.3127385243738,0.0,0.0,0.1,0.0,1,35105.690184534404,-76.08177569394182,19.037786617015055,2169.879152623694,35105.690184534404,-40,19.037786617015055,360,0.0,0.0,0.0,0.0,0.0,0.0,0.0,0.0,635.0,-1.0,0.0
1.749720573425293,-713.9351930264469,-1798.6417267448078,687.3268030568275,0.12113454251002556,-0.03921178142799569,2.7076512189852657,0.008762836456298828,2.7166917793042487,1,1,1,1,0.7139351930264469,1.7986417267448078,-0.5873268030568275,155.13698724130836,0.0,0.0,0.1,0.0,1,27816.910994417176,-77.05784163034586,16.90062615327789,2446.8340975661367,27816.910994417176,-40,16.90062615327789,360,,,,,,,,,,,
1.759484052658081,-713.2032730268606,-1803.517961558702,687.0000208846835,0.09033016429835561,-0.032403431632075014,2.6978487189214073,0.008275032043457031,2.7144440088679263,1,1,1,1,0.7132032730268606,1.803517961558702,-0.5870000208846835,154.57534535897256,0.0,0.0,0.1,0.0,1,31359.864438093824,-76.52613018449173,19.07565500058962,2232.2459928653875,31359.864438093824,-40,19.07565500058962,360,0.0,0.0,0.0,0.0,0.0,0.0,0.0,0.0,635.0,-3.0,-4.0
1.7699196338653564,-712.6906549808896,-1808.397936752092,687.3878773669794,0.1163143596724165,-0.04643654314969801,2.703391778760138,0.008574485778808594,2.7122085802914273,1,1,1,1,0.7126906549808896,1.808397936752092,-0.5873878773669794,154.8929392933203,0.0,0.0,0.1,0.0,1,29685.259003975647,-76.24658071736418,17.861180927247926,2369.022831922599,29685.259003975647,-40,17.861180927247926,360,,,,,,,,,,,
1.7794675827026367,-711.7804796927239,-1813.1558876020556,686.879025581365,0.12066106443785385,-0.03498267279304575,2.6934119134671275,0.007995128631591797,2.7101100311608803,1,1,1,1,0.711780479692724,1.8131558876020557,-0.586879025581365,154.3211351319217,0.0,0.0,0.1,0.0,1,31818.964258731787,-76.51081112634077,19.569787537794245,2224.978830943059,31818.964258731787,-40,19.569787537794245,360,,,,,,,,,,,
1.788928747177124,-710.9317972990073,-1817.9677538702063,686.0963590087756,0.09726132009546284,-0.029431688022362026,2.6906251798174243,0.007771015167236328,2.707905167724407,1,1,1,1,0.7109317972990072,1.8179677538702061,-0.5860963590087757,154.1614670551666,0.0,0.0,0.1,0.0,1,32595.81306580951,-76.79828067999043,20.362796637668872,2287.1644206039946,32595.81306580951,-40,20.362796637668872,360,0.0,0.0,0.0,0.0,0.0,0.0,0.0,0.0,631.0,0.0,0.0
1.7997090816497803,-709.8265498843413,-1822.5706200763984,685.2564094054117,0.09590423527060178,-0.04108362955620831,2.6877575364969046,0.009206533432006836,2.705231439002614,1,1,1,1,0.7098265498843412,1.8225706200763985,-0.5852564094054117,153.99716319575197,0.0,0.0,0.1,0.0,1,32183.042036817336,-75.1184500551721,20.868063809076524,2287.0862285602716,32183.042036817336,-40,20.868063809076524,360,,,,,,,,,,,
1.8093984127044678,-709.1225080985523,-1827.1911086946504,684.0910871447538,0.06926785588599063,0.0029567636861302206,2.687126377441971,0.0081939697265625,2.702782393258932,1,1,1,1,0.7091225080985523,1.8271911086946504,-0.5840910871447538,153.9610004457028,0.0,0.0,0.1,0.0,1,33459.89985540469,-76.41656236786572,21.212348737603534,2303.823275689345,33459.89985540469,-40,21.212348737603534,360,,,,,,,,,,,
1.8192098140716553,-708.9496217604782,-1831.6813154925624,684.5910354084216,0.07183815716574724,-0.01545263142950133,2.6788874242329683,0.00728154182434082,2.700116426778293,1,1,1,1,0.7089496217604782,1.8316813154925624,-0.5845910354084216,153.48894319922118,0.0,0.0,0.1,0.0,1,29702.063961803702,-76.58655991898118,21.105123618263022,2230.030919930077,29702.063961803702,-40,21.105123618263022,360,0.0,0.0,0.0,0.0,0.0,0.0,0.0,0.0,631.0,0.0,0.0
1.8295986652374268,-707.7459862497112,-1836.1184820928866,683.1701177042949,0.09097810117162064,-0.005112330518599469,2.6818093421458733,0.008724451065063477,2.6972809261499164,1,1,1,1,0.7077459862497112,1.8361184820928866,-0.5831701177042948,153.6563567637143,0.0,0.0,0.1,0.0,1,33659.32449345177,-75.09137253971988,23.075023818804457,2328.9670753721625,33659.32449345177,-40,23.075023818804457,360,0.0,0.0,0.0,0.0,0.0,0.0,0.0,0.0,625.0,-1.0,-4.0
1.839627742767334,-707.7856782800029,-1840.4410250483995,683.5191797314222,0.10321152320973312,-0.02062586675493653,2.66908249250491,0.008367300033569336,2.6942706739441187,1,1,1,1,0.7077856782800029,1.8404410250483996,-0.5835191797314222,152.92716199278954,0.0,0.0,0.1,0.0,1,30096.4213793183,-76.27569796853457,22.299592413773517,2184.6791539769047,30096.4213793183,-40,22.299592413773517,360,0.0,0.0,0.0,0.0,0.0,0.0,0.0,0.0,625.0,0.0,0.0
1.8498969078063965,-706.4626328925957,-1844.4129456330045,681.244181585906,0.038380669502828035,0.017970759501870253,2.662528070123622,0.008697748184204102,2.6907507309539627,1,1,1,1,0.7064626328925957,1.8444129456330045,-0.581244181585906,152.55162125319563,0.0,0.0,0.1,0.0,1,35587.80326890027,-74.01513214344072,26.66768987795134,2233.4069638361934,35587.80326890027,-40,26.66768987795134,360,,,,,,,,,,,
1.8594202995300293,-706.598318006888,-1848.4748418357826,681.4421134967795,0.03761295375232279,-0.0064215269725191055,2.6449448934014055,0.008033037185668945,2.686729042066924,1,1,1,1,0.706598318006888,1.8484748418357826,-0.5814421134967794,151.54417943657995,0.0,0.0,0.1,0.0,1,30742.26150349924,-75.8610613734083,28.030032745632,2114.4598055304305,30742.26150349924,-40,28.030032745632,360,0.0,0.0,0.0,0.0,0.0,0.0,0.0,0.0,625.0,-2.0,-2.0
1.8689508438110352,-706.0183611015658,-1852.3274786024033,680.9070957291964,0.06215908447608714,-0.014469712590059533,2.6475229572279653,0.007960319519042969,2.6821921564398647,1,1,1,1,0.7060183611015658,1.8523274786024033,-0.5809070957291964,151.69189161315717,0.0,0.0,0.1,0.0,1,32466.58081482501,-74.4595427990263,32.00001661952483,2298.6010404875215,32466.58081482501,-40,32.00001661952483,360,0.0,0.0,0.0,0.0,0.0,0.0,0.0,0.0,619.0,-1.0,-4.0
1.8866021633148193,-705.3614916462732,-1856.358290119841,680.2403781342896,0.09891654191122258,-0.014534844779058045,2.6667557133457596,0.01604938507080078,2.6757013728501313,1,1,1,1,0.7053614916462732,1.856358290119841,-0.5802403781342896,152.7938473671112,0.0,0.0,0.1,0.0,1,31073.180030563275,-71.64726285752369,25.820310228750216,2385.555135133162,31073.180030563275,-40,25.820310228750216,360,0.0,0.0,0.0,0.0,0.0,0.0,0.0,0.0,619.0,-4.0,-1.0
1.8973867893218994,-704.061392095633,-1859.9234995413071,678.7832653381304,0.08507264598332752,0.03415101783165447,2.652318555611041,0.008346319198608398,2.6720772120249494,1,1,1,1,0.704061392095633,1.8599234995413072,-0.5787832653381304,151.96665916074718,0.0,0.0,0.1,0.0,1,33577.32590475691,-72.88679085795684,27.361241980926785,2165.0183061168964,33577.32590475691,-40,27.361241980926785,360,0.0,0.0,0.0,0.0,0.0,0.0,0.0,0.0,619.0,2.0,-3.0
1.906416416168213,-704.4914788622408,-1862.7651671322117,679.5144147437663,0.07810234794003457,0.05746741551052701,2.6113437885579747,0.006649971008300781,2.6681532311497187,1,1,1,1,0.7044914788622408,1.8627651671322116,-0.5795144147437663,149.6189779420748,0.0,0.0,0.1,0.0,1,29110.85418275654,-73.78638562923976,28.712207721502473,1852.4882530642838,29110.85418275654,-40,28.712207721502473,360,0.0,0.0,0.0,0.0,0.0,0.0,0.0,0.0,616.0,0.0,-1.0
1.9298748970031738,-700.7691194252794,-1870.3690136885639,687.4757597018927,-1.4485189531309168,-0.4182633326342304,0.237671514208314,0.02049541473388672,2.305940101856226,1,1,1,1,0.7007691194252794,1.8703690136885638,-0.5874757597018927,13.617574674619972,0.0,0.0,0.1,0.0,1,43809.47251737654,127.49854918368906,675.3700219508241,-8497.25921143723,43809.47251737654,40,40,-360,0.0,0.0,0.0,0.0,0.0,0.0,0.0,0.0,616.0,0.0,1.0
1.9392318725585938,-700.801134947204,-1873.6105345998512,687.5603317485821,-1.3591084350301916,-0.38265027368092086,0.26562910285399616,0.007712125778198242,2.115927195426291,1,1,1,1,0.700801134947204,1.8736105345998513,-0.5875603317485821,15.21942650938043,0.0,0.0,0.1,0.0,1,-32464.552080238464,417.002511549136,788.7860864466381,485.15339169995696,10000,40,40,360,,,,,,,,,,,
1.9487512111663818,-700.524514369272,-1876.3871489497071,688.4571735000511,-1.33615989082734,-0.3553685668536674,0.29743429075102157,0.008009195327758789,1.896873377226509,1,1,1,1,0.700524514369272,1.876387148949707,-0.5884571735000511,17.04172954250055,0.0,0.0,0.1,0.0,1,29577.36348289592,648.2223863730757,765.7244126951955,540.5753491656377,29577.36348289592,40,40,360,,,,,,,,,,,
1.9593899250030518,-697.6082962957191,-1878.5591263302024,684.95845464191,-1.3404333665288435,-0.3644379105680082,0.3268563380380182,0.009072542190551758,1.6471329541009974,1,1,1,1,0.6976082962957191,1.8785591263302024,-0.58495845464191,18.727488676679794,0.0,0.0,0.1,0.0,1,109952.24554227511,845.9681346791668,612.1508505073384,520.4957633138094,65535,40,40,360,0.0,0.0,0.0,0.0,0.0,0.0,0.0,0.0,613.0,0.0,0.0
1.969667673110962,-698.6281122122082,-1881.9307623269979,687.2144114261018,-1.3934679583930343,-0.4123599856192849,0.26073880587168496,0.008669376373291016,1.4163816560182745,1,1,1,1,0.6986281122122082,1.8819307623269979,-0.5872144114261019,14.939233131728436,0.0,0.0,0.1,0.0,1,229222.7422461344,910.142562162504,379.2069448527295,-328.3835261538252,65535,40,40,-328.3835261538252,,,,,,,,,,,
1.9792490005493164,-695.9412755194998,-1883.3597256039461,684.0864370267029,-1.3962438230925744,-0.42294155964717345,0.3082991519275806,0.008085012435913086,1.2203746926140204,1,1,1,1,0.6959412755194998,1.883359725603946,-0.5840864370267029,17.664240232912928,0.0,0.0,0.1,0.0,1,2843467.3569200626,892.0801846446573,162.80479453551806,691.9050886214402,65535,40,40,360,,,,,,,,,,,
2.349888324737549,-684.1405921247725,-1937.8870584646263,684.9827786406065,-2.985280813370798,-0.06481834436745346,-0.7423684054234422,0.3691060543060303,-0.5019737599212546,1,1,1,1,0.6841405921247725,1.9378870584646264,-0.5849827786406065,-42.53457647462005,0.0,0.0,0.1,0.0,1,-995828.2442121039,190.12803079903654,-148.67244743645853,-881.6431767838884,10000,40,-40,-360,0.0,0.0,0.0,0.0,0.0,0.0,0.0,0.0,620.0,-2.0,0.0
2.360588788986206,-684.6046229659806,-1938.1735830453288,686.2029784836659,-2.9666220703397763,-0.05872601795694639,-0.7603742871205178,0.009076833724975586,-0.5471080138382669,1,1,1,1,0.6846046229659807,1.9381735830453288,-0.5862029784836659,-43.56623750227434,0.0,0.0,0.1,0.0,1,-143631.67202830565,36.8736691450517,-198.4199245959176,-797.4072221514568,10000,36.8736691450517,-40,-360,0.0,0.0,0.0,0.0,0.0,0.0,0.0,0.0,620.0,0.0,1.0
2.3701202869415283,-683.4448489894231,-1938.8324465716644,685.5539588615425,-2.967082409685796,-0.04370932520233627,-0.7782851172759805,0.007853984832763672,-0.5837510771517805,1,1,1,1,0.6834448489894231,1.9388324465716644,-0.5855539588615425,-44.592452477757995,0.0,0.0,0.1,0.0,1,-361336.0230555928,31.08323327263969,-188.20980810822084,-831.1034743047958,10000,31.08323327263969,-40,-360,0.0,0.0,0.0,0.0,0.0,0.0,0.0,0.0,620.0,0.0,0.0
2.379033088684082,-683.4523251916585,-1938.6088773382521,686.2347213799907,-2.9585521381777244,-0.036870073830988705,-0.789618277427569,0.005845785140991211,-0.6150860935255581,1,1,1,1,0.6834523251916584,1.9386088773382522,-0.5862347213799907,-45.24179472298986,0.0,0.0,0.1,0.0,1,299050.514787253,28.31300120237171,-171.12520887198153,-788.1320583476619,65535,28.31300120237171,-40,-360,0.0,0.0,0.0,0.0,0.0,0.0,0.0,0.0,622.0,0.0,0.0
2.3901143074035645,-683.3250276107557,-1938.5667153933146,686.1771028277489,-2.951347908361796,-0.03211887399435863,-0.7939647937644683,0.009385108947753906,-0.649411464175359,1,1,1,1,0.6833250276107556,1.9385667153933146,-0.5861771028277488,-45.49083176467885,0.0,0.0,0.1,0.0,1,112537.53407037539,28.235534879434304,-154.78003058479547,-716.1801275063457,65535,28.235534879434304,-40,-360,0.0,0.0,0.0,0.0,0.0,0.0,0.0,0.0,622.0,0.0,0.0
2.399182081222534,-683.079642167349,-1938.6316138122722,686.2611396714195,-2.9557182720992454,-0.022018863612642443,-0.7988846251540827,0.0071125030517578125,-0.6744576396364241,1,1,1,1,0.683079642167349,1.9386316138122723,-0.5862611396714196,-45.77271733921974,0.0,0.0,0.1,0.0,1,72996.29249263664,28.57568619054478,-141.06065582862487,-733.2131920465155,65535,28.57568619054478,-40,-360,0.0,0.0,0.0,0.0,0.0,0.0,0.0,0.0,622.0,0.0,0.0
2.4097139835357666,-683.2288800941501,-1938.639865809409,686.4993589933875,-2.958446710928089,-0.021806631818712775,-0.796850232525133,0.008220434188842773,-0.6993032099900276,1,1,1,1,0.6832288800941501,1.938639865809409,-0.5864993589933876,-45.656155227708396,0.0,0.0,0.1,0.0,1,51725.31576923789,31.640351801906455,-124.05281361028592,-668.2421655290401,51725.31576923789,31.640351801906455,-40,-360,0.0,0.0,0.0,0.0,0.0,0.0,0.0,0.0,622.0,0.0,0.0
2.4192826747894287,-683.1218786740732,-1938.615023290137,686.5558178321337,-2.951439279518819,-0.017857272379067944,-0.8032676090995636,0.007239580154418945,-0.7186794232892466,1,1,1,1,0.6831218786740731,1.9386150232901371,-0.5865558178321337,-46.0238438209694,0.0,0.0,0.1,0.0,1,43630.22550625558,33.9301312452332,-111.03670679131432,-748.0055990560551,43630.22550625558,33.9301312452332,-40,-360,0.0,0.0,0.0,0.0,0.0,0.0,0.0,0.0,623.0,0.0,0.0
2.428807020187378,-683.4283565730477,-1938.4218583400275,687.2233358854924,-2.9371900862164266,-0.02405919823667929,-0.798572996291186,0.00798487663269043,-0.7349281613174945,1,1,1,1,0.6834283565730477,1.9384218583400274,-0.5872233358854924,-45.754862320601305,0.0,0.0,0.1,0.0,1,35999.26401569129,37.78005863390447,-97.23270160618884,-644.0422283910349,35999.26401569129,37.78005863390447,-40,-360,0.0,0.0,0.0,0.0,0.0,0.0,0.0,0.0,623.0,0.0,0.0
2.4395246505737305,-682.959779045796,-1938.757985425406,687.0051911750703,-2.945462203454676,-0.035871375556600894,-0.8046136375908873,0.009066581726074219,-0.749874458474111,1,1,1,1,0.6829597790457961,1.938757985425406,-0.5870051911750703,-46.100965572626606,0.0,0.0,0.1,0.0,1,35516.94055662126,41.33597483458077,-87.22782543158135,-740.0401756887483,35516.94055662126,40,-40,-360,0.0,0.0,0.0,0.0,0.0,0.0,0.0,0.0,623.0,0.0,0.0
2.4492034912109375,-683.2509013675445,-1938.5705130303147,687.7612741586832,-2.9543237629019807,-0.03455585542344283,-0.8040999334646083,0.008137941360473633,-0.7610499079338866,1,1,1,1,0.6832509013675445,1.9385705130303148,-0.5877612741586833,-46.07153249427236,0.0,0.0,0.1,0.0,1,30668.93686935413,44.915151288177206,-75.82214314333675,-686.5100690145023,30668.93686935413,40,-40,-360,0.0,0.0,0.0,0.0,0.0,0.0,0.0,0.0,623.0,-1.0,-1.0
2.4589781761169434,-683.7218670360429,-1939.0711599385563,687.6707399180407,-2.954065863403871,-0.030097675184723824,-0.8144070164202012,0.008208513259887695,-0.7705969966589274,1,1,1,1,0.6837218670360429,1.9390711599385564,-0.5876707399180406,-46.66208484671906,0.0,0.0,0.1,0.0,1,31933.68777038859,48.852691388246505,-69.77216601146432,-790.5317297008324,31933.68777038859,40,-40,-360,0.0,0.0,0.0,0.0,0.0,0.0,0.0,0.0,623.0,0.0,0.0
2.469134569168091,-683.0494774073559,-1938.7527317385968,687.9647208419682,-2.9552838912644526,-0.04275375320555497,-0.8091137162794119,0.008432149887084961,-0.7787995948779493,1,1,1,1,0.6830494774073559,1.9387527317385969,-0.5879647208419682,-46.35880108895583,0.0,0.0,0.1,0.0,1,29957.532436857724,48.39041072107011,-63.853927382034655,-650.5973283213337,29957.532436857724,40,-40,-360,0.0,0.0,0.0,0.0,0.0,0.0,0.0,0.0,623.0,-2.0,0.0
2.479365348815918,-683.742778485368,-1939.032344218629,688.3304667252662,-2.9772640499631517,-0.035596388298255933,-0.8092436302865844,0.008611917495727539,-0.7855210611006316,1,1,1,1,0.683742778485368,1.939032344218629,-0.5883304667252662,-46.366244613266446,0.0,0.0,0.1,0.0,1,29419.60895646357,53.78895524599783,-56.936350244247194,-696.5855462259301,29419.60895646357,40,-40,-360,0.0,0.0,0.0,0.0,0.0,0.0,0.0,0.0,623.0,1.0,0.0
2.4894845485687256,-683.7164905053432,-1938.6316928842648,688.7583194182762,-2.984123406809201,-0.0515407145425197,-0.8022035075849847,0.008587121963500977,-0.7906308719611654,1,1,1,1,0.6837164905053432,1.9386316928842648,-0.5887583194182762,-45.962875295210544,0.0,0.0,0.1,0.0,1,28580.92367867454,54.313540115591564,-51.117746508622474,-629.6659513931389,28580.92367867454,40,-40,-360,0.0,0.0,0.0,0.0,0.0,0.0,0.0,0.0,623.0,0.0,-3.0
2.499406337738037,-683.4559331683809,-1938.7917808006666,688.4428175908301,-2.9780009917583934,-0.0635029412591636,-0.8066711401731599,0.008300065994262695,-0.7944895591567509,1,1,1,1,0.6834559331683808,1.9387917808006667,-0.5884428175908302,-46.21885178692809,0.0,0.0,0.1,0.0,1,30123.11800318085,56.84860634582282,-47.903406303352895,-731.9912213340334,30123.11800318085,40,-40,-360,0.0,0.0,0.0,0.0,0.0,0.0,0.0,0.0,623.0,0.0,2.0
2.5091359615325928,-683.4607098172268,-1938.9746068615316,688.477988150783,-2.9875065100743434,-0.05008595980427693,-0.8168243844636845,0.008028030395507812,-0.797731810081022,1,1,1,1,0.6834607098172267,1.9389746068615317,-0.5884779881507829,-46.80058983314046,0.0,0.0,0.1,0.0,1,29302.39239151391,58.24501562948522,-45.491851033418406,-791.6790582299337,29302.39239151391,40,-40,-360,0.0,0.0,0.0,0.0,0.0,0.0,0.0,0.0,624.0,-2.0,1.0
