time,x_pos,y_pos,z_pos,x_rot,y_rot,z_rot,delta_time,z_filtered,x_pos_est,y_pos_est,z_pos_est,z_rot_est,x_error,y_error,z_error,yaw_error,x_setpoint,y_setpoint,z_setpoint,yaw_setpoint,vicon_available,thrust_cal,pitch_cal,roll_cal,yaw_cal,thrust_lim,pitch_lim,roll_lim,yaw_lim,gyro_x,gyro_y,acc_x,acc_y,acc_z,stateEstimate_az,stateEstimate_vz,stateEstimate_yaw,range_zrange,motion_deltaX,motion_deltaY
1.3189666271209717,114.61371605969563,-1545.5389423521724,828.6488177176246,-0.06151920043949971,0.01407105255701577,-1.7073154361813356,0.0002675056457519531,-1.628277503945844,1,1,1,1,-0.11461371605969563,1.5455389423521724,-0.7286488177176247,-97.82196879072778,0.0,0.0,0.1,0.0,1,-27490108.844022106,-4749.648018044039,-35527.58429978485,-156334.62004022454,10000,-40,-40,-360,0.0,0.0,0.0,0.0,0.0,0.0,0.0,0.0,802.0,1.0,0.0
1.3215360641479492,114.66283335755341,-1545.4343894817505,828.613784294838,-0.060129174942527515,0.013294335309778629,-1.7083846781940364,0.00015974044799804688,-1.631552808926299,1,1,1,1,-0.11466283335755341,1.5454343894817504,-0.7286137842948379,-97.88323184533361,0.0,0.0,0.1,0.0,1,23689.703204154084,-49.74236584391789,-47.20402167720491,-1503.7330857151896,23689.703204154084,-40,-40,-360,0.0,0.0,0.0,0.0,0.0,0.0,0.0,0.0,802.0,0.0,9.0
1.3238022327423096,114.86072153462823,-1545.341099393111,828.6211094300613,-0.06533799461235028,0.01177239976192989,-1.7073144732688876,0.00011396408081054688,-1.6341874527498699,1,1,1,1,-0.11486072153462823,1.5453410993931112,-0.7286211094300613,-97.82191361990847,0.0,0.0,0.1,0.0,1,23405.320120923603,-50.59037314922233,-47.00249753646369,-1424.1281536535712,23405.320120923603,-40,-40,-360,,,,,,,,,,,
1.3279402256011963,114.91898410780755,-1545.2682942114373,828.5546508522724,-0.06718171751726984,0.011681442544988296,-1.705442866106236,0.0001010894775390625,-1.6392232138845668,1,1,1,1,-0.11491898410780754,1.5452682942114373,-0.7285546508522724,-97.71467842858208,0.0,0.0,0.1,0.0,1,23677.148074116598,-48.70873776066783,-47.53615854708625,-1426.6634734137026,23677.148074116598,-40,-40,-360,,,,,,,,,,,
1.3305904865264893,114.8631107623533,-1545.4084992266098,828.4642679035455,-0.05762386953566789,0.011103712648183356,-1.7162234206124638,8.416175842285156e-05,-1.6424399561520198,1,1,1,1,-0.1148631107623533,1.5454084992266097,-0.7284642679035456,-98.33235870259966,0.0,0.0,0.1,0.0,1,24107.40997527581,-47.91371278492231,-48.972275329541475,-1824.738622015873,24107.40997527581,-40,-40,-360,0.0,0.0,0.0,0.0,0.0,0.0,0.0,0.0,785.0,-1.0,-9.0
1.3377611637115479,114.87056090207643,-1545.344869693741,828.4674012604727,-0.060077252800245215,0.011376685479433497,-1.7161148234448647,0.00013113021850585938,-1.6509031766553854,1,1,1,1,-0.11487056090207644,1.545344869693741,-0.7284674012604727,-98.32613654322917,0.0,0.0,0.1,0.0,1,23227.174800543806,-47.49486936225189,-47.47897036618809,-1473.5935294930337,23227.174800543806,-40,-40,-360,,,,,,,,,,,
1.3415250778198242,115.28488437313263,-1545.2186126564568,828.5369798518508,-0.0603615353864921,0.013624655343898048,-1.7164858625017316,8.845329284667969e-05,-1.6552400622104195,1,1,1,1,-0.11528488437313263,1.5452186126564569,-0.7285369798518508,-98.34739551522216,0.0,0.0,0.1,0.0,1,22941.84958780064,-49.33552980198088,-46.55529242056889,-1483.7197365262296,22941.84958780064,-40,-40,-360,0.0,0.0,0.0,0.0,0.0,0.0,0.0,0.0,785.0,0.0,5.0
1.3438568115234375,115.04129527929429,-1545.1211883867634,828.3742661830996,-0.06617077631132459,0.008029630029420825,-1.7148684986876412,0.00011301040649414062,-1.6579079180836014,1,1,1,1,-0.11504129527929428,1.5451211883867635,-0.7283742661830996,-98.2547273947376,0.0,0.0,0.1,0.0,1,24268.844190253396,-44.104170504596404,-46.727928503158616,-1414.649348693183,24268.844190253396,-40,-40,-360,,,,,,,,,,,
1.3490180969238281,115.63130941407823,-1544.8252871101352,828.4289221261164,-0.06270823449880876,0.015335270719269474,-1.710628550272743,0.0003542900085449219,-1.663481822386994,1,1,1,1,-0.11563130941407823,1.5448252871101351,-0.7284289221261164,-98.01179624521075,0.0,0.0,0.1,0.0,1,22877.500199281832,-47.256024293883726,-46.04946158854185,-1399.4868443174646,22877.500199281832,-40,-40,-360,0.0,0.0,0.0,0.0,0.0,0.0,0.0,0.0,785.0,1.0,-3.0
1.3526089191436768,115.73743702388347,-1544.6994910298286,828.4048552851029,-0.061998727971056274,0.015408969606308998,-1.7106164578144138,0.00010514259338378906,-1.6671954360429833,1,1,1,1,-0.11573743702388348,1.5446994910298286,-0.7284048552851029,-98.01110339838455,0.0,0.0,0.1,0.0,1,23016.99148417137,-44.06782259400346,-46.75072220388163,-1469.8772614003924,23016.99148417137,-40,-40,-360,,,,,,,,,,,
1.3580513000488281,115.65332817471742,-1544.5408285124133,828.3232303407418,-0.06381014258221918,0.009389038986956057,-1.7112626444906145,9.822845458984375e-05,-1.6724013947738343,1,1,1,1,-0.11565332817471742,1.5445408285124134,-0.7283232303407419,-98.04812716770843,0.0,0.0,0.1,0.0,1,22970.6617193624,-40.80094000977578,-47.20978498615964,-1480.9347019586003,22970.6617193624,-40,-40,-360,0.0,0.0,0.0,0.0,0.0,0.0,0.0,0.0,865.0,0.0,7.0
1.3615696430206299,115.71827877926091,-1544.3551013779268,828.297482265087,-0.06259217423187463,0.01030006872073269,-1.7122601572222347,0.0001010894775390625,-1.675585331795383,1,1,1,1,-0.11571827877926091,1.5443551013779269,-0.728297482265087,-98.10528043724084,0.0,0.0,0.1,0.0,1,22714.96727037449,-39.89376976507428,-46.76939138672284,-1495.937510346668,22714.96727037449,-39.89376976507428,-40,-360,,,,,,,,,,,
1.366081714630127,115.93072324275471,-1544.1703738737704,828.3777345980369,-0.06097170564516546,0.012760025226990693,-1.7140170195296585,0.00010156631469726562,-1.6793757628770662,1,1,1,1,-0.1159307232427547,1.5441703738737704,-0.7283777345980369,-98.20594123264183,0.0,0.0,0.1,0.0,1,22163.041771163364,-38.58541045468049,-47.196278647089656,-1506.5670994163272,22163.041771163364,-38.58541045468049,-40,-360,,,,,,,,,,,
1.3690996170043945,115.9798853468027,-1543.9832241165245,828.3851989618003,-0.0647924934963212,0.015025846463220449,-1.7130447806465416,8.440017700195312e-05,-1.6817793573642328,1,1,1,1,-0.1159798853468027,1.5439832241165246,-0.7283851989618002,-98.15023604796072,0.0,0.0,0.1,0.0,1,22310.40493513467,-36.596449878883405,-46.94787448975259,-1444.4828023364378,22310.40493513467,-36.596449878883405,-40,-360,0.0,0.0,0.0,0.0,0.0,0.0,0.0,0.0,865.0,-2.0,-1.0
1.3728985786437988,115.99015527423734,-1543.7810512966987,828.4016489351014,-0.06637419585410063,0.016174478800098476,-1.713143703183241,0.00010061264038085938,-1.68460737080433,1,1,1,1,-0.11599015527423734,1.5437810512966987,-0.7284016489351014,-98.15590389181233,0.0,0.0,0.1,0.0,1,22190.667388091733,-34.61221115491418,-47.42387354719544,-1474.5707330380478,22190.667388091733,-34.61221115491418,-40,-360,,,,,,,,,,,
1.3804662227630615,116.08049074466823,-1543.597894991412,828.4201005985261,-0.06848459263619906,0.015793800757125952,-1.7136609474755191,9.655952453613281e-05,-1.6894766619700197,1,1,1,1,-0.11608049074466822,1.543597894991412,-0.7284201005985261,-98.1855398067371,0.0,0.0,0.1,0.0,1,22159.982819608795,-31.849178565103607,-48.503896107027444,-1478.6569292772504,22159.982819608795,-31.849178565103607,-40,-360,0.0,0.0,0.0,0.0,0.0,0.0,0.0,0.0,865.0,4.0,-6.0
1.3830993175506592,116.17856595747439,-1543.3724149618438,828.3822068044921,-0.06942358068319159,0.014971021798752628,-1.7107458532068813,0.00011324882507324219,-1.6911013828594914,1,1,1,1,-0.11617856595747439,1.5433724149618437,-0.7283822068044921,-98.01851720826137,0.0,0.0,0.1,0.0,1,22335.007090963147,-31.07571592664588,-47.29289912956952,-1376.755567903585,22335.007090963147,-31.07571592664588,-40,-360,,,,,,,,,,,
1.3873376846313477,116.22643243730128,-1543.370809677898,828.5644609503404,-0.06769617172803072,0.01968853124521931,-1.7116717666239296,0.00010156631469726562,-1.6934182580277164,1,1,1,1,-0.11622643243730128,1.543370809677898,-0.7285644609503404,-98.07156813925278,0.0,0.0,0.1,0.0,1,21299.67900429713,-29.094008495945836,-49.45003777703042,-1490.0570050879642,21299.67900429713,-29.094008495945836,-40,-360,,,,,,,,,,,
1.3904602527618408,116.29538282731224,-1543.211848485468,828.5256486028821,-0.06651684233810667,0.02003191897147505,-1.7102338041347753,9.250640869140625e-05,-1.695015229713882,1,1,1,1,-0.11629538282731224,1.543211848485468,-0.7285256486028822,-97.98917895752611,0.0,0.0,0.1,0.0,1,22244.354435434554,-27.931281581780027,-48.54247459395047,-1430.2177262715259,22244.354435434554,-27.931281581780027,-40,-360,0.0,0.0,0.0,0.0,0.0,0.0,0.0,0.0,865.0,-4.0,3.0
1.393972396850586,116.34186189991867,-1543.0361441489267,828.4785347543077,-0.0639851321158783,0.018656771062262094,-1.7087988537577328,0.00010085105895996094,-1.6966525961866008,1,1,1,1,-0.11634186189991867,1.5430361441489266,-0.7284785347543077,-97.90696235711086,0.0,0.0,0.1,0.0,1,22214.324395472842,-26.2930322171985,-48.845456047774654,-1433.5263040680334,22214.324395472842,-26.2930322171985,-40,-360,,,,,,,,,,,
1.3988497257232666,116.37484245936963,-1542.830340773401,828.4244436026883,-0.06423016824006586,0.01783710196380573,-1.7061332179818551,9.512901306152344e-05,-1.6986112655084864,1,1,1,1,-0.11637484245936963,1.542830340773401,-0.7284244436026882,-97.75423267743399,0.0,0.0,0.1,0.0,1,22129.347735421332,-24.167416334374785,-49.404249206219575,-1419.3192093584044,22129.347735421332,-24.167416334374785,-40,-360,0.0,0.0,0.0,0.0,0.0,0.0,0.0,0.0,782.0,2.0,-5.0
1.402308702468872,116.0652480421854,-1542.4685772812725,828.0480394704492,-0.06814319594933847,0.013728130898819892,-1.705213320487805,9.870529174804688e-05,-1.6998428783034394,1,1,1,1,-0.1160652480421854,1.5424685772812725,-0.7280480394704493,-97.70152643344026,0.0,0.0,0.1,0.0,1,23783.8567419339,-20.467827684602305,-48.59332410280688,-1442.6539989145842,23783.8567419339,-20.467827684602305,-40,-360,,,,,,,,,,,
1.4077410697937012,116.39172614664795,-1542.1732035576517,827.9967246961822,-0.07279516065766392,0.008102120511566516,-1.7021896350757653,0.00010061264038085938,-1.7013937693758854,1,1,1,1,-0.11639172614664796,1.5421732035576516,-0.7279967246961823,-97.5282820207551,0.0,0.0,0.1,0.0,1,22037.669715650984,-21.588458483775547,-49.697033218379346,-1415.1022050544575,22037.669715650984,-21.588458483775547,-40,-360,0.0,0.0,0.0,0.0,0.0,0.0,0.0,0.0,782.0,-5.0,0.0
1.4112248420715332,116.30697571189718,-1542.145942467977,828.0807819446366,-0.06676446920379851,0.00663786815374165,-1.7109138787386573,0.00010085105895996094,-1.7022612711700904,1,1,1,1,-0.11630697571189719,1.5421459424679769,-0.7280807819446365,-98.02814436208257,0.0,0.0,0.1,0.0,1,21429.386971304702,-18.737741949232696,-51.16550104433722,-1685.484869836543,21429.386971304702,-18.737741949232696,-40,-360,,,,,,,,,,,
1.4135329723358154,116.70924638075869,-1541.70868527931,828.2938108770838,-0.06752821296421678,0.006678453012167064,-1.7125269393177605,9.369850158691406e-05,-1.70283931924901,1,1,1,1,-0.11670924638075869,1.54170868527931,-0.7282938108770839,-98.12056592536412,0.0,0.0,0.1,0.0,1,20059.416491138087,-21.494884094797893,-47.25431422508947,-1526.1257423916313,20059.416491138087,-21.494884094797893,-40,-360,,,,,,,,,,,
1.4179668426513672,116.90490714839335,-1541.1335640848617,828.3426257006971,-0.056277549766038396,-0.010418190033667504,-1.7016694741148921,9.822845458984375e-05,-1.703627261526932,1,1,1,1,-0.11690490714839336,1.5411335640848618,-0.7283426257006971,-97.49847899302961,0.0,0.0,0.1,0.0,1,21405.3385617251,-17.991253285399466,-48.52769723613828,-1239.504897368665,21405.3385617251,-17.991253285399466,-40,-360,,,,,,,,,,,
1.4203672409057617,116.90693106312648,-1540.6879075670372,828.4619465038552,-0.046059871897800246,-0.006423319757661582,-1.7055240845538273,8.416175842285156e-05,-1.70402741835548,1,1,1,1,-0.11690693106312648,1.5406879075670372,-0.7284619465038552,-97.71933190284766,0.0,0.0,0.1,0.0,1,20565.214101468213,-16.193974177013587,-47.72380072140409,-1604.4889568410003,20565.214101468213,-16.193974177013587,-40,-360,,,,,,,,,,,
1.423375129699707,117.0586078224039,-1540.2401944039561,828.5515112149063,-0.043337599312297144,-0.004610183912964181,-1.7080780419182482,8.0108642578125e-05,-1.7044642989134386,1,1,1,1,-0.1170586078224039,1.540240194403956,-0.7285515112149064,-97.86566288088534,0.0,0.0,0.1,0.0,1,21018.43658442643,-16.663115672335813,-48.52185068320922,-1540.9816851860871,21018.43658442643,-16.663115672335813,-40,-360,0.0,0.0,0.0,0.0,0.0,0.0,0.0,0.0,782.0,2.0,0.0
1.4279208183288574,117.2178327799557,-1539.9031836170677,828.7188418026138,-0.048834433273525574,-0.005864981445922153,-1.7062900387962436,9.846687316894531e-05,-1.7049962095915472,1,1,1,1,-0.1172178327799557,1.5399031836170678,-0.7287188418026138,-97.76321784823826,0.0,0.0,0.1,0.0,1,21011.228137882594,-15.637075692793772,-50.35889341535174,-1432.7615267358726,21011.228137882594,-15.637075692793772,-40,-360,,,,,,,,,,,
1.4302189350128174,117.20938260097512,-1539.5513894778958,828.8263295690217,-0.05226830574006023,-0.00381597575763197,-1.708426494846099,0.000102996826171875,-1.7052365556083948,1,1,1,1,-0.11720938260097512,1.5395513894778958,-0.7288263295690217,-97.88562776301016,0.0,0.0,0.1,0.0,1,20655.797634743398,-14.188065498396984,-48.84042079773474,-1548.0830479601461,20655.797634743398,-14.188065498396984,-40,-360,,,,,,,,,,,
1.4328255653381348,116.95927947635897,-1539.3057398403203,828.7311360180396,-0.049929745573448,-0.0035745001123067607,-1.7085479869703888,9.274482727050781e-05,-1.7054782606138368,1,1,1,1,-0.11695927947635897,1.5393057398403203,-0.7287311360180396,-97.89258874897604,0.0,0.0,0.1,0.0,1,22321.777842760683,-11.993747105518054,-50.4326720875245,-1472.4092789460994,22321.777842760683,-11.993747105518054,-40,-360,,,,,,,,,,,
1.437218427658081,117.12834109105654,-1539.285314157446,828.9649771936404,-0.05073064441756482,0.0022418564466788423,-1.7087988758316026,8.153915405273438e-05,-1.7058220675559386,1,1,1,1,-0.11712834109105653,1.539285314157446,-0.7289649771936404,-97.90696362185044,0.0,0.0,0.1,0.0,1,20812.556744598987,-14.70029273615153,-52.07025723902325,-1473.5246915398163,20812.556744598987,-14.70029273615153,-40,-360,,,,,,,,,,,
1.4408135414123535,117.09999093474086,-1539.13292101863,828.8102687908432,-0.05400106524691513,-0.0016483285243744656,-1.704606119798251,8.20159912109375e-05,-1.7060573515541566,1,1,1,1,-0.11709999093474086,1.53913292101863,-0.7288102687908432,-97.66673639661138,0.0,0.0,0.1,0.0,1,22562.441522031986,-13.172981819091994,-51.478825031065035,-1364.876566479572,22562.441522031986,-13.172981819091994,-40,-360,0.0,0.0,0.0,0.0,0.0,0.0,0.0,0.0,782.0,-1.0,0.0
1.443403720855713,117.16233832649546,-1539.0926235964967,828.5988486616321,-0.04738481285875431,-0.0023003292035503934,-1.70187206951475,0.00011563301086425781,-1.7061990847206463,1,1,1,1,-0.11716233832649546,1.5390926235964966,-0.7285988486616322,-97.51008685439022,0.0,0.0,0.1,0.0,1,23353.843913597782,-13.579257462963959,-52.0392513153137,-1372.753126923801,23353.843913597782,-13.579257462963959,-40,-360,,,,,,,,,,,
1.4485297203063965,117.26695016025757,-1538.995110419648,828.2945579286555,-0.04170872856590009,-0.010639988804722524,-1.6992711726590985,0.00010848045349121094,-1.7063397944811047,1,1,1,1,-0.11726695016025757,1.538995110419648,-0.7282945579286555,-97.36106644161255,0.0,0.0,0.1,0.0,1,22945.276104433688,-12.628798049940189,-52.153626603801705,-1416.7600378752327,22945.276104433688,-12.628798049940189,-40,-360,,,,,,,,,,,
1.451559066772461,116.94284372386595,-1538.773705453498,827.631956885605,-0.045105331574598846,-0.016252429953332596,-1.6986463045002493,9.1552734375e-05,-1.7063718584069054,1,1,1,1,-0.11694284372386594,1.538773705453498,-0.727631956885605,-97.32526413335839,0.0,0.0,0.1,0.0,1,25867.47175401461,-9.158625543558179,-51.47251836703137,-1442.082592633267,25867.47175401461,-9.158625543558179,-40,-360,0.0,0.0,0.0,0.0,0.0,0.0,0.0,0.0,782.0,4.0,3.0
1.4573578834533691,117.01872897306359,-1538.6346146927806,827.2966241746033,-0.047176808803060945,-0.017903878048271663,-1.6970580294021214,9.989738464355469e-05,-1.7062275784960335,1,1,1,1,-0.11701872897306359,1.5386346146927805,-0.7272966241746033,-97.23426267352993,0.0,0.0,0.1,0.0,1,22889.356462733136,-10.752266884451835,-52.443628885639974,-1436.0176068830458,22889.356462733136,-10.752266884451835,-40,-360,0.0,0.0,0.0,0.0,0.0,0.0,0.0,0.0,782.0,-3.0,2.0
1.4610717296600342,117.30565844056585,-1538.4810835057583,827.153511726023,-0.04837589062186072,-0.018441595415068547,-1.6974688692987794,9.846687316894531e-05,-1.7060820184047651,1,1,1,1,-0.11730565844056585,1.5384810835057583,-0.727153511726023,-97.25780206566402,0.0,0.0,0.1,0.0,1,22595.00551093062,-11.607023564367248,-51.89809748579775,-1469.0904915591989,22595.00551093062,-11.607023564367248,-40,-360,,,,,,,,,,,
1.4639990329742432,117.09777165360892,-1538.2949891681824,826.7167070006406,-0.07476638984991109,0.0016343153309839546,-1.6998525033555267,0.00010228157043457031,-1.705921702814864,1,1,1,1,-0.11709777165360892,1.5382949891681823,-0.7267167070006405,-97.39437423701929,0.0,0.0,0.1,0.0,1,24600.768256152463,-7.809268579005698,-52.0226134210736,-1530.8861190036716,24600.768256152463,-7.809268579005698,-40,-360,0.0,0.0,0.0,0.0,0.0,0.0,0.0,0.0,782.0,0.0,-5.0
1.4688546657562256,117.1330848026387,-1538.2095305222133,826.683388268161,-0.07259391456341285,-0.0033406299156897726,-1.7053582216740102,0.00010085105895996094,-1.7056223857517285,1,1,1,1,-0.1171330848026387,1.5382095305222132,-0.726683388268161,-97.70982865985626,0.0,0.0,0.1,0.0,1,22002.443722529297,-9.385343543401223,-52.83013936181804,-1563.1597190583686,22002.443722529297,-9.385343543401223,-40,-360,,,,,,,,,,,
1.4711649417877197,116.89461248205241,-1538.0237750327437,826.451194706309,-0.0718281474548133,-0.0031963074015815204,-1.7059794426597306,0.00048470497131347656,-1.7054544078451452,1,1,1,1,-0.1168946124820524,1.5380237750327437,-0.726451194706309,-97.74542200048299,0.0,0.0,0.1,0.0,1,23393.249330450108,-7.166083703330087,-52.01199052899073,-1485.8488108122774,23393.249330450108,-7.166083703330087,-40,-360,,,,,,,,,,,
1.4739222526550293,116.68533265818148,-1537.7664719524412,826.3251479442843,-0.06434539996202114,-0.0043040814850644005,-1.7109315079249323,9.107589721679688e-05,-1.7053183847905606,1,1,1,1,-0.11668533265818148,1.537766471952441,-0.7263251479442843,-98.02915444005238,0.0,0.0,0.1,0.0,1,22709.60286675325,-7.116264954462658,-51.08801363937961,-1652.5336299052315,22709.60286675325,-7.116264954462658,-40,-360,,,,,,,,,,,
1.4791419506072998,116.79555029490605,-1537.5878286757847,826.476221936468,-0.08296315485037367,-0.0007560365399132539,-1.70812694701274,8.296966552734375e-05,-1.7050926725257065,1,1,1,1,-0.11679555029490606,1.5375878286757847,-0.7264762219364681,-97.8684649363964,0.0,0.0,0.1,0.0,1,21291.212569035535,-10.196840402030135,-52.28869951336268,-1421.8955142278583,21291.212569035535,-10.196840402030135,-40,-360,0.0,0.0,0.0,0.0,0.0,0.0,0.0,0.0,782.0,-2.0,8.0
1.4826817512512207,116.55341614042757,-1537.3814319531514,826.4843036005441,-0.08400176472693055,0.0019644082521878153,-1.7074755338869252,9.799003601074219e-05,-1.7049775281613204,1,1,1,1,-0.11655341614042757,1.5373814319531514,-0.7264843036005441,-97.83114171356779,0.0,0.0,0.1,0.0,1,21740.49785766048,-8.544846367200003,-51.95335852163266,-1451.7065099437714,21740.49785766048,-8.544846367200003,-40,-360,,,,,,,,,,,
1.4876008033752441,116.26785953323379,-1537.2277263702713,826.4689929250453,-0.08766796098461194,0.0032902297673438915,-1.7044423915851439,9.584426879882812e-05,-1.7048682539337578,1,1,1,1,-0.11626785953323379,1.5372277263702714,-0.7264689929250453,-97.65735546101313,0.0,0.0,0.1,0.0,1,21896.545106554382,-9.157857216242693,-52.427169258834745,-1411.8433818423389,21896.545106554382,-9.157857216242693,-40,-360,0.0,0.0,0.0,0.0,0.0,0.0,0.0,0.0,796.0,2.0,1.0
1.490189552307129,115.82217702037755,-1537.1125922937708,826.2276775507622,-0.06846340245352993,-0.001357140661382509,-1.707201950766519,0.00010657310485839844,-1.704825546966049,1,1,1,1,-0.11582217702037755,1.5371125922937707,-0.7262276775507622,-97.8154665554225,0.0,0.0,0.1,0.0,1,23581.64768431358,-6.84495116216821,-52.433105722597645,-1558.677943687878,23581.64768431358,-6.84495116216821,-40,-360,,,,,,,,,,,
1.4927759170532227,115.8233490493104,-1536.9590950668567,826.4419061026522,-0.07659375021821709,0.00256242165173728,-1.7009892916380684,8.034706115722656e-05,-1.7047899397849626,1,1,1,1,-0.1158233490493104,1.5369590950668566,-0.7264419061026521,-97.45950740780886,0.0,0.0,0.1,0.0,1,20201.42945051998,-10.587111801768206,-51.57982039188672,-1254.0502616963663,20201.42945051998,-10.587111801768206,-40,-360,,,,,,,,,,,
1.4973232746124268,115.25135587446181,-1536.8272734615202,826.3173946314763,-0.07363877324161912,0.002098375993913875,-1.7004949319778586,9.489059448242188e-05,-1.7047198013638014,1,1,1,1,-0.11525135587446181,1.5368272734615203,-0.7263173946314763,-97.4311826857173,0.0,0.0,0.1,0.0,1,22362.003673316176,-7.890683451054775,-52.617088358021135,-1452.1381898563977,22362.003673316176,-7.890683451054775,-40,-360,,,,,,,,,,,
1.500854730606079,115.46902369535245,-1536.472089781377,826.8339990608674,-0.08766762783830687,0.011662216922099386,-1.697870589725761,8.678436279296875e-05,-1.7046453456275463,1,1,1,1,-0.11546902369535245,1.536472089781377,-0.7268339990608674,-97.28081895067426,0.0,0.0,0.1,0.0,1,18927.860890507123,-11.526635932064845,-50.55859281786652,-1395.2885851575415,18927.860890507123,-11.526635932064845,-40,-360,0.0,0.0,0.0,0.0,0.0,0.0,0.0,0.0,796.0,-2.0,-9.0
1.5034480094909668,115.27950132447894,-1536.266441608662,826.8870527968401,-0.08698236478463808,0.01667127660636384,-1.6972988670816112,0.00011467933654785156,-1.7045746012553258,1,1,1,1,-0.11527950132447894,1.536266441608662,-0.7268870527968401,-97.24806165611241,0.0,0.0,0.1,0.0,1,21339.940746494798,-8.49878847531205,-51.45650128887083,-1439.9255689442944,21339.940746494798,-8.49878847531205,-40,-360,,,,,,,,,,,
1.507664680480957,115.29571346883472,-1536.0696291019553,827.015506103279,-0.08913820197876501,0.012873328299006727,-1.6936480896115231,0.00010013580322265625,-1.70439448511084,1,1,1,1,-0.11529571346883472,1.5360696291019553,-0.727015506103279,-97.03888751513492,0.0,0.0,0.1,0.0,1,21209.477639908677,-9.706400775846024,-52.02405200480661,-1380.8991345136583,21209.477639908677,-9.706400775846024,-40,-360,,,,,,,,,,,
1.5110375881195068,115.11971439999658,-1535.8404772162498,826.9410063241063,-0.08005714214848782,0.012237653420253607,-1.6949131944085425,0.00033020973205566406,-1.704205254655083,1,1,1,1,-0.11511971439999658,1.53584047721625,-0.7269410063241063,-97.11137268064589,0.0,0.0,0.1,0.0,1,22166.76829383295,-7.989693246699794,-51.8181070972264,-1488.910761964017,22166.76829383295,-7.989693246699794,-40,-360,0.0,0.0,0.0,0.0,0.0,0.0,0.0,0.0,796.0,1.0,8.0
1.5209197998046875,115.1704474912155,-1535.8078678360105,826.7989540330085,-0.07692255660452826,0.0026258175697633523,-1.6940430863630775,0.0002548694610595703,-1.7033306581423826,1,1,1,1,-0.1151704474912155,1.5358078678360105,-0.7267989540330085,-97.06151916192037,0.0,0.0,0.1,0.0,1,22167.95386699223,-8.307891690820359,-53.27322550499094,-1448.3623762176321,22167.95386699223,-8.307891690820359,-40,-360,0.0,0.0,0.0,0.0,0.0,0.0,0.0,0.0,855.0,-2.0,-8.0
1.5234436988830566,115.10851974455265,-1535.5299393504777,826.8220590009744,-0.0701722441675137,0.0031589096700648757,-1.6965896881171438,0.000118255615234375,-1.7030908882110958,1,1,1,1,-0.11510851974455265,1.5355299393504778,-0.7268220590009744,-97.20742869452897,0.0,0.0,0.1,0.0,1,21504.228438137747,-7.146983603319102,-51.10326911566358,-1544.5017376254975,21504.228438137747,-7.146983603319102,-40,-360,,,,,,,,,,,
1.526700496673584,115.10845153537916,-1535.3385430390665,826.852801549751,-0.07006174935724784,0.0031704931031914835,-1.7001913443386603,8.654594421386719e-05,-1.702774719753049,1,1,1,1,-0.11510845153537916,1.5353385430390665,-0.726852801549751,-97.4137883952789,0.0,0.0,0.1,0.0,1,21596.309727536875,-7.6954914276486,-52.13690515746359,-1557.0508372566114,21596.309727536875,-7.6954914276486,-40,-360,,,,,,,,,,,
1.5303940773010254,115.11144888062053,-1535.1713174100087,826.9353721107576,-0.07150229665757937,0.004626919551820033,-1.698641676362187,9.560585021972656e-05,-1.7024140965758643,1,1,1,1,-0.11511144888062053,1.5351713174100086,-0.7269353721107576,-97.3249989605804,0.0,0.0,0.1,0.0,1,21378.872463825424,-7.750853592389854,-52.431388473870236,-1423.9188295637991,21378.872463825424,-7.750853592389854,-40,-360,0.0,0.0,0.0,0.0,0.0,0.0,0.0,0.0,855.0,3.0,7.0
1.533005952835083,115.03005924866889,-1535.0757996361576,826.8800444400654,-0.07512881680048941,0.0023823679409203406,-1.7005054948912268,0.00011444091796875,-1.7021650612961063,1,1,1,1,-0.1150300592486689,1.5350757996361577,-0.7268800444400654,-97.43178789607268,0.0,0.0,0.1,0.0,1,22221.68346221615,-7.158407190503468,-52.69199072316246,-1522.4716335964683,22221.68346221615,-7.158407190503468,-40,-360,,,,,,,,,,,
1.5372838973999023,115.04258801728372,-1535.0784151844289,827.0149391060602,-0.08070625385333467,0.01042024540972317,-1.6955549236997258,0.00010561943054199219,-1.7017681942786242,1,1,1,1,-0.11504258801728372,1.5350784151844288,-0.7270149391060602,-97.14814106062062,0.0,0.0,0.1,0.0,1,21290.53762288494,-8.032881167845298,-53.38190048233991,-1357.5264966475283,21290.53762288494,-8.032881167845298,-40,-360,,,,,,,,,,,
1.5403130054473877,114.76619278314215,-1535.0409902278652,826.7931224922921,-0.07545063311284674,0.003762418303731677,-1.6967038783393489,8.344650268554688e-05,-1.7014922360492404,1,1,1,1,-0.11476619278314215,1.5350409902278652,-0.7267931224922921,-97.21397131232298,0.0,0.0,0.1,0.0,1,23274.45942318212,-5.992264159773301,-53.36039976410593,-1490.9087748051952,23274.45942318212,-5.992264159773301,-40,-360,0.0,0.0,0.0,0.0,0.0,0.0,0.0,0.0,855.0,0.0,-7.0
1.5480399131774902,114.75292761564882,-1534.9933458178975,826.716454260721,-0.07605651316893931,0.009054243587054782,-1.6929783189243575,0.0002543926239013672,-1.700759035947991,1,1,1,1,-0.11475292761564881,1.5349933458178975,-0.726716454260721,-97.00051248151875,0.0,0.0,0.1,0.0,1,22078.21802933897,-7.792753297822557,-53.267502469865626,-1413.6410818996255,22078.21802933897,-7.792753297822557,-40,-360,,,,,,,,,,,
1.551828384399414,114.53258601834551,-1534.9893715744906,826.6236673981817,-0.06798211723944808,0.0011361495136752798,-1.6967897430060208,8.749961853027344e-05,-1.7004048534536125,1,1,1,1,-0.11453258601834551,1.5349893715744907,-0.7266236673981817,-97.21889099533259,0.0,0.0,0.1,0.0,1,22372.104325785152,-6.5931620684158325,-53.53273141130989,-1545.0151881106665,22372.104325785152,-6.5931620684158325,-40,-360,0.0,0.0,0.0,0.0,0.0,0.0,0.0,0.0,855.0,-1.0,-1.0
1.5588915348052979,114.64883891837614,-1534.6160967364622,826.8586918731733,-0.04723935185005478,-0.018896852056528603,-1.6964591551549744,0.0001087188720703125,-1.6997761151637145,1,1,1,1,-0.11464883891837614,1.5346160967364622,-0.7268586918731732,-97.19994970670932,0.0,0.0,0.1,0.0,1,21175.754299567405,-8.262275520490167,-52.18487224464874,-1454.095544485018,21175.754299567405,-8.262275520490167,-40,-360,,,,,,,,,,,
1.5614497661590576,114.54582677117278,-1534.5427351084359,826.7731216431699,-0.0424620429371989,-0.020188168751846265,-1.6973788288424507,9.226799011230469e-05,-1.6995799881917366,1,1,1,1,-0.11454582677117278,1.534542735108436,-0.72677312164317,-97.25264312753096,0.0,0.0,0.1,0.0,1,22526.93195728769,-7.095141766631126,-52.76287540210287,-1492.6042469322254,22526.93195728769,-7.095141766631126,-40,-360,,,,,,,,,,,
1.5696725845336914,114.37233717820871,-1534.352028824452,826.7730294075952,-0.0512243293070863,-0.019876248985867585,-1.692611908411646,8.487701416015625e-05,-1.698903785056165,1,1,1,1,-0.11437233717820872,1.5343520288244519,-0.7267730294075953,-96.97951870557117,0.0,0.0,0.1,0.0,1,21847.08080325964,-7.624736051355175,-52.86362595247545,-1404.885525995583,21847.08080325964,-7.624736051355175,-40,-360,0.0,0.0,0.0,0.0,0.0,0.0,0.0,0.0,819.0,1.0,-2.0
1.572282075881958,114.14432453997368,-1534.004468378647,826.718358185768,-0.049219896201043306,-0.01630307369788608,-1.6949591406826348,0.00010371208190917969,-1.6986915247182017,1,1,1,1,-0.11414432453997368,1.5340044683786471,-0.726718358185768,-97.11400520823572,0.0,0.0,0.1,0.0,1,22020.60483643631,-5.922227412516294,-50.6730743875649,-1533.643694609074,22020.60483643631,-5.922227412516294,-40,-360,,,,,,,,,,,
1.5763602256774902,113.83645347264503,-1533.9499417142172,826.4009865450306,-0.05798554170248186,-0.023153133952573995,-1.684923447064931,0.00010061264038085938,-1.6983290203608423,1,1,1,1,-0.11383645347264504,1.5339499417142173,-0.7264009865450306,-96.53900231945492,0.0,0.0,0.1,0.0,1,23365.036772291118,-6.206707024874836,-53.26197263566418,-1236.3062398827203,23365.036772291118,-6.206707024874836,-40,-360,,,,,,,,,,,
1.5807948112487793,113.64463598796209,-1533.7150956001199,826.6114538457676,-0.06145175095184652,-0.018537369464364465,-1.6869261540697975,0.0002467632293701172,-1.6978845692114062,1,1,1,1,-0.1136446359879621,1.5337150956001198,-0.7266114538457676,-96.65374897843506,0.0,0.0,0.1,0.0,1,20892.707968947037,-6.393893512474098,-52.39109172004113,-1488.6235029914278,20892.707968947037,-6.393893512474098,-40,-360,0.0,0.0,0.0,0.0,0.0,0.0,0.0,0.0,819.0,-1.0,4.0
1.5833187103271484,113.51053018805436,-1533.7218226437046,826.8526702872894,-0.04970162374360712,-0.025993820825119158,-1.6984608868745747,0.0001201629638671875,-1.6976282549044026,1,1,1,1,-0.11351053018805436,1.5337218226437046,-0.7268526702872894,-97.3146404859599,0.0,0.0,0.1,0.0,1,20086.505511256648,-6.294191578054939,-53.62185677392927,-1850.653213942857,20086.505511256648,-6.294191578054939,-40,-360,,,,,,,,,,,
1.5897572040557861,103.77175685754231,-1531.377565069382,831.9329982643532,-0.06663801702146196,-0.007613032765701819,-1.7016377914672352,0.00015997886657714844,-1.6971112893312,1,1,1,1,-0.10377175685754231,1.531377565069382,-0.7319329982643532,-97.49666371103505,0.0,0.0,0.1,0.0,1,6787.622076319572,25.84767639240883,-49.54217267253539,-1504.695459263668,10000,25.84767639240883,-40,-360,,,,,,,,,,,
1.5920424461364746,104.07279971989244,-1531.3937842842383,832.0787239221584,-0.06950646474106982,-0.0011199023495481806,-1.7027489375475737,9.322166442871094e-05,-1.6969508529617763,1,1,1,1,-0.10407279971989244,1.5313937842842384,-0.7320787239221583,-97.56032769186096,0.0,0.0,0.1,0.0,1,20491.68065238815,-10.920042779871563,-52.95896960445311,-1505.8438997126295,20491.68065238815,-10.920042779871563,-40,-360,,,,,,,,,,,
1.5973515510559082,104.17269659297754,-1531.405644158379,832.0908673919922,-0.06480814791905555,2.279582914616418e-05,-1.706182704007202,8.845329284667969e-05,-1.6967549357088438,1,1,1,1,-0.10417269659297755,1.531405644158379,-0.7320908673919923,-97.75706801783124,0.0,0.0,0.1,0.0,1,21660.266736586404,-9.5546346425234,-52.95053752603137,-1522.026754470387,21660.266736586404,-9.5546346425234,-40,-360,0.0,0.0,0.0,0.0,0.0,0.0,0.0,0.0,786.0,0.0,0.0
1.6008756160736084,104.31222808310196,-1531.4479732340703,832.2328834002471,-0.06453995453461636,-0.0003204378894278614,-1.7045242783296564,0.00010585784912109375,-1.6967045853232574,1,1,1,1,-0.10431222808310196,1.5314479732340702,-0.7322328834002472,-97.66204722587176,0.0,0.0,0.1,0.0,1,20960.98991523578,-10.766194257752433,-52.957313439967194,-1424.9828880273515,20960.98991523578,-10.766194257752433,-40,-360,,,,,,,,,,,
1.609903335571289,104.39718611476832,-1531.467511328744,832.2438310697863,-0.06358599440389162,-0.0005196079240910711,-1.7034782144152159,0.0002186298370361328,-1.6969654292569345,1,1,1,1,-0.10439718611476832,1.531467511328744,-0.7322438310697863,-97.60211217847338,0.0,0.0,0.1,0.0,1,21672.452218956587,-11.526728513976789,-52.55023198203596,-1454.0378125553216,21672.452218956587,-11.526728513976789,-40,-360,0.0,0.0,0.0,0.0,0.0,0.0,0.0,0.0,786.0,-4.0,0.0
1.6119279861450195,104.39631840312992,-1531.491764208604,832.2649259004179,-0.0700896967136137,-0.000631659431704308,-1.7034117506311535,0.00012874603271484375,-1.697042684053877,1,1,1,1,-0.10439631840312992,1.5314917642086041,-0.7322649259004179,-97.59830408415614,0.0,0.0,0.1,0.0,1,21516.66795826307,-11.635015966705712,-52.72912539828583,-1461.175021902592,21516.66795826307,-11.635015966705712,-40,-360,,,,,,,,,,,
1.614393711090088,104.44394517634034,-1531.4783045911777,832.3217736986486,-0.06882073930445239,-0.0004307064652738667,-1.7030367199795975,8.296966552734375e-05,-1.697158267050767,1,1,1,1,-0.10444394517634034,1.5314783045911777,-0.7323217736986486,-97.57681641063394,0.0,0.0,0.1,0.0,1,21234.7085483965,-12.338183649676198,-52.23570576508448,-1450.406238663203,21234.7085483965,-12.338183649676198,-40,-360,,,,,,,,,,,
1.6197760105133057,104.56548292560039,-1531.4797988857765,832.3967756657346,-0.06837078705369846,-0.00035250036958139923,-1.7046422031044042,0.00015115737915039062,-1.6975072212564144,1,1,1,1,-0.10456548292560039,1.5314797988857765,-0.7323967756657346,-97.66880381776484,0.0,0.0,0.1,0.0,1,21427.954390390965,-12.989302972037661,-52.23977146078077,-1490.4597692400291,21427.954390390965,-12.989302972037661,-40,-360,0.0,0.0,0.0,0.0,0.0,0.0,0.0,0.0,786.0,1.0,0.0
1.6275959014892578,104.79698783625047,-1531.5204064081681,832.4748403228315,-0.07142385662960982,-0.0015013123403457877,-1.703540039062629,0.00010824203491210938,-1.6981136669781867,1,1,1,1,-0.10479698783625047,1.5315204064081682,-0.7324748403228315,-97.60565446984003,0.0,0.0,0.1,0.0,1,21511.396173881567,-13.639613098343968,-52.231453021665025,-1451.9371577833185,21511.396173881567,-13.639613098343968,-40,-360,,,,,,,,,,,
1.6312572956085205,104.94589762740095,-1531.5706830265692,832.59494561599,-0.06983838203299902,-0.0016984036235450238,-1.7019452074518568,8.463859558105469e-05,-1.6984072279496232,1,1,1,1,-0.10494589762740095,1.5315706830265692,-0.73259494561599,-97.51427734950875,0.0,0.0,0.1,0.0,1,21089.940315029595,-14.013627094109967,-52.36373951083991,-1425.0999799252402,21089.940315029595,-14.013627094109967,-40,-360,0.0,0.0,0.0,0.0,0.0,0.0,0.0,0.0,786.0,4.0,7.0
1.6391398906707764,104.95378376890683,-1531.6215539757368,832.6783617494908,-0.07167509681024395,-0.0024796206811925252,-1.7025557805047398,0.00010609626770019531,-1.6990276217631743,1,1,1,1,-0.10495378376890684,1.5316215539757367,-0.7326783617494909,-97.54926060852335,0.0,0.0,0.1,0.0,1,21490.63481541867,-13.10467801386494,-52.32222178729936,-1469.8835062425412,21490.63481541867,-13.10467801386494,-40,-360,,,,,,,,,,,
1.6414732933044434,105.01497987658568,-1531.673431055002,832.7953785734652,-0.06913327927683315,-0.001644484567435949,-1.703040061665158,8.177757263183594e-05,-1.6992081812664022,1,1,1,1,-0.10501497987658569,1.531673431055002,-0.7327953785734652,-97.57700787511301,0.0,0.0,0.1,0.0,1,20761.18656189789,-13.689680361696425,-52.59735996356087,-1481.640972945271,20761.18656189789,-13.689680361696425,-40,-360,,,,,,,,,,,
1.6496713161468506,105.14475602910679,-1531.7064424802702,832.9939928087133,-0.07229614336862965,0.000667449305985121,-1.702556937908118,8.726119995117188e-05,-1.699788020638247,1,1,1,1,-0.10514475602910679,1.5317064424802702,-0.7329939928087132,-97.54932692285212,0.0,0.0,0.1,0.0,1,21217.387187706205,-13.206689606165245,-52.27209901600407,-1458.1780380329426,21217.387187706205,-13.206689606165245,-40,-360,0.0,0.0,0.0,0.0,0.0,0.0,0.0,0.0,800.0,-3.0,0.0
1.6520788669586182,105.23084033835273,-1531.7847605145619,833.0595147634622,-0.0725486491458274,-0.0015557426710940388,-1.7015460783620353,0.00011086463928222656,-1.6999540057256897,1,1,1,1,-0.10523084033835274,1.5317847605145618,-0.7330595147634622,-97.49140893718108,0.0,0.0,0.1,0.0,1,21228.30130477045,-13.613337093994419,-52.83787411155917,-1426.9695544931599,21228.30130477045,-13.613337093994419,-40,-360,,,,,,,,,,,
1.6567492485046387,105.22807458044345,-1531.8053321297482,833.1805879887096,-0.07150834729229193,-0.0024073434805614935,-1.702529083553804,9.822845458984375e-05,-1.7002430578763965,1,1,1,1,-0.10522807458044345,1.5318053321297482,-0.7331805879887096,-97.54773098590887,0.0,0.0,0.1,0.0,1,21171.813897071097,-12.61008422851678,-52.37782459910588,-1481.444664382273,21171.813897071097,-12.61008422851678,-40,-360,,,,,,,,,,,
1.661257266998291,105.06367999941455,-1531.8440251981006,833.2514756167438,-0.06822355144576794,0.000654459607054906,-1.7054282709915771,0.00029015541076660156,-1.7005157249462224,1,1,1,1,-0.10506367999941454,1.5318440251981005,-0.7332514756167439,-97.71384219011061,0.0,0.0,0.1,0.0,1,21369.5855558309,-11.79827185592582,-52.57859217336963,-1521.0410014301665,21369.5855558309,-11.79827185592582,-40,-360,0.0,0.0,0.0,0.0,0.0,0.0,0.0,0.0,800.0,1.0,-1.0
1.663912296295166,105.17526953218766,-1531.8888909939617,833.1702807216654,-0.06597315903484499,-0.004805438578652118,-1.7032032471050085,0.00011801719665527344,-1.7006732745164819,1,1,1,1,-0.10517526953218766,1.5318888909939616,-0.7331702807216655,-97.58635771209444,0.0,0.0,0.1,0.0,1,22284.881906909693,-13.46884880299395,-52.54459279633735,-1392.1506149782715,22284.881906909693,-13.46884880299395,-40,-360,,,,,,,,,,,
1.667492151260376,105.03945542949681,-1531.9271684803334,833.2930321204009,-0.05941924344048209,-0.003671842825495784,-1.705893201099829,9.822845458984375e-05,-1.700884034679985,1,1,1,1,-0.10503945542949682,1.5319271684803335,-0.7332930321204009,-97.740480723082,0.0,0.0,0.1,0.0,1,21016.713534586976,-11.740469042584401,-52.637318500611826,-1530.8806338399345,21016.713534586976,-11.740469042584401,-40,-360,,,,,,,,,,,
1.6705043315887451,105.31686795755091,-1531.9177033765216,833.4046945201446,-0.06321425968059947,-0.005353589811983334,-1.704675344526975,0.00021266937255859375,-1.7010612697337841,1,1,1,1,-0.10531686795755091,1.5319177033765217,-0.7334046945201447,-97.6707026814052,0.0,0.0,0.1,0.0,1,20960.104329588074,-14.517383818158118,-51.96949005565467,-1430.2905830710906,20960.104329588074,-14.517383818158118,-40,-360,0.0,0.0,0.0,0.0,0.0,0.0,0.0,0.0,800.0,5.0,2.0
1.6744022369384766,105.43654878104198,-1531.9827167892759,833.5352966399483,-0.062196307417239964,-0.004242762626471528,-1.7051713208708792,9.655952453613281e-05,-1.701291127586125,1,1,1,1,-0.10543654878104197,1.531982716789276,-0.7335352966399483,-97.69912003264925,0.0,0.0,0.1,0.0,1,21050.51337472775,-13.268514494564993,-52.567052747202204,-1476.4150715770525,21050.51337472775,-13.268514494564993,-40,-360,0.0,0.0,0.0,0.0,0.0,0.0,0.0,0.0,800.0,-5.0,7.0
1.6788153648376465,105.53048822444516,-1532.0271168088966,833.6725072511526,-0.06317072646329219,-0.0044559695727578305,-1.7061993463159402,9.894371032714844e-05,-1.7015563311893591,1,1,1,1,-0.10553048822444516,1.5320271168088966,-0.7336725072511526,-97.7580215518833,0.0,0.0,0.1,0.0,1,21076.61761169098,-13.10230038909533,-52.44130637240302,-1486.3884907692939,21076.61761169098,-13.10230038909533,-40,-360,,,,,,,,,,,
1.6810722351074219,105.39744809210094,-1532.1224177363995,833.8319540695609,-0.06088111149485522,0.0008298892218847668,-1.7091569584210358,7.939338684082031e-05,-1.7016958356620013,1,1,1,1,-0.10539744809210094,1.5321224177363995,-0.7338319540695609,-97.92748024294208,0.0,0.0,0.1,0.0,1,20359.151079707626,-11.531737831444378,-53.35480511874224,-1582.1869485032366,20359.151079707626,-11.531737831444378,-40,-360,,,,,,,,,,,
1.6832671165466309,105.34438573681358,-1532.2120449227075,833.9248227743593,-0.058879798931456256,0.0017313900191279921,-1.7061484776134233,7.486343383789062e-05,-1.7018349437336204,1,1,1,1,-0.10534438573681358,1.5322120449227075,-0.7339248227743593,-97.75510698991977,0.0,0.0,0.1,0.0,1,20904.396613659497,-12.336453880393863,-53.2166548194159,-1347.9337296340848,20904.396613659497,-12.336453880393863,-40,-360,,,,,,,,,,,
1.6886951923370361,105.52375007557312,-1532.1340334304778,833.9556162144918,-0.05597841493713035,0.003125710354802562,-1.6936193033679174,0.0002803802490234375,-1.7020824985979452,1,1,1,1,-0.10552375007557312,1.5321340334304778,-0.7339556162144918,-97.03723818486829,0.0,0.0,0.1,0.0,1,21504.253757107177,-12.82620917891103,-51.97993852931906,-1258.6093315051903,21504.253757107177,-12.82620917891103,-40,-360,0.0,0.0,0.0,0.0,0.0,0.0,0.0,0.0,820.0,5.0,-6.0
1.6915044784545898,105.58056682342117,-1532.3752520692276,834.2433002055566,-0.051267005774648565,0.00961110825316958,-1.6884043010820309,9.799003601074219e-05,-1.702164012743169,1,1,1,1,-0.10558056682342117,1.5323752520692275,-0.7342433002055566,-96.7384405637359,0.0,0.0,0.1,0.0,1,19831.645421124398,-12.325472578143199,-54.29362223308226,-1290.5958088778384,19831.645421124398,-12.325472578143199,-40,-360,,,,,,,,,,,
1.693772792816162,105.60124677458238,-1532.3975529820827,834.3210604071701,-0.053052441147259176,0.003978712248096533,-1.6871421046217747,7.963180541992188e-05,-1.7021928377163333,1,1,1,1,-0.10560124677458238,1.5323975529820828,-0.73432106040717,-96.66612203364687,0.0,0.0,0.1,0.0,1,20985.543766550105,-11.335294651839645,-52.78950155051996,-1401.788752843951,20985.543766550105,-11.335294651839645,-40,-360,,,,,,,,,,,
1.7009150981903076,105.57149991385015,-1532.4188194633077,834.4309716725476,-0.05332464808859182,0.003670839650513061,-1.68647376584864,8.678436279296875e-05,-1.7018574211772148,1,1,1,1,-0.10557149991385015,1.5324188194633077,-0.7344309716725476,-96.6278290426613,0.0,0.0,0.1,0.0,1,21336.750488592774,-9.059877120001815,-53.07807383306757,-1441.3878839836707,21336.750488592774,-9.059877120001815,-40,-360,,,,,,,,,,,
1.703120231628418,105.5575973748545,-1532.474601769378,834.6727706301069,-0.05263606141621969,0.006888316388675465,-1.6880923386167506,7.224082946777344e-05,-1.701712956948221,1,1,1,1,-0.1055575973748545,1.532474601769378,-0.7346727706301069,-96.72056643110885,0.0,0.0,0.1,0.0,1,19590.235620875577,-8.47757100850243,-53.68329575494643,-1513.4242078824561,19590.235620875577,-8.47757100850243,-40,-360,,,,,,,,,,,
1.708594560623169,105.52828649644496,-1532.250988084256,834.6650704662687,-0.055248977604767616,0.0008976482785540134,-1.689908630607273,0.00028061866760253906,-1.7011750362086646,1,1,1,1,-0.10552828649644497,1.532250988084256,-0.7346650704662687,-96.8246322965292,0.0,0.0,0.1,0.0,1,21567.318786286487,-7.177939708853516,-52.47758126108983,-1481.0126646646704,21567.318786286487,-7.177939708853516,-40,-360,0.0,0.0,0.0,0.0,0.0,0.0,0.0,0.0,820.0,-3.0,-3.0
1.7112452983856201,105.47957695825615,-1532.14555524584,835.1076127191627,-0.051184675770202935,0.012479223907666969,-1.6946865973561411,0.00010442733764648438,-1.7008814570833621,1,1,1,1,-0.10547957695825615,1.5321455552458398,-0.7351076127191627,-97.09838962589318,0.0,0.0,0.1,0.0,1,18383.33922909652,-6.518635019327559,-52.61923476536163,-1610.2692359743385,18383.33922909652,-6.518635019327559,-40,-360,,,,,,,,,,,
1.7135794162750244,105.49281612609728,-1532.30918713808,835.0853533063657,-0.05337266709082292,0.005779001851218056,-1.6876382741191533,8.249282836914062e-05,-1.7006027780333783,1,1,1,1,-0.10549281612609727,1.53230918713808,-0.7350853533063657,-96.6945504517698,0.0,0.0,0.1,0.0,1,21950.335364248036,-6.992061609671192,-54.99929202758797,-1188.5946381580843,21950.335364248036,-6.992061609671192,-40,-360,,,,,,,,,,,
1.7213728427886963,105.25296231868836,-1532.12855141325,834.9813373659849,-0.05416620021466276,-0.0010247724422637414,-1.6898586309345858,8.940696716308594e-05,-1.6995206474091595,1,1,1,1,-0.10525296231868836,1.53212855141325,-0.7349813373659849,-96.82176752630718,0.0,0.0,0.1,0.0,1,21832.270623894998,-5.2753134521581035,-53.204944203597314,-1476.798494393436,21832.270623894998,-5.2753134521581035,-40,-360,,,,,,,,,,,
1.7241902351379395,105.23694886743343,-1532.057575360907,835.11243485025,-0.05576490984739907,-0.0030171239934854276,-1.688903936765549,8.058547973632812e-05,-1.6991142978450235,1,1,1,1,-0.10523694886743343,1.5320575753609071,-0.73511243485025,-96.76706757969562,0.0,0.0,0.1,0.0,1,20682.861045775826,-5.604108206684142,-53.12525408092591,-1422.3488242258925,20682.861045775826,-5.604108206684142,-40,-360,0.0,0.0,0.0,0.0,0.0,0.0,0.0,0.0,815.0,0.0,0.0
1.72890305519104,105.068367710682,-1531.9997278497942,835.3130465943992,-0.05152996655467667,0.0022016960353577067,-1.6925029996416092,9.608268737792969e-05,-1.6984293975029081,1,1,1,1,-0.105068367710682,1.5319997278497943,-0.7353130465943992,-96.9732786926961,0.0,0.0,0.1,0.0,1,20782.338488298086,-4.929533028963879,-53.49458376704375,-1520.089747990317,20782.338488298086,-4.929533028963879,-40,-360,,,,,,,,,,,
1.731137752532959,104.95323345346924,-1531.9314639509012,835.4230307132234,-0.055500962696528836,0.003527402810364282,-1.6909443025246444,8.797645568847656e-05,-1.698103411654882,1,1,1,1,-0.10495323345346924,1.5319314639509012,-0.7354230307132233,-96.8839719263548,0.0,0.0,0.1,0.0,1,20623.442832959205,-4.539297025659657,-53.144580563113976,-1393.7898931482287,20623.442832959205,-4.539297025659657,-40,-360,,,,,,,,,,,
1.74049973487854,104.7996872952297,-1531.905938258939,835.5755286371165,-0.06032312736199243,0.0010395693334949582,-1.6888584249102347,0.0010914802551269531,-1.69679437572058,1,1,1,1,-0.1047996872952297,1.5319059382589388,-0.7355755286371165,-96.7644599424683,0.0,0.0,0.1,0.0,1,21287.986250729653,-5.433831955718639,-53.62190419896355,-1432.2729340557307,21287.986250729653,-5.433831955718639,-40,-360,0.0,0.0,0.0,0.0,0.0,0.0,0.0,0.0,815.0,8.0,1.0
1.749742031097412,104.7357682885643,-1531.9291520595682,835.6599521661609,-0.05691194925099684,0.005194417280631508,-1.689222770119934,0.006837606430053711,-1.6955845821306434,1,1,1,1,-0.1047357682885643,1.5319291520595681,-0.7356599521661609,-96.78533538526989,0.0,0.0,0.1,0.0,1,21429.95700020424,-5.8936730395966785,-53.65558104798718,-1455.1640438131537,21429.95700020424,-5.8936730395966785,-40,-360,0.0,0.0,0.0,0.0,0.0,0.0,0.0,0.0,815.0,-7.0,7.0
1.7598381042480469,104.59374894985726,-1531.9520350760322,835.7971270220597,-0.06137653700733296,0.0024731866696602266,-1.6916904717796446,0.008466243743896484,-1.6944899776873394,1,1,1,1,-0.10459374894985726,1.5319520350760323,-0.7357971270220597,-96.92672427546873,0.0,0.0,0.1,0.0,1,21333.925960800505,-6.40529199072035,-53.53466664783953,-1474.9088697427535,21333.925960800505,-6.40529199072035,-40,-360,,,,,,,,,,,
1.7699406147003174,104.44889446664277,-1531.9591115014177,835.8633872717879,-0.06574474644540877,-0.0038308639210718836,-1.6887987989420334,0.008606433868408203,-1.6935411701421437,1,1,1,1,-0.10444889446664277,1.5319591115014177,-0.7358633872717879,-96.76104362614099,0.0,0.0,0.1,0.0,1,21458.882695858403,-6.81116131113901,-53.416551496688164,-1426.7959771371748,21458.882695858403,-6.81116131113901,-40,-360,0.0,0.0,0.0,0.0,0.0,0.0,0.0,0.0,809.0,5.0,1.0
1.7796111106872559,104.37998096141364,-1531.9428080791804,835.9459525969389,-0.0659774508536986,-0.0017879235113082907,-1.68645762123511,0.0071947574615478516,-1.6926669714960674,1,1,1,1,-0.10437998096141364,1.5319428080791804,-0.735945952596939,-96.62690402444416,0.0,0.0,0.1,0.0,1,21412.84554582361,-7.032142712129081,-53.3280713486975,-1428.6200948213454,21412.84554582361,-7.032142712129081,-40,-360,,,,,,,,,,,
1.789839267730713,104.35500362261429,-1531.9498048623961,836.0768987731169,-0.07079611866620905,-0.003951843581983651,-1.6863909317624868,0.008535385131835938,-1.691767295710037,1,1,1,1,-0.1043550036226143,1.531949804862396,-0.7360768987731169,-96.6230829991249,0.0,0.0,0.1,0.0,1,21331.1985746859,-7.164539626329082,-53.359204042848596,-1448.7853795892956,21331.1985746859,-7.164539626329082,-40,-360,0.0,0.0,0.0,0.0,0.0,0.0,0.0,0.0,809.0,4.0,-4.0
1.7997562885284424,104.61243147923385,-1531.8482076172036,836.6148973608874,-0.061046942962816805,0.008164808381003476,-1.6918744495246072,0.007523775100708008,-1.6911162249283584,1,1,1,1,-0.10461243147923385,1.5318482076172035,-0.7366148973608875,-96.93726542377942,0.0,0.0,0.1,0.0,1,20500.7713528775,-8.45707997341049,-52.90929746548445,-1501.48945287888,20500.7713528775,-8.45707997341049,-40,-360,0.0,0.0,0.0,0.0,0.0,0.0,0.0,0.0,809.0,-4.0,0.0
1.8097610473632812,104.56805700968965,-1532.0224957096395,836.4217108257001,-0.057912344965815286,0.004439550661885544,-1.689984198692876,0.007380485534667969,-1.6906536252927764,1,1,1,1,-0.10456805700968966,1.5320224957096396,-0.7364217108257001,-96.82896202890014,0.0,0.0,0.1,0.0,1,21960.522636147718,-8.48033451170905,-53.47409580024331,-1436.1858065266545,21960.522636147718,-8.48033451170905,-40,-360,0.0,0.0,0.0,0.0,0.0,0.0,0.0,0.0,804.0,2.0,0.0
1.8201649188995361,104.47259807671445,-1531.9973084155297,836.4199910391944,-0.05781887726294729,-0.002366175149253751,-1.6989868662015641,0.007776975631713867,-1.6906609469444618,1,1,1,1,-0.10447259807671445,1.5319973084155296,-0.7364199910391944,-97.34477688150751,0.0,0.0,0.1,0.0,1,21549.0467817939,-9.860951459564864,-52.76516389076709,-1534.629068602349,21549.0467817939,-9.860951459564864,-40,-360,0.0,0.0,0.0,0.0,0.0,0.0,0.0,0.0,804.0,-2.0,3.0
1.8299999237060547,104.20802729535153,-1532.0531431500758,836.4009139689197,-0.06305308396356776,-0.007600244174553488,-1.6979430049680622,0.007536888122558594,-1.691040573252303,1,1,1,1,-0.10420802729535153,1.532053143150076,-0.7364009139689197,-97.28496803843053,0.0,0.0,0.1,0.0,1,21597.098947018036,-10.75184599769736,-52.74893612264611,-1450.1533516078798,21597.098947018036,-10.75184599769736,-40,-360,0.0,0.0,0.0,0.0,0.0,0.0,0.0,0.0,804.0,2.0,5.0
1.8394246101379395,104.25567871991267,-1532.007767022745,836.3405645005093,-0.05808102179547022,-0.005519419390545563,-1.6988402037239294,0.007643461227416992,-1.6916658757882947,1,1,1,1,-0.10425567871991266,1.532007767022745,-0.7363405645005093,-97.33637374052611,0.0,0.0,0.1,0.0,1,21669.032112664507,-12.354715094246664,-52.25817343032453,-1468.2234333781314,21669.032112664507,-12.354715094246664,-40,-360,0.0,0.0,0.0,0.0,0.0,0.0,0.0,0.0,825.0,0.0,-8.0
1.8499059677124023,104.62405487151791,-1531.7757131447056,836.3557013803759,-0.060014150702006004,-6.887989253415778e-05,-1.6903284895682678,0.00881814956665039,-1.6922276777908203,1,1,1,1,-0.10462405487151791,1.5317757131447056,-0.7363557013803759,-96.84868844298494,0.0,0.0,0.1,0.0,1,21488.084018370388,-12.582636943666415,-51.86860640269036,-1382.9243797155477,21488.084018370388,-12.582636943666415,-40,-360,0.0,0.0,0.0,0.0,0.0,0.0,0.0,0.0,825.0,-2.0,1.0
1.8597674369812012,104.59542719976365,-1531.8830298407102,836.4499560854852,-0.059190268296533774,0.00552433187924147,-1.6900850984990394,0.0066928863525390625,-1.6925218304820202,1,1,1,1,-0.10459542719976365,1.5318830298407102,-0.7364499560854851,-96.83474316194699,0.0,0.0,0.1,0.0,1,21389.757571226208,-11.08605490330947,-52.82923600357244,-1450.4004319024377,21389.757571226208,-11.08605490330947,-40,-360,0.0,0.0,0.0,0.0,0.0,0.0,0.0,0.0,825.0,1.0,-1.0
1.8704240322113037,104.61422066593228,-1531.8962424677422,836.4872953902104,-0.0646112787740343,0.0014522124079193155,-1.686956598804322,0.008625030517578125,-1.6924627524964015,1,1,1,1,-0.10461422066593228,1.5318962424677423,-0.7364872953902104,-96.6554933332317,0.0,0.0,0.1,0.0,1,21485.964347348527,-10.002029343634085,-52.83235401910487,-1424.6994096401204,21485.964347348527,-10.002029343634085,-40,-360,0.0,0.0,0.0,0.0,0.0,0.0,0.0,0.0,825.0,-1.0,1.0
1.8811075687408447,104.65455024055106,-1531.7260107055233,836.3914677855648,-0.06902825442314704,-0.0016092475671713848,-1.6855909550855848,0.007867574691772461,-1.6920465494436971,1,1,1,1,-0.10465455024055106,1.5317260107055233,-0.7363914677855649,-96.57724771182951,0.0,0.0,0.1,0.0,1,21694.0933508135,-8.883439013734943,-52.66517624786914,-1437.6543816158683,21694.0933508135,-8.883439013734943,-40,-360,,,,,,,,,,,
1.8898029327392578,104.57603920001287,-1531.860950601778,836.471293659806,-0.06234623423714498,0.0033279370394551496,-1.6887476900327116,0.00715947151184082,-1.6916108492779096,1,1,1,1,-0.10457603920001288,1.5318609506017782,-0.7364712936598059,-96.75811530134133,0.0,0.0,0.1,0.0,1,21410.580601454687,-8.301743166357454,-53.455118928392984,-1482.5698564390123,21410.580601454687,-8.301743166357454,-40,-360,0.0,0.0,0.0,0.0,0.0,0.0,0.0,0.0,798.0,2.0,-4.0
1.9007291793823242,104.62011257240272,-1531.8111283604833,836.4866948923167,-0.06432972401268616,0.001117926616862173,-1.6843778652836234,0.009297847747802734,-1.6908774495758943,1,1,1,1,-0.10462011257240272,1.5318111283604834,-0.7364866948923167,-96.50774278600677,0.0,0.0,0.1,0.0,1,21519.951216370904,-7.939237562200454,-53.098785252989956,-1413.2986396913082,21519.951216370904,-7.939237562200454,-40,-360,0.0,0.0,0.0,0.0,0.0,0.0,0.0,0.0,798.0,0.0,4.0
1.910614252090454,104.40842105245832,-1531.630158831619,836.1853321395529,-0.06742358141177991,-0.0026362813838024936,-1.686341805747497,0.007128238677978516,-1.6901815977253491,1,1,1,1,-0.10440842105245832,1.531630158831619,-0.7361853321395528,-96.62026828580169,0.0,0.0,0.1,0.0,1,22110.8352760747,-7.1868908455790725,-52.889806912405746,-1466.4643498436294,22110.8352760747,-7.1868908455790725,-40,-360,0.0,0.0,0.0,0.0,0.0,0.0,0.0,0.0,829.0,-2.0,-3.0
1.9193954467773438,104.37547761263971,-1531.5729388593813,836.0977401798517,-0.06365983062252364,-0.0011142985969236755,-1.6884757364244523,0.006894111633300781,-1.689637023912703,1,1,1,1,-0.10437547761263971,1.5315729388593813,-0.7360977401798517,-96.74253350736473,0.0,0.0,0.1,0.0,1,21743.849391808246,-7.856062666078088,-53.04745288232714,-1472.0159274230352,21743.849391808246,-7.856062666078088,-40,-360,0.0,0.0,0.0,0.0,0.0,0.0,0.0,0.0,829.0,-1.0,0.0
1.9303598403930664,104.37421789242457,-1531.4431255033508,835.9969904407528,-0.06548426397966994,-0.0015180626867010538,-1.6845740569480603,0.008818864822387695,-1.6889717642695077,1,1,1,1,-0.10437421789242457,1.5314431255033507,-0.7359969904407528,-96.51898374035464,0.0,0.0,0.1,0.0,1,21720.850527100705,-7.9282036084327325,-52.91601750876068,-1417.1990410097605,21720.850527100705,-7.9282036084327325,-40,-360,0.0,0.0,0.0,0.0,0.0,0.0,0.0,0.0,829.0,1.0,0.0
1.9398777484893799,104.36961976574183,-1531.3360219840195,835.9463761671894,-0.06525354664005197,-0.0032320996410290055,-1.683523502479961,0.00713348388671875,-1.6883660169484336,1,1,1,1,-0.10436961976574183,1.5313360219840195,-0.7359463761671894,-96.45879140318395,0.0,0.0,0.1,0.0,1,21650.183921624324,-7.791873497903579,-52.94888683911139,-1437.3952245674725,21650.183921624324,-7.791873497903579,-40,-360,0.0,0.0,0.0,0.0,0.0,0.0,0.0,0.0,830.0,-2.0,0.0
1.9496686458587646,104.81009307236872,-1531.1860955897969,836.1360107675401,-0.040269914789016356,-0.01372094672397149,-1.685299311405084,0.008048534393310547,-1.6877837059317204,1,1,1,1,-0.10481009307236872,1.531186095589797,-0.7361360107675401,-96.56053775981516,0.0,0.0,0.1,0.0,1,21167.44154733485,-8.882491850330675,-52.71810552475133,-1463.9933103751587,21167.44154733485,-8.882491850330675,-40,-360,0.0,0.0,0.0,0.0,0.0,0.0,0.0,0.0,830.0,0.0,4.0
1.9606528282165527,104.93619714235734,-1531.059856821659,836.0849375727821,-0.03883404573506567,-0.015633105201788868,-1.6842703213221906,0.008945465087890625,-1.6871804462842852,1,1,1,1,-0.10493619714235734,1.531059856821659,-0.7360849375727821,-96.50158097090454,0.0,0.0,0.1,0.0,1,21630.807673581123,-8.29284514977882,-52.85789963585787,-1439.4816521796715,21630.807673581123,-8.29284514977882,-40,-360,0.0,0.0,0.0,0.0,0.0,0.0,0.0,0.0,830.0,1.0,-5.0
1.9694712162017822,104.68125696146926,-1531.0073907663884,835.7924482237161,-0.0534254315102323,0.0025156049236614024,-1.6903311807011288,0.0057544708251953125,-1.6868914336871854,1,1,1,1,-0.10468125696146927,1.5310073907663884,-0.735792448223716,-96.84884263353999,0.0,0.0,0.1,0.0,1,22190.507575804324,-8.133255092610643,-52.94516720227444,-1511.8750956076383,22190.507575804324,-8.133255092610643,-40,-360,0.0,0.0,0.0,0.0,0.0,0.0,0.0,0.0,830.0,-1.0,4.0
1.981257438659668,104.75933022109135,-1530.7776090358827,835.5640616313275,-0.06079544720122091,-0.0015379155385183867,-1.6867963529682954,0.008556842803955078,-1.6867057831380334,1,1,1,1,-0.10475933022109135,1.5307776090358827,-0.7355640616313275,-96.64631192314285,0.0,0.0,0.1,0.0,1,21906.406810683442,-9.416333389268024,-52.45355202090512,-1423.9675537237306,21906.406810683442,-9.416333389268024,-40,-360,,,,,,,,,,,
1.9905321598052979,104.56413886002636,-1530.7449816711244,835.4580235489501,-0.055015157721070934,-0.0019379875150185466,-1.6984587965992535,0.007676601409912109,-1.686971710870218,1,1,1,1,-0.10456413886002636,1.5307449816711243,-0.7354580235489501,-97.31452072200597,0.0,0.0,0.1,0.0,1,21788.170818700622,-10.321682962858297,-52.59217233315263,-1568.1467352306922,21788.170818700622,-10.321682962858297,-40,-360,0.0,0.0,0.0,0.0,0.0,0.0,0.0,0.0,803.0,0.0,0.0
1.9997949600219727,104.70708277668868,-1530.6084353149513,835.4425944579082,-0.04765114516664645,-0.0002216051759828881,-1.6952347669851802,0.005846500396728516,-1.6875550760455815,1,1,1,1,-0.10470708277668868,1.5306084353149514,-0.7354425944579082,-97.12979743209438,0.0,0.0,0.1,0.0,1,21586.287355692475,-12.227093298199609,-52.04101540161827,-1427.1620246390055,21586.287355692475,-12.227093298199609,-40,-360,0.0,0.0,0.0,0.0,0.0,0.0,0.0,0.0,803.0,-1.0,2.0
2.0097293853759766,104.97296736329112,-1530.2549040510196,835.2109391811687,-0.0525887459633977,-0.0012330642055317928,-1.690535459627326,0.006490230560302734,-1.688236909336585,1,1,1,1,-0.10497296736329112,1.5302549040510196,-0.7352109391811686,-96.86054695385455,0.0,0.0,0.1,0.0,1,21966.288304459522,-12.66490610235069,-51.49946755357222,-1412.126810479882,21966.288304459522,-12.66490610235069,-40,-360,0.0,0.0,0.0,0.0,0.0,0.0,0.0,0.0,803.0,0.0,-1.0
2.020054817199707,104.75882061944709,-1529.6801668303094,834.8141422820056,-0.058365316086783574,-0.00943626988542271,-1.6950300400874851,0.00713658332824707,-1.6890298128583683,1,1,1,1,-0.1047588206194471,1.5296801668303095,-0.7348141422820056,-97.11806744490364,0.0,0.0,0.1,0.0,1,22212.7376634013,-11.87881647943669,-51.11252852415872,-1494.1850805478796,22212.7376634013,-11.87881647943669,-40,-360,,,,,,,,,,,
2.030116319656372,105.09708766902202,-1529.4525252279986,834.9114649914521,-0.05441280006066832,-0.0004791606318642874,-1.694662876506038,0.008573293685913086,-1.6898270261745973,1,1,1,1,-0.10509708766902201,1.5294525252279987,-0.7349114649914521,-97.09703052129582,0.0,0.0,0.1,0.0,1,21374.565857292066,-13.268775871491565,-51.649860195106946,-1453.315860152344,21374.565857292066,-13.268775871491565,-40,-360,0.0,0.0,0.0,0.0,0.0,0.0,0.0,0.0,816.0,-1.0,-6.0
2.0399389266967773,105.17032454711206,-1529.0568173224265,834.7962714456346,-0.047936587211401926,0.0008775340785347484,-1.6952860697462608,0.0056607723236083984,-1.6906038791918232,1,1,1,1,-0.10517032454711206,1.5290568173224264,-0.7347962714456346,-97.13273686378166,0.0,0.0,0.1,0.0,1,21741.940390140575,-12.685875784525566,-51.31768205352407,-1462.4300012818,21741.940390140575,-12.685875784525566,-40,-360,0.0,0.0,0.0,0.0,0.0,0.0,0.0,0.0,816.0,-1.0,0.0
2.049233913421631,105.08520702773164,-1528.3407504832726,834.3779751918378,-0.05476150246746004,-0.0032296162403302755,-1.6881506461466051,0.007588863372802734,-1.691101556188451,1,1,1,1,-0.10508520702773164,1.5283407504832727,-0.7343779751918378,-96.72390720648335,0.0,0.0,0.1,0.0,1,22304.5972631093,-11.42362447970143,-50.69212076998093,-1384.81840576626,22304.5972631093,-11.42362447970143,-40,-360,0.0,0.0,0.0,0.0,0.0,0.0,0.0,0.0,816.0,0.0,0.0
2.060387372970581,105.07898159192317,-1528.073741364344,834.2775664389029,-0.05645677277156088,-0.004233246906634409,-1.6968433877398676,0.00960683822631836,-1.691677611736446,1,1,1,1,-0.10507898159192317,1.528073741364344,-0.734277566438903,-97.22196461217511,0.0,0.0,0.1,0.0,1,21733.723010466256,-11.712284563839596,-51.81137633532755,-1525.3334090830651,21733.723010466256,-11.712284563839596,-40,-360,,,,,,,,,,,
2.0699708461761475,105.08403797243122,-1527.6422838453511,834.0629631666498,-0.06384863677286982,-0.005499302999724728,-1.70168803501841,0.008138656616210938,-1.6923622630304838,1,1,1,1,-0.10508403797243122,1.5276422838453512,-0.7340629631666498,-97.49954245446513,0.0,0.0,0.1,0.0,1,21951.82394694249,-12.35499056878107,-51.210319210064796,-1505.8531721070397,21951.82394694249,-12.35499056878107,-40,-360,0.0,0.0,0.0,0.0,0.0,0.0,0.0,0.0,806.0,-2.0,2.0
