time,x_pos,y_pos,z_pos,x_rot,y_rot,z_rot,delta_time,z_filtered,x_pos_est,y_pos_est,z_pos_est,z_rot_est,x_error,y_error,z_error,yaw_error,x_setpoint,y_setpoint,z_setpoint,yaw_setpoint,vicon_available,thrust_cal,pitch_cal,roll_cal,yaw_cal,thrust_lim,pitch_lim,roll_lim,yaw_lim,gyro_x,gyro_y,acc_x,acc_y,acc_z,stateEstimate_az,stateEstimate_vz,stateEstimate_yaw,range_zrange,motion_deltaX,motion_deltaY
1.313568353652954,-43.04444533972856,55.80987725110631,59.45246702579575,0.06267749026981018,-0.07787605862466702,-1.517361809512867,0.0004987716674804688,-1.380695488226962,-43.04444533972856,55.80987725110631,0.06891654483297316,-1.517361809512867,0.04304444533972856,-0.05580987725110631,0.9405475329742042,3.0615723205791596,0.0,0.0,1.0,5156.620156177409,1,-9644762.139077,385.26937588599253,761.7355257586376,2591.753289506239,10000,40,40,360,-0.09674072265625,-0.0654296875,0.0007181167602539062,-0.0074005126953125,1.0,0.0028858184814453125,0.055694580078125,-0.070068359375,0.0,0.0,0.0
1.3161532878875732,-43.01761681405608,55.74573110189313,59.3690934634522,0.0581479879229834,-0.07003063813229743,-1.5202240835202914,0.0002295970916748047,-1.3842532870322168,-43.04444533972856,55.80987725110631,0.06891654483297316,-1.517361809512867,0.04301761681405608,-0.055745731101893126,0.9406309065365479,2.8975761001437377,0.0,0.0,1.0,5156.620156177409,1,70427.78115637509,3.8233482551163696,-0.15008322011945063,-103.42915534234251,65535,3.8233482551163696,-0.15008322011945063,-103.42915534234251,,,,,,,,,,,
1.3185653686523438,-42.93433296823431,55.73966989735772,59.40060001510975,0.05797713154802199,-0.06465487236543584,-1.523614625222245,7.152557373046875e-05,-1.3893370772985307,-43.04444533972856,55.80987725110631,0.06891654483297316,-1.517361809512867,0.04293433296823431,-0.05573966989735772,0.9405993999848903,2.7033123703587023,0.0,0.0,1.0,5156.620156177409,1,69347.45614426195,3.269591052174797,0.5300019662571893,-80.49633884181065,65535,3.269591052174797,0.5300019662571893,-80.49633884181065,,,,,,,,,,,
1.3206605911254883,-42.90671265379241,55.767567302633296,59.24158695861204,0.04961765456555456,-0.05336543777586257,-1.5236334361792012,7.414817810058594e-05,-1.3937674399426907,-43.04444533972856,55.80987725110631,0.06891654483297316,-1.517361809512867,0.04290671265379241,-0.0557675673026333,0.940758413041388,2.7022345819164997,0.0,0.0,1.0,5156.620156177409,1,70875.7040273944,3.6713557148628055,0.9366656546984387,39.76129932760566,65535,3.6713557148628055,0.9366656546984387,39.76129932760566,,,,,,,,,,,
1.3235516548156738,-42.996879838911,55.741241162025226,59.36040073539961,0.05519912118253292,-0.06969744087275612,-1.5201729483770534,5.555152893066406e-05,-1.4013171190765255,-42.996879838911,55.741241162025226,0.06612820516284046,-1.5201729483770534,0.042996879838911,-0.055741241162025223,0.9406395992646004,2.9005059280360683,0.0,0.0,1.0,5156.620156177409,1,69033.04046232658,4.5819293473903695,0.6137492592343152,126.76297503627465,65535,4.5819293473903695,0.6137492592343152,126.76297503627465,0.035125732421875,-0.159912109375,0.0007786750793457031,-0.00626373291015625,1.0,0.0021076202392578125,0.040435791015625,-0.0701904296875,0.0,0.0,0.0
1.3284428119659424,-42.932942177853704,55.76302031757868,59.38099164895322,0.05684008962931154,-0.06305521673968102,-1.5222686204659035,8.940696716308594e-05,-1.4102161004946696,-42.996879838911,55.741241162025226,0.06612820516284046,-1.5201729483770534,0.042932942177853706,-0.05576302031757868,0.9406190083510467,2.780432762101597,0.0,0.0,1.0,5156.620156177409,1,69495.41774232703,3.6720507289217643,0.7002563108708209,-1.0604379308755085,65535,3.6720507289217643,0.7002563108708209,-1.0604379308755085,,,,,,,,,,,
1.3305997848510742,-42.950310616952024,55.75587440612141,59.373571868066904,0.0530451665841853,-0.06114570920838962,-1.5241381678524442,7.343292236328125e-05,-1.4147324616135801,-42.996879838911,55.741241162025226,0.06612820516284046,-1.5201729483770534,0.04295031061695202,-0.055755874406121404,0.9406264281319332,2.6733155872531,0.0,0.0,1.0,5156.620156177409,1,69647.24387406945,4.170365533354504,0.5931046114557901,-34.28470243884439,65535,4.170365533354504,0.5931046114557901,-34.28470243884439,,,,,,,,,,,
1.3335201740264893,-43.00611030961394,55.76514754528639,59.420033977432915,0.06069451417255823,-0.07508808643684402,-1.5187592742202152,5.650520324707031e-05,-1.4221285561117436,-43.00611030961394,55.76514754528639,0.06294465111338922,-1.5187592742202152,0.04300611030961394,-0.055765147545286387,0.9405799660225671,2.981503490829624,0.0,0.0,1.0,5156.620156177409,1,69370.3552067627,4.279046359315491,0.7399115878478091,173.40257858250965,65535,4.279046359315491,0.7399115878478091,173.40257858250965,0.310302734375,0.202392578125,0.00342559814453125,-0.005229949951171875,1.0009765625,0.0036487579345703125,0.012969970703125,-0.07269287109375,0.0,0.0,0.0
1.33786940574646,-43.0114409936261,55.78392602189271,59.405954051661524,0.05845998709592126,-0.0713744873343843,-1.5197313962303367,7.128715515136719e-05,-1.4295246214631128,-43.00611030961394,55.76514754528639,0.06294465111338922,-1.5187592742202152,0.0430114409936261,-0.05578392602189271,0.9405940459483385,2.9258050024778868,0.0,0.0,1.0,5156.620156177409,1,69648.06725087904,3.9123800744400046,0.7520645777236463,21.14552213097921,65535,3.9123800744400046,0.7520645777236463,21.14552213097921,,,,,,,,,,,
1.3416025638580322,-43.02075874413459,55.77175678477057,59.35456667938328,0.05701254956860174,-0.06986728022550236,-1.5195070350962057,7.343292236328125e-05,-1.4367796508260369,-43.00611030961394,55.76514754528639,0.06294465111338922,-1.5187592742202152,0.043020758744134587,-0.05577175678477057,0.9406454333206167,2.9386599485503524,0.0,0.0,1.0,5156.620156177409,1,69817.06894598521,3.8724886537861662,0.599789412754383,49.24276725234021,65535,3.8724886537861662,0.599789412754383,49.24276725234021,,,,,,,,,,,
1.3494846820831299,-43.05700756159971,55.791318153234485,59.43464328985296,0.06208753097699594,-0.07734644133929063,-1.5183093384978956,5.8650970458984375e-05,-1.4526557450967061,-43.05700756159971,55.791318153234485,0.05999403079404259,-1.5183093384978956,0.04305700756159971,-0.05579131815323449,0.9405653567101471,3.007282908770705,0.0,0.0,1.0,5156.620156177409,1,69424.30010283811,3.7117358935409492,0.7872924632508831,56.731984567760925,65535,3.7117358935409492,0.7872924632508831,56.731984567760925,2.279296875,2.1953125,-0.00016260147094726562,-0.0026397705078125,1.00390625,0.00453948974609375,0.012969970703125,-0.076416015625,0.0,0.0,0.0
1.3519649505615234,-42.94205836598996,55.73736187262542,59.36561652595514,0.055458576006803394,-0.06450260503176662,-1.5223346805574824,7.557868957519531e-05,-1.4551804249898426,-43.05700756159971,55.791318153234485,0.05999403079404259,-1.5183093384978956,0.04294205836598996,-0.05573736187262542,0.9406343834740448,2.7766477976598765,0.0,0.0,1.0,5156.620156177409,1,70329.40499663378,1.9090646924753005,-0.1663227300445791,-187.6172531107676,65535,1.9090646924753005,-0.1663227300445791,-187.6172531107676,,,,,,,,,,,
1.3541467189788818,-43.0246581302931,55.77057715437484,59.38862504647941,0.05789622951703909,-0.07218335457111795,-1.5192184444948797,5.221366882324219e-05,-1.458678214782667,-43.05700756159971,55.791318153234485,0.05999403079404259,-1.5183093384978956,0.043024658130293096,-0.05577057715437484,0.9406113749535205,2.955194972013473,0.0,0.0,1.0,5156.620156177409,1,69410.82862472543,4.17712377661449,1.257593025224288,168.09629075142075,65535,4.17712377661449,1.257593025224288,168.09629075142075,,,,,,,,,,,
1.3593926429748535,-42.99039477051712,55.76971434951515,59.232269574859345,0.05184194787799362,-0.06361092730660046,-1.5202338551790167,6.628036499023438e-05,-1.4675594123361533,-42.99039477051712,55.76971434951515,0.05703687014142013,-1.5202338551790167,0.042990394770517124,-0.05576971434951515,0.9407677304251406,2.8970162253399394,0.0,0.0,1.0,5156.620156177409,1,70020.9996743681,3.1190106647379228,0.8883068320938865,28.779447508574997,65535,3.1190106647379228,0.8883068320938865,28.779447508574997,-0.291748046875,-1.787109375,-0.00661468505859375,-0.006465911865234375,1.0029296875,0.005352020263671875,0.00457763671875,-0.080322265625,0.0,0.0,0.0
1.3628745079040527,-43.007572684850665,55.755430298834575,59.340450070140086,0.05408852302210748,-0.07021285640853413,-1.5196925227364761,6.985664367675781e-05,-1.4722632609373687,-43.007572684850665,55.755430298834575,0.0542008858936416,-1.5196925227364761,0.04300757268485066,-0.05575543029883458,0.94065954992986,2.9280322896110107,0.0,0.0,1.0,5156.620156177409,1,69037.79134651842,3.1946221431616193,0.9102457630457561,57.42752412090892,65535,3.1946221431616193,0.9102457630457561,57.42752412090892,1.8330078125,0.219970703125,-0.00838470458984375,-0.017120361328125,1.005859375,-0.0006380081176757812,0.00457763671875,-0.0784912109375,0.0,0.0,0.0
1.3677308559417725,-42.9756968154036,55.78108999154218,59.26007060702787,0.055231735085743874,-0.0639688112669817,-1.5190697732478278,7.390975952148438e-05,-1.477567590247244,-43.007572684850665,55.755430298834575,0.0542008858936416,-1.5196925227364761,0.0429756968154036,-0.05578108999154218,0.9407399293929721,2.9637132070045027,0.0,0.0,1.0,5156.620156177409,1,69893.97414379129,2.7696745369099123,1.1758122513885672,57.170068393965906,65535,2.7696745369099123,1.1758122513885672,57.170068393965906,,,,,,,,,,,
1.3699822425842285,-42.951254807940096,55.83276232934616,59.409944743408374,0.05892892589396649,-0.06562622721249403,-1.5204609383419898,5.602836608886719e-05,-1.4801922190489074,-43.007572684850665,55.755430298834575,0.0542008858936416,-1.5196925227364761,0.0429512548079401,-0.05583276232934616,0.9405900552565917,2.8840053185030996,0.0,0.0,1.0,5156.620156177409,1,68425.44058535913,2.553554962951784,1.600454185019636,-10.202465356726798,65535,2.553554962951784,1.600454185019636,-10.202465356726798,,,,,,,,,,,
1.3721156120300293,-43.011648834110616,55.774208192876976,59.381260523986015,0.058692379049467135,-0.07402725398010351,-1.5192082049533213,5.125999450683594e-05,-1.4825632530973174,-43.007572684850665,55.755430298834575,0.0542008858936416,-1.5196925227364761,0.04301164883411061,-0.05577420819287698,0.9406187394760139,2.95578165452892,0.0,0.0,1.0,5156.620156177409,1,69802.65954991923,3.4279534484573615,0.625060805004559,94.86007007947592,65535,3.4279534484573615,0.625060805004559,94.86007007947592,,,,,,,,,,,
1.3771905899047852,-42.985396494662055,55.800988255276046,59.26238790834114,0.05349204627401062,-0.06187015649022554,-1.5191401544943592,5.364418029785156e-05,-1.488661875231295,-42.985396494662055,55.800988255276046,0.05145979235024075,-1.5191401544943592,0.042985396494662056,-0.055800988255276046,0.9407376120916588,2.95968065862138,0.0,0.0,1.0,5156.620156177409,1,69900.55638545859,2.5325255588546396,1.3248477253355562,45.36105020893459,65535,2.5325255588546396,1.3248477253355562,45.36105020893459,-0.13134765625,-0.79150390625,0.0022430419921875,-0.005207061767578125,1.0,0.0024242401123046875,-0.002288818359375,-0.08306884765625,0.0,0.0,0.0
1.3796541690826416,-42.9746427620533,55.80910796186618,59.23584575618692,0.052561740618808625,-0.06355805681820598,-1.5200343128121776,7.295608520507812e-05,-1.4900597842694885,-42.985396494662055,55.800988255276046,0.05145979235024075,-1.5191401544943592,0.0429746427620533,-0.05580910796186618,0.9407641542438131,2.9084491607938645,0.0,0.0,1.0,5156.620156177409,1,69863.03673340277,2.3581177459168545,1.4069577039296808,-6.949241624010831,65535,2.3581177459168545,1.4069577039296808,-6.949241624010831,,,,,,,,,,,
1.3817956447601318,-42.90704151052522,55.78000416924656,59.27026068938709,0.050628787780584945,-0.05510957198717073,-1.5236264204060195,5.7220458984375e-05,-1.4919080144822208,-42.985396494662055,55.800988255276046,0.05145979235024075,-1.5191401544943592,0.04290704151052522,-0.05578000416924656,0.9407297393106129,2.7026365561098373,0.0,0.0,1.0,5156.620156177409,1,69278.54306501267,1.7962965160173092,0.9814814920156989,-105.83858263449429,65535,1.7962965160173092,0.9814814920156989,-105.83858263449429,,,,,,,,,,,
1.3872010707855225,-42.93751975075489,55.740438805731145,59.387042929084345,0.05492809741748574,-0.06338681695949974,-1.5238801595748621,6.532669067382812e-05,-1.4968851506064436,-42.93751975075489,55.740438805731145,0.04886504861081153,-1.5238801595748621,0.04293751975075489,-0.055740438805731145,0.9406129570709156,2.6880983726379952,0.0,0.0,1.0,5156.620156177409,1,69248.43442563378,2.4732253407252536,1.2722349937792818,36.87939747896812,65535,2.4732253407252536,1.2722349937792818,36.87939747896812,2.46484375,0.9208984375,-0.009979248046875,0.013641357421875,1.0048828125,0.0189361572265625,-0.002288818359375,-0.0762939453125,0.0,0.0,0.0
1.3896212577819824,-42.95198345784721,55.71822813070738,59.36700219275905,0.054129223106156345,-0.06480865811534371,-1.5239401000970214,7.605552673339844e-05,-1.4979588930815684,-42.93751975075489,55.740438805731145,0.04886504861081153,-1.5238801595748621,0.04295198345784721,-0.055718228130707384,0.940632997807241,2.68466403369645,0.0,0.0,1.0,5156.620156177409,1,69788.76369842132,2.498348957784522,1.149667637572505,36.84299899239049,65535,2.498348957784522,1.149667637572505,36.84299899239049,,,,,,,,,,,
1.3922924995422363,-42.95563256878732,55.78801911124479,59.22418858191316,0.051912239006863224,-0.06260929976702746,-1.519971649885608,0.0003714561462402344,-1.499767402540026,-42.93751975075489,55.740438805731145,0.04886504861081153,-1.5238801595748621,0.04295563256878732,-0.05578801911124479,0.9407758114180869,2.912039482018244,0.0,0.0,1.0,5156.620156177409,1,70478.3456261683,2.2109489645988747,2.0514197601093325,171.17815271127563,65535,2.2109489645988747,2.0514197601093325,171.17815271127563,,,,,,,,,,,
1.3974721431732178,-43.010407199366156,55.75855964196708,59.39338870062349,0.058453028433108824,-0.072098180983673,-1.5195404841322757,6.437301635742188e-05,-1.503439426588942,-43.010407199366156,55.75855964196708,0.046660038972236556,-1.5195404841322757,0.043010407199366156,-0.05575855964196708,0.9406066112993765,2.9367434599547693,0.0,0.0,1.0,5156.620156177409,1,69087.97950310363,2.341476614208601,1.4454783608260762,50.146927489101486,65535,2.341476614208601,1.4454783608260762,50.146927489101486,0.560546875,-0.069580078125,-0.00838470458984375,-0.03326416015625,1.0009765625,0.003322601318359375,0.0244140625,-0.0789794921875,0.0,0.0,0.0
1.3998785018920898,-42.93576357115884,55.769790007934354,59.3653432935227,0.05450186811834732,-0.061425248911243326,-1.5230573372707383,7.343292236328125e-05,-1.5042627744716863,-43.010407199366156,55.75855964196708,0.046660038972236556,-1.5195404841322757,0.04293576357115884,-0.055769790007934354,0.9406346567064773,2.735242617953517,0.0,0.0,1.0,5156.620156177409,1,69870.04191522018,0.9789174791078614,1.6712140317122839,-160.4868084200677,65535,0.9789174791078614,1.6712140317122839,-160.4868084200677,,,,,,,,,,,
1.4020254611968994,-42.95388025558975,55.756858400387095,59.37823814413856,0.053056514256779326,-0.06422938135859148,-1.5235987953917662,5.269050598144531e-05,-1.5053703061328778,-43.010407199366156,55.75855964196708,0.046660038972236556,-1.5195404841322757,0.04295388025558975,-0.0557568584003871,0.9406217618558614,2.704219352835537,0.0,0.0,1.0,5156.620156177409,1,69457.77908938735,2.224147956655267,1.4851191057306035,18.743110586987207,65535,2.224147956655267,1.4851191057306035,18.743110586987207,,,,,,,,,,,
1.4072916507720947,-43.00674038042755,55.75023349714802,59.331785743017235,0.05495852836719232,-0.0701575306333083,-1.5203788087801675,6.890296936035156e-05,-1.5081303379086601,-43.00674038042755,55.75023349714802,0.04454474240659023,-1.5203788087801675,0.04300674038042755,-0.05575023349714801,0.9406682142569828,2.8887109957687755,0.0,0.0,1.0,5156.620156177409,1,69695.03111057804,2.160869040312457,1.6346231525027963,89.77065268887947,65535,2.160869040312457,1.6346231525027963,89.77065268887947,3.61328125,2.58984375,0.005664825439453125,-0.018157958984375,0.98193359375,-0.0115509033203125,0.023651123046875,-0.1146240234375,0.0,0.0,0.0
1.410022497177124,-43.02945489767741,55.77453732494711,59.36539738479715,0.057142954909851607,-0.07071388660245827,-1.519650475770658,7.176399230957031e-05,-1.5089832199135784,-43.00674038042755,55.75023349714802,0.04454474240659023,-1.5203788087801675,0.04302945489767741,-0.05577453732494711,0.9406346026152029,2.9304414032937274,0.0,0.0,1.0,5156.620156177409,1,69285.86865050331,2.131347359822777,1.957023491856864,74.43549530124052,65535,2.131347359822777,1.957023491856864,74.43549530124052,,,,,,,,,,,
1.4130258560180664,-42.97763389319325,55.81126248063454,59.20117430482994,0.05348233182012454,-0.06300219994866474,-1.5193370931152668,7.128715515136719e-05,-1.5103997229048185,-42.97763389319325,55.81126248063454,0.04244927489773182,-1.5193370931152668,0.04297763389319325,-0.05581126248063454,0.94079882569517,2.94839690682025,0.0,0.0,1.0,5156.620156177409,1,70311.57243056843,1.550161924514697,1.909831285194965,51.445628964671016,65535,1.550161924514697,1.909831285194965,51.445628964671016,10.9296875,11.375,0.033843994140625,0.006427764892578125,1.0234375,0.0258636474609375,0.023651123046875,-0.13330078125,0.0,0.0,0.0
1.4174611568450928,-43.00595688856242,55.78360370346924,59.33384666073643,0.05403776722741135,-0.06707883389862823,-1.5193913708264883,7.104873657226562e-05,-1.5116564252420208,-42.97763389319325,55.81126248063454,0.04244927489773182,-1.5193370931152668,0.04300595688856242,-0.05578360370346924,0.9406661533392636,2.9452870230456227,0.0,0.0,1.0,5156.620156177409,1,68951.71258608568,1.990914249038752,1.5950985286642163,42.92106116991713,65535,1.990914249038752,1.5950985286642163,42.92106116991713,,,,,,,,,,,
1.4195847511291504,-43.02708552648812,55.7573870195277,59.38308069443882,0.058812999227942954,-0.0714465974405291,-1.5194600358756356,7.200241088867188e-05,-1.5123088812717518,-42.97763389319325,55.81126248063454,0.04244927489773182,-1.5193370931152668,0.043027085526488124,-0.0557573870195277,0.9406169193055611,2.9413528055294194,0.0,0.0,1.0,5156.620156177409,1,69164.32334711369,2.0082733974037295,1.51730479585221,41.3432297697333,65535,2.0082733974037295,1.51730479585221,41.3432297697333,,,,,,,,,,,
1.42179274559021,-43.01356059305638,55.75557218079645,59.36085927766314,0.05468243508277966,-0.06993791629720487,-1.5194203949435439,5.507469177246094e-05,-1.5129351781842169,-42.97763389319325,55.81126248063454,0.04244927489773182,-1.5193370931152668,0.04301356059305638,-0.05575557218079645,0.9406391407223368,2.943624063634246,0.0,0.0,1.0,5156.620156177409,1,69729.7725917545,1.6180029538883678,1.7634000893645285,45.70892148880013,65535,1.6180029538883678,1.7634000893645285,45.70892148880013,,,,,,,,,,,
1.4275474548339844,-43.02510363030563,55.76171674255252,59.36824326250251,0.05987917598422,-0.07347509415027234,-1.5202312705154637,9.417533874511719e-05,-1.5148102475818799,-43.02510363030563,55.76171674255252,0.04064998900837982,-1.5202312705154637,0.04302510363030563,-0.05576171674255252,0.9406317567374975,2.8971643156529865,0.0,0.0,1.0,5156.620156177409,1,69543.2788423191,1.7205216461707036,1.849932298352084,34.80468772419168,65535,1.7205216461707036,1.849932298352084,34.80468772419168,19.65625,17.59375,0.0213165283203125,-0.0196685791015625,1.03515625,0.034271240234375,0.023651123046875,-0.12646484375,0.0,0.0,0.0
1.4322421550750732,-42.933615251991775,55.770051996577386,59.40610804545541,0.0561967006413262,-0.06385745184392522,-1.5230008753805218,0.00011110305786132812,-1.5153348300380902,-43.02510363030563,55.76171674255252,0.04064998900837982,-1.5202312705154637,0.042933615251991776,-0.055770051996577384,0.9405938919545446,2.738477645966256,0.0,0.0,1.0,5156.620156177409,1,69290.89481147783,0.8632189770509587,1.8773068409216829,-55.430346196982526,65535,0.8632189770509587,1.8773068409216829,-55.430346196982526,,,,,,,,,,,
1.4416675567626953,-42.96465305405361,55.754148364218054,59.37041046787188,0.05371182959350798,-0.06131796226385079,-1.523098323242669,0.00011277198791503906,-1.5170476392043324,-42.96465305405361,55.754148364218054,0.03793240397908102,-1.523098323242669,0.042964653054053614,-0.055754148364218055,0.940629589532128,2.7328942947426498,0.0,0.0,1.0,5156.620156177409,1,69615.28809210268,1.663789397677875,1.8616784742528063,40.20835668159644,65535,1.663789397677875,1.8616784742528063,40.20835668159644,17.4375,26.5625,-0.01377105712890625,-0.033599853515625,1.06640625,0.0689697265625,-0.051116943359375,-0.10235595703125,0.0,0.0,0.0
1.4472792148590088,-42.95596427747417,55.81805628270161,59.364882697185564,0.05507057315939933,-0.0628730401920104,-1.5210673729954498,0.0001289844512939453,-1.5176419676031927,-42.95596427747417,55.81805628270161,0.03576674040438901,-1.5210673729954498,0.042955964277474175,-0.05581805628270161,0.9406351173028145,2.8492591723093597,0.0,0.0,1.0,5156.620156177409,1,69581.37440591933,1.5025543490782005,2.216695375036772,80.4820698889319,65535,1.5025543490782005,2.216695375036772,80.4820698889319,-7.94140625,15.125,-0.01123046875,-0.0230712890625,1.0576171875,0.06683349609375,-0.048828125,-0.14501953125,0.0,0.0,0.0
1.4504320621490479,-42.97877472308961,55.77314879479662,59.236763813635974,0.052323864168113944,-0.06280897975746474,-1.5188033680067305,0.00013184547424316406,-1.5179844418053832,-42.95596427747417,55.81805628270161,0.03576674040438901,-1.5210673729954498,0.042978774723089606,-0.05577314879479662,0.940763236186364,2.978977102959533,0.0,0.0,1.0,5156.620156177409,1,70305.40231941493,1.7328576051969249,1.603736127393606,111.18682840689432,65535,1.7328576051969249,1.603736127393606,111.18682840689432,,,,,,,,,,,
1.4538791179656982,-43.03094105400293,55.76075442311432,59.37072773064501,0.0547466032423021,-0.07032804394793225,-1.519991705602813,0.00013875961303710938,-1.5183770923737672,-43.03094105400293,55.76075442311432,0.03325451812466582,-1.519991705602813,0.04303094105400293,-0.055760754423114324,0.9406292722693549,2.910890374067293,0.0,0.0,1.0,5156.620156177409,1,68942.43460605627,1.8463621344662642,1.8786477703447197,15.960797309938666,65535,1.8463621344662642,1.8786477703447197,15.960797309938666,7.1796875,39.375,0.0199432373046875,-0.032470703125,1.109375,0.11053466796875,-0.12054443359375,-0.2132568359375,0.0,0.0,0.0
1.4595277309417725,-43.004329139879054,55.76415659507373,59.31180791131914,0.05458369849672689,-0.06625271549835197,-1.5210759373900382,0.00012445449829101562,-1.518869133792738,-43.03094105400293,55.76075442311432,0.03325451812466582,-1.519991705602813,0.043004329139879054,-0.05576415659507373,0.9406881920886808,2.8487684686453605,0.0,0.0,1.0,5156.620156177409,1,69744.4048968965,1.408846593032886,1.9561964133758012,25.49276403575622,65535,1.408846593032886,1.9561964133758012,25.49276403575622,,,,,,,,,,,
1.462468147277832,-42.953460132616854,55.76451182248337,59.38461387225892,0.058160060622830724,-0.06541824632959113,-1.5223449093741812,0.00011968612670898438,-1.519096851965878,-43.03094105400293,55.76075442311432,0.03325451812466582,-1.519991705602813,0.042953460132616854,-0.05576451182248337,0.9406153861277411,2.776061729633625,0.0,0.0,1.0,5156.620156177409,1,69133.03045112488,1.1222495591866184,1.942586968114389,4.481604303901811,65535,1.1222495591866184,1.942586968114389,4.481604303901811,,,,,,,,,,,
1.4668669700622559,-42.955295426778854,55.735116735864146,59.41005830854958,0.05754244137160288,-0.06704230683518511,-1.5234176091245126,0.00011587142944335938,-1.5193982973492932,-43.03094105400293,55.76075442311432,0.03325451812466582,-1.519991705602813,0.04295529542677885,-0.05573511673586415,0.9405899416914505,2.7146005612548976,0.0,0.0,1.0,5156.620156177409,1,69457.35203674925,1.50389583984217,1.8213671783050949,19.80041298667011,65535,1.50389583984217,1.8213671783050949,19.80041298667011,,,,,,,,,,,
1.4716172218322754,-43.01786651367575,55.757910656304574,59.34063879272559,0.057675386298893676,-0.07242812876782008,-1.5190209286858698,0.00012302398681640625,-1.5196993213035905,-43.01786651367575,55.757910656304574,0.029698347758721794,-1.5190209286858698,0.04301786651367575,-0.055757910656304574,0.9406593612072744,2.96651179425686,0.0,0.0,1.0,5156.620156177409,1,69797.36381209138,1.7432971149904963,2.085794865195639,119.69997529286093,65535,1.7432971149904963,2.085794865195639,119.69997529286093,26.421875,56.84375,0.0203399658203125,-0.0166168212890625,1.216796875,0.208984375,-0.1129150390625,-0.26171875,0.0,0.0,0.0
1.4777848720550537,-42.98979043627569,55.763025910208775,59.3466440499137,0.05424109347904854,-0.07099779138696938,-1.5197527772509032,0.0001659393310546875,-1.520004472668642,-42.98979043627569,55.763025910208775,0.026972466556005586,-1.5197527772509032,0.04298979043627569,-0.05576302591020878,0.9406533559500863,2.924579960237736,0.0,0.0,1.0,5156.620156177409,1,69541.45804613519,1.3660195163102153,1.9953306049467188,33.625948637506816,65535,1.3660195163102153,1.9953306049467188,33.625948637506816,51.1875,71.3125,-0.0005702972412109375,-0.0020580291748046875,1.2568359375,0.2578125,-0.21435546875,-0.3203125,0.0,0.0,0.0
1.4820575714111328,-42.948851751427384,55.761570902448526,59.3846006883881,0.05416702248944094,-0.062329924104353826,-1.5231878119003217,0.00011420249938964844,-1.5201640145881885,-42.98979043627569,55.763025910208775,0.026972466556005586,-1.5197527772509032,0.04294885175142738,-0.05576157090244853,0.9406153993116119,2.7277669723448525,0.0,0.0,1.0,5156.620156177409,1,69394.8254460873,1.2316850424345844,1.971534950288969,-32.69188047942174,65535,1.2316850424345844,1.971534950288969,-32.69188047942174,,,,,,,,,,,
1.4858527183532715,-42.958575984386805,55.79990138139334,59.24964775644784,0.051295356462235146,-0.0634766517109436,-1.519474587327827,0.00013494491577148438,-1.5202903998555124,-42.98979043627569,55.763025910208775,0.026972466556005586,-1.5197527772509032,0.04295857598438681,-0.05579990138139334,0.9407503522435521,2.9405190687330673,0.0,0.0,1.0,5156.620156177409,1,70163.13103074656,1.4885215807524557,2.2173233303471065,127.38536043118343,65535,1.4885215807524557,2.2173233303471065,127.38536043118343,,,,,,,,,,,
1.4916841983795166,-42.97347322751193,55.7935058254313,59.24447390793396,0.05428948992300109,-0.0642335703400115,-1.5188091121908043,0.00012826919555664062,-1.5204420577854574,-42.98979043627569,55.763025910208775,0.026972466556005586,-1.5197527772509032,0.04297347322751193,-0.05579350582543131,0.940755526092066,2.9786479854553676,0.0,0.0,1.0,5156.620156177409,1,69576.9520387176,1.4924670428123035,1.9827183216785236,54.41536920902273,65535,1.4924670428123035,1.9827183216785236,54.41536920902273,,,,,,,,,,,
1.4966423511505127,-42.96876816169079,55.77599419280501,59.22445248265406,0.05057042891476299,-0.062191961709246395,-1.5194880559411161,0.00012230873107910156,-1.5205249942499441,-42.98979043627569,55.763025910208775,0.026972466556005586,-1.5197527772509032,0.04296876816169079,-0.05577599419280501,0.9407755475173459,2.9397473740357185,0.0,0.0,1.0,5156.620156177409,1,69631.10708738971,1.4082699706973456,1.9317442865679804,32.14944281204805,65535,1.4082699706973456,1.9317442865679804,32.14944281204805,,,,,,,,,,,
1.5002377033233643,-42.999147403081224,55.79083389172299,59.48015834939236,0.06052668022326673,-0.06918130356668308,-1.5220396979329551,0.000110626220703125,-1.520562135534825,-42.999147403081224,55.79083389172299,0.019192002507153166,-1.5220396979329551,0.04299914740308122,-0.05579083389172299,0.9405198416506076,2.7935490570749835,0.0,0.0,1.0,5156.620156177409,1,68417.63280573745,1.5856598540768796,2.1102970860174284,-15.57709650436258,65535,1.5856598540768796,2.1102970860174284,-15.57709650436258,89.5,85.875,-0.01447296142578125,-0.007038116455078125,1.3779296875,0.37548828125,-0.29443359375,-0.335693359375,0.0,0.0,0.0
1.5073926448822021,-42.98699308824041,55.795275548445424,59.32787355615628,0.05767528847994563,-0.07084158263206979,-1.519154510948979,0.0001442432403564453,-1.5205900587314916,-42.999147403081224,55.79083389172299,0.019192002507153166,-1.5220396979329551,0.04298699308824041,-0.055795275548445426,0.9406721264438437,2.9588580943628955,0.0,0.0,1.0,5156.620156177409,1,69931.76560285612,1.371098259208118,2.034326446734802,80.06281016117254,65535,1.371098259208118,2.034326446734802,80.06281016117254,,,,,,,,,,,
1.5103411674499512,-42.982782132714,55.78903913107236,59.49837300647483,0.06109029178019155,-0.0719372868806616,-1.5219158648296114,0.0001201629638671875,-1.5205914981043511,-42.982782132714,55.78903913107236,0.015733465751941365,-1.5219158648296114,0.042982782132714,-0.05578903913107236,0.9405016269935251,2.8006441712605863,0.0,0.0,1.0,5156.620156177409,1,68658.1970153992,1.3789621309215312,1.982100379357011,-31.294405166974684,65535,1.3789621309215312,1.982100379357011,-31.294405166974684,98.1875,90.1875,-0.007793426513671875,-0.01456451416015625,1.427734375,0.41845703125,-0.26708984375,-0.27001953125,0.0,0.0,0.0
1.5137665271759033,-42.992192131864556,55.774786948574665,59.37125589554302,0.05667368207284793,-0.07183557959422546,-1.5192316416959182,0.00013065338134765625,-1.520589401977804,-42.982782132714,55.78903913107236,0.015733465751941365,-1.5219158648296114,0.04299219213186455,-0.05577478694857466,0.940628744104457,2.9544388280925915,0.0,0.0,1.0,5156.620156177409,1,70248.53589476038,1.4741054184605389,1.9303450691886999,118.04351906369763,65535,1.4741054184605389,1.9303450691886999,118.04351906369763,,,,,,,,,,,
1.5189454555511475,-42.94287459575611,55.75061603359225,59.392014846759814,0.05671723729516454,-0.0651240055467395,-1.5232310785113914,0.00012373924255371094,-1.5205832257608751,-42.94287459575611,55.75061603359225,0.012399948374242057,-1.5232310785113914,0.04294287459575611,-0.05575061603359225,0.9406079851532402,2.725287978136734,0.0,0.0,1.0,5156.620156177409,1,69504.88595936296,1.252703335828242,1.9423425614877163,-8.308414543570926,65535,1.252703335828242,1.9423425614877163,-8.308414543570926,98.6875,81.6875,-0.01174163818359375,-0.01035308837890625,1.427734375,0.4189453125,-0.30224609375,-0.0927734375,0.0,0.0,0.0
1.5232090950012207,-43.00260362006805,55.759372692444295,59.36813275324694,0.057641833093231176,-0.07128752114758959,-1.5202127877959108,0.00011920928955078125,-1.5205818286149198,-42.94287459575611,55.75061603359225,0.012399948374242057,-1.5232310785113914,0.04300260362006805,-0.0557593726924443,0.9406318672467531,2.898223297477287,0.0,0.0,1.0,5156.620156177409,1,69730.26526626143,1.9288910360317995,2.1294199326300376,149.71443455902855,65535,1.9288910360317995,2.1294199326300376,149.71443455902855,,,,,,,,,,,
1.5264601707458496,-42.9535027313325,55.76335994206841,59.390595390527324,0.05584730197297796,-0.0640626042356253,-1.5229852089559306,8.845329284667969e-05,-1.5205855651583058,-42.94287459575611,55.75061603359225,0.012399948374242057,-1.5232310785113914,0.0429535027313325,-0.055763359942068415,0.9406094046094726,2.739375265975397,0.0,0.0,1.0,5156.620156177409,1,69436.9426713023,1.0739631893866486,2.0339104153357934,-32.69197720311574,65535,1.0739631893866486,2.0339104153357934,-32.69197720311574,,,,,,,,,,,
1.5296034812927246,-42.96492007368305,55.78204331511564,59.23586405994386,0.05062514689399646,-0.0622891242872275,-1.5203199174274977,9.226799011230469e-05,-1.52059616272904,-42.96492007368305,55.78204331511564,0.009075783013246278,-1.5203199174274977,0.04296492007368305,-0.05578204331511564,0.9407641359400561,2.8920852217265605,0.0,0.0,1.0,5156.620156177409,1,70328.61902800774,1.4735068594343375,2.143670933421573,109.92567279676632,65535,1.4735068594343375,2.143670933421573,109.92567279676632,88.625,69.625,0.00739288330078125,-0.011383056640625,1.41015625,0.391357421875,-0.27392578125,0.05633544921875,0.0,0.0,0.0
1.5328593254089355,-43.023846012538186,55.78515312970661,59.351133887902385,0.05706308239502397,-0.07069487386496014,-1.519784163215172,0.00011110305786132812,-1.5206098476984786,-42.96492007368305,55.78204331511564,0.009075783013246278,-1.5203199174274977,0.04302384601253818,-0.05578515312970661,0.9406488661120976,2.9227816769491852,0.0,0.0,1.0,5156.620156177409,1,68894.22355863574,1.8461828866150745,2.066367467936892,59.546807482375854,65535,1.8461828866150745,2.066367467936892,59.546807482375854,,,,,,,,,,,
1.5378670692443848,-43.00136611951282,55.75324852984035,59.35742463459002,0.057557236185851936,-0.07108022704108365,-1.5195892164341664,0.00019812583923339844,-1.5206353466405182,-43.00136611951282,55.75324852984035,0.007208735065909765,-1.5195892164341664,0.043001366119512816,-0.05575324852984035,0.9406425753654101,2.9339513047304706,0.0,0.0,1.0,5156.620156177409,1,69535.64974400414,1.324137216415806,1.8818763481871565,47.243791421382106,65535,1.324137216415806,1.8818763481871565,47.243791421382106,80.3125,52.84375,-0.0093536376953125,-0.0294342041015625,1.435546875,0.4169921875,-0.1861572265625,0.30078125,0.0,0.0,0.0
1.5421786308288574,-43.00406331737476,55.75379713377723,59.37025264015564,0.06089057305921254,-0.07365811415333356,-1.5192539210466467,9.989738464355469e-05,-1.5206494263387138,-43.00136611951282,55.75324852984035,0.007208735065909765,-1.5195892164341664,0.04300406331737476,-0.05575379713377723,0.9406297473598444,2.9531623153255566,0.0,0.0,1.0,5156.620156177409,1,69505.52219931604,1.423677708697077,2.0249935465299593,51.24690735376315,65535,1.423677708697077,2.0249935465299593,51.24690735376315,,,,,,,,,,,
1.5464115142822266,-43.020716201349664,55.832866534611725,59.3561497230043,0.05879890391562827,-0.07056533354886169,-1.517410339910715,9.775161743164062e-05,-1.520649750236205,-43.020716201349664,55.832866534611725,0.005547291165201529,-1.517410339910715,0.04302071620134967,-0.055832866534611725,0.9406438502769957,3.058791733604366,0.0,0.0,1.0,5156.620156177409,1,69618.32540018807,1.468644403674399,2.4220340741214614,82.05643576710096,65535,1.468644403674399,2.4220340741214614,82.05643576710096,68.125,33.5625,0.01023101806640625,-0.029449462890625,1.4248046875,0.404541015625,-0.157958984375,0.43896484375,0.0,0.0,0.0
1.5507888793945312,-43.00650388414479,55.76469075254182,59.35487481182314,0.05521444601128822,-0.07127588829107585,-1.520416258177376,9.298324584960938e-05,-1.520630483267917,-43.020716201349664,55.832866534611725,0.005547291165201529,-1.517410339910715,0.043006503884144794,-0.05576469075254182,0.9406451251881769,2.886565303363426,0.0,0.0,1.0,5156.620156177409,1,69559.70365342857,1.3443795489280963,1.675367424086187,-17.84677229187936,65535,1.3443795489280963,1.675367424086187,-17.84677229187936,,,,,,,,,,,
1.5583562850952148,-42.896936363895,55.77913138456944,59.23698346275125,0.04683260920857097,-0.0488751480877054,-1.5233096619866886,0.0001201629638671875,-1.520568937237228,-43.020716201349664,55.832866534611725,0.005547291165201529,-1.517410339910715,0.042896936363895,-0.05577913138456944,0.9407630165372487,2.7207854766627264,0.0,0.0,1.0,5156.620156177409,1,69825.2051713888,1.0752752657790419,2.057868725711053,7.936648651388396,65535,1.0752752657790419,2.057868725711053,7.936648651388396,,,,,,,,,,,
1.5605921745300293,-43.02845740120391,55.76925907481441,59.3766299483648,0.05726363253772858,-0.07215424924126304,-1.5185935777732575,0.00010919570922851562,-1.52054987289018,-43.020716201349664,55.832866534611725,0.005547291165201529,-1.517410339910715,0.04302845740120391,-0.055769259074814406,0.9406233700516352,2.9909971979206063,0.0,0.0,1.0,5156.620156177409,1,68511.06039455952,2.673790298118927,2.000941224475456,225.94987008834636,65535,2.673790298118927,2.000941224475456,225.94987008834636,,,,,,,,,,,
1.5638668537139893,-42.90305194703262,55.77533649242489,59.25771489952657,0.04992507608982597,-0.054584468181657395,-1.5228376204285925,8.511543273925781e-05,-1.5205262463104054,-42.90305194703262,55.77533649242489,0.004961633223372927,-1.5228376204285925,0.042903051947032624,-0.055775336492424894,0.9407422851004734,2.7478314656964216,0.0,0.0,1.0,5156.620156177409,1,70137.30640886174,0.6112132961375789,2.0295890588006555,-63.388784766433346,65535,0.6112132961375789,2.0295890588006555,-63.388784766433346,41.125,21.09375,0.0179595947265625,-0.032379150390625,1.3779296875,0.35400390625,-0.018310546875,0.6015625,0.0,0.0,0.0
1.5692639350891113,-43.00672581845331,55.779683496170776,59.33790289442864,0.057098046559226893,-0.06884650957736645,-1.518422495079696,7.987022399902344e-05,-1.5205028766530555,-42.90305194703262,55.77533649242489,0.004961633223372927,-1.5228376204285925,0.043006725818453315,-0.055779683496170775,0.9406620971055714,3.0007995142094046,0.0,0.0,1.0,5156.620156177409,1,69299.8591311833,1.8320617254428389,2.0694243766897613,118.26021374707416,65535,1.8320617254428389,2.0694243766897613,118.26021374707416,,,,,,,,,,,
1.5718443393707275,-42.89150420300513,55.772198952124214,59.22385968258702,0.048400152500192806,-0.05367577602776797,-1.5236277711455015,8.726119995117188e-05,-1.5204959894811108,-42.90305194703262,55.77533649242489,0.004961633223372927,-1.5228376204285925,0.042891504203005124,-0.055772198952124215,0.9407761403174131,2.7025591644382985,0.0,0.0,1.0,5156.620156177409,1,70305.52852204784,0.43573354248485363,1.916084100172448,-132.27115738602492,65535,0.43573354248485363,1.916084100172448,-132.27115738602492,,,,,,,,,,,
1.5804722309112549,-43.01824427383748,55.77364452350504,59.37429123033244,0.057644523518931935,-0.07136302668797775,-1.5191745322160055,8.96453857421875e-05,-1.5204982664914997,-43.01824427383748,55.77364452350504,0.0068333422957633375,-1.5191745322160055,0.043018244273837485,-0.05577364452350504,0.9406257087696676,2.957710960261764,0.0,0.0,1.0,5156.620156177409,1,69269.7682685573,1.7180382155760683,2.0443672274676365,87.88913854497564,65535,1.7180382155760683,2.0443672274676365,87.88913854497564,26.609375,17.75,0.006412506103515625,-0.035736083984375,1.3564453125,0.3271484375,0.13427734375,0.6171875,0.0,0.0,0.0
1.5839159488677979,-43.012227062758605,55.77172873015477,59.37159371134465,0.05858376326080443,-0.07092865946170344,-1.5191540096206895,8.511543273925781e-05,-1.5205083187696535,-43.01824427383748,55.77364452350504,0.0068333422957633375,-1.5191745322160055,0.043012227062758604,-0.05577172873015477,0.9406284062886554,2.958886818358039,0.0,0.0,1.0,5156.620156177409,1,69571.5637299161,1.3699205124989142,2.007786193481149,44.92412101028958,65535,1.3699205124989142,2.007786193481149,44.92412101028958,,,,,,,,,,,
1.5892939567565918,-42.94208551432672,55.65130169622266,59.22736579829693,0.04197999762032147,-0.036932595489598534,-1.514171845411254,9.989738464355469e-05,-1.5205139038024535,-42.94208551432672,55.65130169622266,0.007755171088162632,-1.514171845411254,0.04294208551432672,-0.05565130169622266,0.9407726342017031,3.244343800399818,0.0,0.0,1.0,5156.620156177409,1,69982.30963323613,1.1630005805346293,1.553084124975503,123.07742310952514,65535,1.1630005805346293,1.553084124975503,123.07742310952514,11.203125,15.046875,0.00902557373046875,-0.01739501953125,1.3427734375,0.318359375,0.1533203125,0.60107421875,0.0,0.0,0.0
1.5929584503173828,-42.893050290434026,55.86217310196685,59.057607297643194,0.0402157955511367,-0.0381468028484764,-1.5215283556318409,0.00010156631469726562,-1.5204990555491045,-42.94208551432672,55.65130169622266,0.007755171088162632,-1.514171845411254,0.042893050290434026,-0.05586217310196685,0.9409423927023568,2.8228468128153423,0.0,0.0,1.0,5156.620156177409,1,70459.39158389128,1.0038663471785116,3.400294023761471,-149.23580897091654,65535,1.0038663471785116,3.400294023761471,-149.23580897091654,,,,,,,,,,,
1.5992138385772705,-42.856048253865296,55.75655317346468,59.06344350191617,0.03963417970013366,-0.03548921962658982,-1.5183227279011602,9.059906005859375e-05,-1.5204297769717419,-42.94208551432672,55.65130169622266,0.007755171088162632,-1.514171845411254,0.0428560482538653,-0.05575655317346468,0.9409365564980838,3.006515752473433,0.0,0.0,1.0,5156.620156177409,1,69546.86207420344,1.2761100709688467,1.6617462966415575,89.1352763947819,65535,1.2761100709688467,1.6617462966415575,89.1352763947819,,,,,,,,,,,
1.6015667915344238,-42.82145052960998,55.750674134167475,59.126514813099845,0.04313228695668994,-0.038757873154692625,-1.5247385157558409,9.703636169433594e-05,-1.5203942042226148,-42.94208551432672,55.65130169622266,0.007755171088162632,-1.514171845411254,0.042821450529609985,-0.055750674134167476,0.9408734851869001,2.638918186148942,0.0,0.0,1.0,5156.620156177409,1,69106.11956227156,1.0634550862673526,1.967146763736739,-194.99619619423694,65535,1.0634550862673526,1.967146763736739,-194.99619619423694,,,,,,,,,,,
1.6094090938568115,-42.920508888106454,55.79541057291051,59.25436851496448,0.046588460184740395,-0.041395240952911444,-1.5287938886478933,0.00010037422180175781,-1.5203317867523811,-42.920508888106454,55.79541057291051,0.012120416452203894,-1.5287938886478933,0.04292050888810645,-0.055795410572910514,0.9407456314850355,2.406562435082577,0.0,0.0,1.0,5156.620156177409,1,69293.81877963392,1.6537833164991602,2.167382550429765,-7.387180399155845,65535,1.6537833164991602,2.167382550429765,-7.387180399155845,-5.43359375,10.2109375,-0.0172576904296875,-0.036163330078125,1.3212890625,0.295166015625,0.248779296875,0.52197265625,0.0,0.0,0.0
1.6120343208312988,-42.773186510322404,55.60349146499242,59.01429662337655,0.035822518913616735,-0.016394494267287375,-1.5220709729891584,8.20159912109375e-05,-1.520342761869346,-42.920508888106454,55.79541057291051,0.012120416452203894,-1.5287938886478933,0.04277318651032241,-0.055603491464992424,0.9409857033766234,2.791757128350497,0.0,0.0,1.0,5156.620156177409,1,71223.51545994154,0.18173418857638723,0.24674427210363103,278.35522735154683,65535,0.18173418857638723,0.24674427210363103,278.35522735154683,,,,,,,,,,,
1.6191027164459229,-42.67672426470494,55.53354902412277,59.27469143866309,0.04752813602683597,-0.020502020680325934,-1.5217660398232407,8.988380432128906e-05,-1.5204718349546542,-42.920508888106454,55.79541057291051,0.012120416452203894,-1.5287938886478933,0.04267672426470494,-0.05553354902412277,0.9407253085613368,2.8092285117911473,0.0,0.0,1.0,5156.620156177409,1,68931.46337065076,1.1323140675915648,1.7715807414315299,45.84032509969347,65535,1.1323140675915648,1.7715807414315299,45.84032509969347,,,,,,,,,,,
1.6219794750213623,-42.4259546409723,55.38533363965531,60.05300434423848,0.07255489425326261,-0.053405999453530174,-1.5220162731677342,0.0001010894775390625,-1.5205554210181293,-42.920508888106454,55.79541057291051,0.012120416452203894,-1.5287938886478933,0.0424259546409723,-0.05538533363965531,0.9399469956557615,2.7948911972582238,0.0,0.0,1.0,5156.620156177409,1,64920.48913310444,-0.40883713047372616,0.7748146149210349,34.45379330318862,64920.48913310444,-0.40883713047372616,0.7748146149210349,34.45379330318862,,,,,,,,,,,
1.6276967525482178,-42.15552731159335,55.23976634831299,60.29179208079929,0.06899766137504561,-0.026662952009174675,-1.5274999201573998,8.845329284667969e-05,-1.5207535398882293,-42.15552731159335,55.23976634831299,0.016618201220945983,-1.5274999201573998,0.042155527311593353,-0.05523976634831299,0.9397082079192007,2.4807013684107773,0.0,0.0,1.0,5156.620156177409,1,68830.77189610284,0.45055806001937304,1.390495578019197,-42.79237261942845,65535,0.45055806001937304,1.390495578019197,-42.79237261942845,-17.59375,-5.0859375,-0.009552001953125,-0.01126861572265625,1.3359375,0.313720703125,0.29443359375,0.444091796875,0.0,0.0,0.0
1.630845308303833,-41.97851641502956,54.98681378819891,61.19992156078649,0.17907682568492536,-0.05974312048026394,-1.527277175965109,9.202957153320312e-05,-1.5208690310974875,-42.15552731159335,55.23976634831299,0.016618201220945983,-1.5274999201573998,0.04197851641502956,-0.05498681378819891,0.9388000784392135,2.4934636705400806,0.0,0.0,1.0,5156.620156177409,1,64284.8685169418,0.21976759774346633,0.05043511896157882,43.8533018607059,64284.8685169418,0.21976759774346633,0.05043511896157882,43.8533018607059,,,,,,,,,,,
1.633286714553833,-41.703869201707825,54.84064970985443,61.99870607655873,0.10589899444673753,0.006624707328980253,-1.5304553814288702,0.00010395050048828125,-1.520976790468662,-42.15552731159335,55.23976634831299,0.016618201220945983,-1.5274999201573998,0.04170386920170782,-0.05484064970985443,0.9380012939234412,2.3113659110411504,0.0,0.0,1.0,5156.620156177409,1,63953.33542800535,-0.9374929827655814,0.5459208213186344,-76.21414563423767,63953.33542800535,-0.9374929827655814,0.5459208213186344,-76.21414563423767,,,,,,,,,,,
1.6385095119476318,-41.36844881640482,54.60133144172477,63.686134003584876,0.08716452944582176,0.0016583111459679994,-1.5185902999693217,8.845329284667969e-05,-1.5213197571355939,-41.36844881640482,54.60133144172477,0.01936885470622097,-1.5185902999693217,0.04136844881640482,-0.054601331441724764,0.9363138659964151,2.9911850022521946,0.0,0.0,1.0,5156.620156177409,1,65069.38669441215,0.352558773922916,1.0957511760646466,199.37438222669786,65069.38669441215,0.352558773922916,1.0957511760646466,199.37438222669786,-20.640625,-19.390625,-0.008056640625,-0.03192138671875,1.34375,0.322998046875,0.345703125,0.404296875,0.0,0.0,0.0
1.6424381732940674,-40.567806239009805,54.3771244247542,64.93526232542534,0.05796835603877186,0.165901909876062,-1.5496935804226246,9.965896606445312e-05,-1.5214752809206837,-41.36844881640482,54.60133144172477,0.01936885470622097,-1.5185902999693217,0.0405678062390098,-0.0543771244247542,0.9350647376745747,1.2090983032661882,0.0,0.0,1.0,5156.620156177409,1,61055.65022818089,-5.343232164405919,-0.3354575231446937,-1037.3017307466587,61055.65022818089,-5.343232164405919,-0.3354575231446937,-360,,,,,,,,,,,
1.6476752758026123,-40.00257656202218,53.509274985697225,67.6486215420764,0.12080511222582296,0.0755393339181654,-1.5299900365346595,9.751319885253906e-05,-1.5219182611029414,-40.00257656202218,53.509274985697225,0.02157704754161765,-1.5299900365346595,0.04000257656202218,-0.05350927498569723,0.9323513784579236,2.3380282094973808,0.0,0.0,1.0,5156.620156177409,1,61124.6889469569,-0.6057021759996795,-1.5656451675734626,335.20196052414985,61124.6889469569,-0.6057021759996795,-1.5656451675734626,335.20196052414985,-27.1875,-36.40625,-0.016754150390625,-0.05859375,1.349609375,0.323974609375,0.361572265625,0.306396484375,0.0,0.0,0.0
1.6499757766723633,-39.25301790419271,53.128482224228954,70.01804493880358,0.20151045042599658,0.07573042485591128,-1.5429928800472759,7.43865966796875e-05,-1.5221072735694237,-40.00257656202218,53.509274985697225,0.02157704754161765,-1.5299900365346595,0.03925301790419271,-0.05312848222422895,0.9299819550611964,1.5930201545554041,0.0,0.0,1.0,5156.620156177409,1,47958.32122676301,-7.00016371216797,-2.9556968544076128,-568.9690282297372,47958.32122676301,-7.00016371216797,-2.9556968544076128,-360,,,,,,,,,,,
1.65299391746521,-38.40113232711901,52.383447444289374,73.23083281812427,0.24057151174471947,0.06294815410383592,-1.5516419816221798,0.00010848045349121094,-1.5224682507273273,-40.00257656202218,53.509274985697225,0.02157704754161765,-1.5299900365346595,0.03840113232711901,-0.052383447444289376,0.9267691671818756,1.097463137733456,0.0,0.0,1.0,5156.620156177409,1,51225.43036678861,-4.4332391893673275,-3.806449353447474,-228.08861900400728,51225.43036678861,-4.4332391893673275,-3.806449353447474,-228.08861900400728,,,,,,,,,,,
1.6582143306732178,-37.33284378561041,51.787370733483904,76.60030511069093,0.17575825421949343,0.14416003461303104,-1.5633229972937552,9.655952453613281e-05,-1.523393862039361,-37.33284378561041,51.787370733483904,0.025106534270735167,-1.5633229972937552,0.03733284378561041,-0.051787370733483905,0.9233996948893091,0.42819023932601397,0.0,0.0,1.0,5156.620156177409,1,58839.50677095218,-2.5978417308044266,-0.7520327517476493,-172.3603067499065,58839.50677095218,-2.5978417308044266,-0.7520327517476493,-172.3603067499065,-28.0,-50.0,-0.01525115966796875,-0.041717529296875,1.3408203125,0.32275390625,0.43115234375,0.145263671875,0.0,0.0,0.0
1.6616289615631104,-36.12900564758596,50.32544820968973,80.48731039620763,0.21705299429780653,0.09687883269031863,-1.5487586582555697,9.036064147949219e-05,-1.5240551222497334,-37.33284378561041,51.787370733483904,0.025106534270735167,-1.5633229972937552,0.03612900564758596,-0.05032544820968973,0.9195126896037924,1.26266539761167,0.0,0.0,1.0,5156.620156177409,1,47708.50077637865,-6.552938055694885,-9.014076882217632,424.8204402952334,47708.50077637865,-6.552938055694885,-9.014076882217632,360,,,,,,,,,,,
1.6693332195281982,-34.92749844285485,49.30858234909528,84.62575225524535,0.21370296438732408,0.12694355500321486,-1.5565029243781654,8.630752563476562e-05,-1.526384468836702,-34.92749844285485,49.30858234909528,0.028217584300035427,-1.5565029243781654,0.03492749844285485,-0.049308582349095284,0.9153742477447547,0.8189516333607827,0.0,0.0,1.0,5156.620156177409,1,60031.25064874513,-1.6514387841360916,-1.3249912724410715,-70.6240330752121,60031.25064874513,-1.6514387841360916,-1.3249912724410715,-70.6240330752121,-29.265625,-54.0,-0.0128326416015625,-0.0228424072265625,1.333984375,0.315185546875,0.447021484375,-0.2310791015625,0.0,0.0,0.0
1.671872615814209,-33.11088698819287,47.88176079880984,89.16299421001247,0.26867054970767423,0.07021018001044411,-1.5652155959173657,0.00010561943054199219,-1.527125184001468,-34.92749844285485,49.30858234909528,0.028217584300035427,-1.5565029243781654,0.03311088698819287,-0.04788176079880984,0.9108370057899875,0.3197523258808559,0.0,0.0,1.0,5156.620156177409,1,33235.682391628055,-16.25289461987623,-13.746489811395126,-344.44095276778967,33235.682391628055,-16.25289461987623,-13.746489811395126,-344.44095276778967,,,,,,,,,,,
1.6796250343322754,-31.345637520989005,46.29196497204164,94.91743646961314,0.32780574177400734,0.015490472707634833,-1.5471101377675298,7.200241088867188e-05,-1.5300689805853218,-34.92749844285485,49.30858234909528,0.028217584300035427,-1.5565029243781654,0.031345637520989005,-0.04629196497204164,0.9050825635303869,1.357118664017193,0.0,0.0,1.0,5156.620156177409,1,55870.56426577629,-3.330943280727733,-3.2520311654953664,221.58218146071692,55870.56426577629,-3.330943280727733,-3.2520311654953664,221.58218146071692,,,,,,,,,,,
1.6820056438446045,-29.159756240908337,45.06070137376107,99.11467213175108,0.21692609680800823,0.14597179899336415,-1.5732560370488176,5.793571472167969e-05,-1.531103704806989,-29.159756240908337,45.06070137376107,0.03275402530649129,-1.5732560370488176,0.029159756240908337,-0.04506070137376107,0.9008853278682489,-0.14093101637472216,0.0,0.0,1.0,5156.620156177409,1,40451.42252504139,-17.113850151279404,-10.060864608915736,-899.6393104508202,40451.42252504139,-17.113850151279404,-10.060864608915736,-360,-37.1875,-64.5625,-0.032135009765625,-0.018829345703125,1.3271484375,0.32275390625,0.48291015625,-0.81298828125,0.0,0.0,0.0
1.6862461566925049,-27.08823615346269,42.98274399711759,104.59077686889268,0.220254934817955,0.12230120829597992,-1.537471667943739,7.081031799316406e-05,-1.532840888665115,-29.159756240908337,45.06070137376107,0.03275402530649129,-1.5732560370488176,0.027088236153462692,-0.04298274399711759,0.8954092231311073,1.9093623058846134,0.0,0.0,1.0,5156.620156177409,1,45887.0033956546,-9.18916341434184,-10.076503741746794,776.0377475315701,45887.0033956546,-9.18916341434184,-10.076503741746794,360,,,,,,,,,,,
1.688094139099121,-24.23050200929096,40.97134800588445,110.27761678500701,0.23632647113360136,0.08197701490303289,-1.5527106379643782,6.985664367675781e-05,-1.533630597632458,-29.159756240908337,45.06070137376107,0.03275402530649129,-1.5732560370488176,0.024230502009290958,-0.04097134800588445,0.889722383214993,1.0362336395755989,0.0,0.0,1.0,5156.620156177409,1,16580.34073054336,-31.49598371845573,-23.659892515723065,-694.1787933936848,16580.34073054336,-31.49598371845573,-23.659892515723065,-360,,,,,,,,,,,
1.6899540424346924,-21.805927234100956,38.79073863453035,116.12634818348967,0.228951285693885,0.11080243039386412,-1.5422217572790269,6.890296936035156e-05,-1.5344212126309915,-29.159756240908337,45.06070137376107,0.03275402530649129,-1.5732560370488176,0.021805927234100957,-0.03879073863453035,0.8838736518165103,1.6372022346625101,0.0,0.0,1.0,5156.620156177409,1,15139.371888696649,-26.238088453937195,-25.271791594063593,509.1731928856283,15139.371888696649,-26.238088453937195,-25.271791594063593,360,,,,,,,,,,,
1.6921372413635254,-18.99196869883467,36.317801586061634,122.58594075166535,0.25314682845981035,0.07443559908990505,-1.5542209951012922,0.00013685226440429688,-1.5353298437721836,-29.159756240908337,45.06070137376107,0.03275402530649129,-1.5732560370488176,0.01899196869883467,-0.036317801586061634,0.8774140592483346,0.9496965500729573,0.0,0.0,1.0,5156.620156177409,1,18113.53411124632,-26.162380335425777,-24.50285574301843,-459.0979271423232,18113.53411124632,-26.162380335425777,-24.50285574301843,-360,,,,,,,,,,,
1.6974191665649414,-16.076093067669643,33.882252079740034,129.22683564110574,0.21218747050665315,0.10251392887472101,-1.5539688872716826,7.295608520507812e-05,-1.537541831158213,-16.076093067669643,33.882252079740034,0.03886538728339356,-1.5539688872716826,0.016076093067669644,-0.033882252079740036,0.8707731643588943,0.96414126469179,0.0,0.0,1.0,5156.620156177409,1,47529.761453670166,-10.185903765058171,-8.798053041016471,18.34730072647717,47529.761453670166,-10.185903765058171,-8.798053041016471,18.34730072647717,-50.59375,-70.9375,-0.019805908203125,-0.026336669921875,1.30078125,0.3037109375,0.5400390625,-0.9560546875,0.0,0.0,0.0
1.6999239921569824,-12.995018879827441,31.215548434095027,136.18748217129055,0.1947021649524456,0.11694479948054368,-1.5321188719013477,0.00023365020751953125,-1.5383724183708352,-16.076093067669643,33.882252079740034,0.03886538728339356,-1.5539688872716826,0.01299501887982744,-0.031215548434095026,0.8638125178287095,2.216054927707958,0.0,0.0,1.0,5156.620156177409,1,16063.998904753767,-28.586702051446988,-25.418070115029735,859.461292463301,16063.998904753767,-28.586702051446988,-25.418070115029735,360,,,,,,,,,,,
1.7014169692993164,-9.39084625042845,28.072948806858488,143.6078887075742,0.23104569969249633,0.06241160500591499,-1.5382704218915775,5.4836273193359375e-05,-1.5389074908741334,-16.076093067669643,33.882252079740034,0.03886538728339356,-1.5539688872716826,0.00939084625042845,-0.028072948806858487,0.8563921112924259,1.8635970758040514,0.0,0.0,1.0,5156.620156177409,1,-26299.012419637762,-50.808453804286216,-48.71872392066279,-343.54429601705976,10000,-40,-40,-343.54429601705976,,,,,,,,,,,
1.7078943252563477,-5.614102772416883,25.266842399004144,150.91500480758603,0.20586655413777233,0.08390009952841952,-1.5653158324432392,6.604194641113281e-05,-1.5410113397017342,-16.076093067669643,33.882252079740034,0.03886538728339356,-1.5539688872716826,0.005614102772416883,-0.025266842399004143,0.849084995192414,0.31400919599525423,0.0,0.0,1.0,5156.620156177409,1,48052.119619554425,-11.982375558242818,-8.930343210174543,-353.6359608599806,48052.119619554425,-11.982375558242818,-8.930343210174543,-353.6359608599806,,,,,,,,,,,
1.7097976207733154,-2.10110096252875,21.839851852427326,159.0360397681673,0.22246491776934338,0.038704591730414344,-1.561860769336095,5.125999450683594e-05,-1.5415602575620808,-16.076093067669643,33.882252079740034,0.03886538728339356,-1.5539688872716826,0.0021011009625287497,-0.021839851852427327,0.8409639602318327,0.5119697299859638,0.0,0.0,1.0,5156.620156177409,1,-5507.4515588890845,-38.91749104114761,-39.75437019888704,161.44003846078374,10000,-38.91749104114761,-39.75437019888704,161.44003846078374,,,,,,,,,,,
1.7123973369598389,1.4054067223201008,18.57291289307702,167.08942620700225,0.16964794730577748,0.06520899003798213,-1.5528741606925376,5.6743621826171875e-05,-1.5423171911572033,1.4054067223201008,18.57291289307702,0.04550617602936042,-1.5528741606925376,-0.0014054067223201008,-0.018572912893077023,0.8329105737929977,1.026864477397595,0.0,0.0,1.0,5156.620156177409,1,16395.985295581304,-26.98329747351261,-26.035718837063378,301.72413102620976,16395.985295581304,-26.98329747351261,-26.035718837063378,301.72413102620976,-88.375,-94.6875,-0.03204345703125,-0.01279449462890625,1.2177734375,0.2301025390625,0.6025390625,-1.1748046875,0.0,0.0,0.0
1.716482162475586,5.44141618484413,14.840167608566329,175.70024162618637,0.18861224800085882,0.019971265015986738,-1.5539084037447577,6.818771362304688e-05,-1.5433553378994036,1.4054067223201008,18.57291289307702,0.04550617602936042,-1.5528741606925376,-0.00544141618484413,-0.014840167608566329,0.8242997583738135,0.9676067155146626,0.0,0.0,1.0,5156.620156177409,1,30104.641794964624,-21.640319208353674,-20.52184465674483,-7.925865653758116,30104.641794964624,-21.640319208353674,-20.52184465674483,-7.925865653758116,,,,,,,,,,,
1.7183449268341064,9.292507480732603,11.338674678046011,184.11204434303158,0.18573056216992717,0.010026376382032095,-1.5531804589965241,6.532669067382812e-05,-1.5438210165866058,1.4054067223201008,18.57291289307702,0.04550617602936042,-1.5528741606925376,-0.009292507480732603,-0.011338674678046012,0.8158879556569684,1.0093148773071476,0.0,0.0,1.0,5156.620156177409,1,-12877.75257598563,-44.10319237858087,-41.6625703122544,48.79865912142107,10000,-40,-40,48.79865912142107,,,,,,,,,,,
1.7204139232635498,13.06558252845981,7.80230444564479,193.1400337845683,0.15316279738556013,0.0004755090180691628,-1.5440806374727698,0.00013184547424316406,-1.5443198858089797,1.4054067223201008,18.57291289307702,0.04550617602936042,-1.5528741606925376,-0.01306558252845981,-0.00780230444564479,0.8068599662154318,1.5306962449405859,0.0,0.0,1.0,5156.620156177409,1,-9748.113251603296,-38.99658867332961,-37.831188198085485,401.17420289071214,10000,-38.99658867332961,-37.831188198085485,360,,,,,,,,,,,
1.7293260097503662,17.261547669456373,4.100909634988822,201.94969159000615,0.05559481566391131,0.04223456497577143,-1.5612666440593441,0.005858421325683594,-1.5462600834386522,17.261547669456373,4.100909634988822,0.04964454478386697,-1.5612666440593441,-0.017261547669456374,-0.004100909634988822,0.7980503084099938,0.5460106008458467,0.0,0.0,1.0,5156.620156177409,1,49122.000720877186,-10.381219690718225,-8.898642024720472,-154.4665585984056,49122.000720877186,-10.381219690718225,-8.898642024720472,-154.4665585984056,-112.125,-108.1875,-0.018096923828125,0.0159454345703125,1.16015625,0.16357421875,0.6064453125,-1.076171875,0.0,0.0,0.0
1.739893913269043,20.734531659187425,0.44993897046898423,210.7773302518197,0.01796242648225748,0.03173548444667889,-1.5466186628301357,0.008415699005126953,-1.5480558442381462,20.734531659187425,0.44993897046898423,0.05270227886688435,-1.5466186628301357,-0.020734531659187424,-0.00044993897046898424,0.7892226697481803,1.3852781036663373,0.0,0.0,1.0,5156.620156177409,1,51008.31489452937,-7.679651068794698,-7.603105688978648,140.0467575286351,51008.31489452937,-7.679651068794698,-7.603105688978648,140.0467575286351,-134.75,-119.875,-0.0166473388671875,0.027740478515625,1.12890625,0.134033203125,0.63623046875,-0.97802734375,0.0,0.0,0.0
1.7499101161956787,24.764167636915865,-3.3422865298960986,220.33776731138758,0.027187677482440685,-0.05344633738367833,-1.52865975829443,0.008324861526489258,-1.5491620538817885,20.734531659187425,0.44993897046898423,0.05270227886688435,-1.5466186628301357,-0.024764167636915864,0.0033422865298960987,0.7796622326886125,2.4142475382406303,0.0,0.0,1.0,5156.620156177409,1,48595.97190572776,-9.51616836039592,-8.58834378125025,192.15050514801734,48595.97190572776,-9.51616836039592,-8.58834378125025,192.15050514801734,,,,,,,,,,,
1.7600550651550293,28.711706006062762,-6.936414788599885,229.5109991340341,0.02390390502558136,-0.13368448940255792,-1.5189864389158931,0.00870656967163086,-1.5491418787875786,28.711706006062762,-6.936414788599885,0.06353132968070992,-1.5189864389158931,-0.02871170600606276,0.006936414788599885,0.7704890008659658,2.9684879125128987,0.0,0.0,1.0,5156.620156177409,1,49563.51592833767,-9.157809733833165,-8.022808432802352,125.31174386046497,49563.51592833767,-9.157809733833165,-8.022808432802352,125.31174386046497,-161.625,-132.0,-0.0176239013671875,-0.053314208984375,1.099609375,0.09808349609375,0.6767578125,-0.4833984375,0.0,0.0,0.0
