time,x_pos,y_pos,z_pos,x_rot,y_rot,z_rot,delta_time,z_filtered,x_pos_est,y_pos_est,z_pos_est,z_rot_est,x_error,y_error,z_error,yaw_error,x_setpoint,y_setpoint,z_setpoint,yaw_setpoint,vicon_available,thrust_cal,pitch_cal,roll_cal,yaw_cal,thrust_lim,pitch_lim,roll_lim,yaw_lim,gyro_x,gyro_y,acc_x,acc_y,acc_z,stateEstimate_az,stateEstimate_vz,stateEstimate_yaw,range_zrange,motion_deltaX,motion_deltaY
1.315948247909546,-98.30289173418288,1.1726854979565362,56.94143237246837,-0.0659387223889214,0.0485494871027833,0.03213448086940379,0.0001316070556640625,0.029243339662231808,1,1,1,1,0.09830289173418288,-0.0011726854979565362,0.04305856762753163,1.8411701306607215,0.0,0.0,0.1,0.0,1,7978674.670843722,-144.79832794201428,3478.070180403395,4489.728825290489,65535,-40,40,360,0.01495361328125,-0.0916748046875,-0.059661865234375,0.0158233642578125,1.0,0.0009179115295410156,-0.00589752197265625,-0.02655029296875,6.0,0.0,0.0
1.317723274230957,-98.46510983360399,1.1836345519930935,57.116162925873695,-0.07329375429325373,0.050735117036848965,0.0295617245090915,8.273124694824219e-05,0.029320788159669806,1,1,1,1,0.09846510983360399,-0.0011836345519930936,0.0428838370741263,1.6937620494993884,0.0,0.0,0.1,0.0,1,40897.00669445667,-0.4416479307513391,5.518151879360692,-105.56538915172705,40897.00669445667,-0.4416479307513391,5.518151879360692,-105.56538915172705,,,,,,,,,,,
1.3217921257019043,-98.27169758782199,1.2031540796052784,56.820147058473864,-0.05577465369182676,0.04260929180797079,0.033764452175458176,7.104873657226562e-05,0.029499419508487282,1,1,1,1,0.09827169758782199,-0.0012031540796052784,0.04317985294152613,1.9345606072250645,0.0,0.0,0.1,0.0,1,43868.12378893133,-0.3112680633590763,2.396196504160368,118.01932150377907,43868.12378893133,-0.3112680633590763,2.396196504160368,118.01932150377907,,,,,,,,,,,
1.3241987228393555,-98.27013021855117,1.1753722238781097,56.85739794958057,-0.06656461982715065,0.04983851402062554,0.030784070719533776,0.00013971328735351562,0.029603188649775635,1,1,1,1,0.09827013021855117,-0.0011753722238781097,0.04314260205041943,1.7637973284615407,0.0,0.0,0.1,0.0,1,42371.87395921073,0.01674104561212922,3.4261276018013924,-80.46478119135361,42371.87395921073,0.01674104561212922,3.4261276018013924,-80.46478119135361,,,,,,,,,,,
1.3294272422790527,-98.32574420937857,1.1797058211513334,56.940146522471416,-0.06346247482819814,0.04893706144350465,0.032722489649653325,5.364418029785156e-05,0.02982439742905622,1,1,1,1,0.09832574420937858,-0.0011797058211513334,0.04305985347752858,1.8748605520856554,0.0,0.0,0.1,0.0,1,42367.31608183582,-0.25896605948124085,3.6651912036964718,60.00743416078646,42367.31608183582,-0.25896605948124085,3.6651912036964718,60.00743416078646,-0.074462890625,-0.06817626953125,-0.059234619140625,0.016571044921875,0.99951171875,0.0010824203491210938,-0.00594329833984375,-0.0263824462890625,6.0,0.0,0.0
1.3328027725219727,-98.47665190177514,1.1858766356274872,57.15329504728868,-0.07197607644765615,0.05070417855217042,0.02860069408007907,0.00020313262939453125,0.029962082290380256,1,1,1,1,0.09847665190177514,-0.0011858766356274873,0.04284670495271132,1.6386990619333293,0.0,0.0,0.1,0.0,1,41569.49607570289,-0.29993416106816817,4.405627078564936,-80.00909764046318,41569.49607570289,-0.29993416106816817,4.405627078564936,-80.00909764046318,,,,,,,,,,,
1.3359062671661377,-98.48794371447767,1.1691553911812753,57.19146909697056,-0.07229990772221383,0.05041928213123471,0.02956910603042453,6.318092346191406e-05,0.03008038392615866,1,1,1,1,0.09848794371447767,-0.0011691553911812754,0.04280853090302944,1.6941849795181567,0.0,0.0,0.1,0.0,1,42417.92996363709,-0.1114397831017226,3.5233878269074657,52.26770269527779,42417.92996363709,-0.1114397831017226,3.5233878269074657,52.26770269527779,0.11199951171875,-0.147705078125,-0.058624267578125,0.0167999267578125,1.0,0.0009222030639648438,-0.005977630615234375,-0.026214599609375,6.0,0.0,0.0
1.3401508331298828,-98.47372915996338,1.1680560154855164,57.13547798189536,-0.07213625990535458,0.0488205663288448,0.03000568947239151,6.4849853515625e-05,0.030221971034142776,1,1,1,1,0.09847372915996339,-0.0011680560154855165,0.04286452201810464,1.7191993681481594,0.0,0.0,0.1,0.0,1,42851.56757023223,-0.20838619411511794,3.3683550703782625,34.6209548502553,42851.56757023223,-0.20838619411511794,3.3683550703782625,34.6209548502553,,,,,,,,,,,
1.342329502105713,-98.26033048154599,1.1734400774579774,56.87562044676489,-0.06482416056691338,0.048659726542982756,0.03338843495707426,6.532669067382812e-05,0.030284243460537565,1,1,1,1,0.09826033048154599,-0.0011734400774579773,0.04312437955323511,1.9130164075874172,0.0,0.0,0.1,0.0,1,44650.674616514356,-0.19552337077924822,1.3047754798825975,162.3271776954392,44650.674616514356,-0.19552337077924822,1.3047754798825975,162.3271776954392,,,,,,,,,,,
1.3460142612457275,-98.30618218586208,1.1843581814784832,56.90219753956934,-0.0627984598571118,0.04847105049878443,0.03345520732457849,5.626678466796875e-05,0.030378735805186085,1,1,1,1,0.09830618218586208,-0.0011843581814784832,0.043097802460430656,1.916842182433506,0.0,0.0,0.1,0.0,1,42515.49400401869,-0.2731785234910696,3.703817289239035,30.311752707358565,42515.49400401869,-0.2731785234910696,3.703817289239035,30.311752707358565,0.09051513671875,-0.1759033203125,-0.0601806640625,0.0164947509765625,1.0009765625,0.001544952392578125,-0.006023406982421875,-0.026519775390625,6.0,0.0,0.0
1.3502094745635986,-98.49176566898677,1.1808071954873829,57.137222456112156,-0.07626193981741562,0.04960264676118633,0.028128455422845172,6.747245788574219e-05,0.030477134988149263,1,1,1,1,0.09849176566898678,-0.0011808071954873829,0.04286277754388784,1.6116417799509017,0.0,0.0,0.1,0.0,1,41693.070520557725,-0.20714031434215574,4.396761839834172,-84.31483052439857,41693.070520557725,-0.20714031434215574,4.396761839834172,-84.31483052439857,,,,,,,,,,,
1.3523571491241455,-98.48617403294197,1.1918228519923746,57.16726597421842,-0.07265637823496227,0.05007112879974541,0.02793682779921783,0.00022602081298828125,0.03052373369776946,1,1,1,1,0.09848617403294198,-0.0011918228519923746,0.04283273402578158,1.6006623258789339,0.0,0.0,0.1,0.0,1,42386.64498829995,-0.3028057868875833,3.3817732030615444,16.275442423979918,42386.64498829995,-0.3028057868875833,3.3817732030615444,16.275442423979918,,,,,,,,,,,
1.3556561470031738,-98.48552916132692,1.182209852536443,57.14910783844581,-0.0741294335132185,0.049260251176739,0.028679988041726414,5.984306335449219e-05,0.03058446008975748,1,1,1,1,0.09848552916132693,-0.001182209852536443,0.042850892161554195,1.6432422712765942,0.0,0.0,0.1,0.0,1,42721.51365038027,-0.12270063621132507,3.4401259670941857,44.03986482932135,42721.51365038027,-0.12270063621132507,3.4401259670941857,44.03986482932135,-0.0821533203125,-0.07110595703125,-0.06103515625,0.0180816650390625,1.0,0.0010976791381835938,-0.00601959228515625,-0.0258331298828125,6.0,0.0,0.0
1.3598682880401611,-98.30263579448884,1.201349085248502,56.95180566009229,-0.06425910820421,0.04727312549781766,0.03135263776088279,6.365776062011719e-05,0.030638441026026964,1,1,1,1,0.09830263579448884,-0.001201349085248502,0.04304819433990771,1.7963738203010793,0.0,0.0,0.1,0.0,1,43419.729020818064,-0.2443339009243491,2.4932691571935335,81.3822895793151,43419.729020818064,-0.2443339009243491,2.4932691571935335,81.3822895793151,,,,,,,,,,,
1.3621346950531006,-98.3039798851636,1.1878404519221335,56.96309762623878,-0.06309348611843721,0.04791463422204974,0.03189900490105463,0.00020766258239746094,0.030657026748111185,1,1,1,1,0.0983039798851636,-0.0011878404519221335,0.043036902373761225,1.8276783514975583,0.0,0.0,0.1,0.0,1,42548.42209414153,-0.035258877951515416,3.4538804923429223,48.20815253421117,42548.42209414153,-0.035258877951515416,3.4538804923429223,48.20815253421117,,,,,,,,,,,
1.3653433322906494,-98.47711796694502,1.2028614444031231,57.174422177253696,-0.07104864739565014,0.051500463607758624,0.029322393470490267,5.984306335449219e-05,0.030675076759316546,1,1,1,1,0.09847711796694501,-0.0012028614444031232,0.042825577822746305,1.6800493910810552,0.0,0.0,0.1,0.0,1,41523.0175761051,-0.2970782331778044,4.609326631131112,-43.74233431090494,41523.0175761051,-0.2970782331778044,4.609326631131112,-43.74233431090494,-0.1292724609375,-0.290771484375,-0.060089111328125,0.016845703125,0.99951171875,0.0009732246398925781,0.00732421875,-0.0254364013671875,11.0,0.0,0.0
1.3696680068969727,-98.25972461335782,1.1338908393244345,56.86360459586927,-0.06380621818902704,0.048671279240744936,0.03263371417818131,6.67572021484375e-05,0.030689046581488393,1,1,1,1,0.09825972461335782,-0.0011338908393244344,0.04313639540413073,1.8697740922460249,0.0,0.0,0.1,0.0,1,43847.04724803797,0.22688239883626937,2.357401293083344,93.78317981041994,43847.04724803797,0.22688239883626937,2.357401293083344,93.78317981041994,,,,,,,,,,,
1.3716461658477783,-98.44278155786502,1.1497463417819334,57.064523503890925,-0.07054790628095879,0.051786292686233366,0.027820755700416873,6.031990051269531e-05,0.030692566117621032,1,1,1,1,0.09844278155786503,-0.0011497463417819334,0.04293547649610908,1.5940118844984132,0.0,0.0,0.1,0.0,1,40925.28354155265,-0.3860601721457474,5.450828521050936,-185.90307563347406,40925.28354155265,-0.3860601721457474,5.450828521050936,-185.90307563347406,,,,,,,,,,,
1.373856782913208,-98.2564529172468,1.1708188947690654,56.848252666178645,-0.0662507381932139,0.04895314951793018,0.031620535260222925,8.845329284667969e-05,0.030694753156460322,1,1,1,1,0.0982564529172468,-0.0011708188947690654,0.04315174733382136,1.8117232163553778,0.0,0.0,0.1,0.0,1,44267.88426940787,-0.29775136929661733,1.6193018850423422,173.43546010646156,44267.88426940787,-0.29775136929661733,1.6193018850423422,173.43546010646156,,,,,,,,,,,
1.3793127536773682,-98.48121078213956,1.182782492112428,57.15965128786347,-0.07264646444507634,0.049863985935785976,0.028348040357124904,7.343292236328125e-05,0.030690458947132876,1,1,1,1,0.09848121078213956,-0.001182782492112428,0.04284034871213653,1.624223069929788,0.0,0.0,0.1,0.0,1,41666.07837254204,-0.2205988251330469,4.337629538552069,-27.275986871301644,41666.07837254204,-0.2205988251330469,4.337629538552069,-27.275986871301644,-0.2318115234375,-0.210205078125,-0.05950927734375,0.014892578125,0.998046875,-0.0011110305786132812,0.007213592529296875,-0.02423095703125,11.0,0.0,0.0
1.3814046382904053,-98.46148316063602,1.1789230222263918,57.13046147464262,-0.0710670043868177,0.05006698390268049,0.029750143080566477,6.771087646484375e-05,0.030684835729096405,1,1,1,1,0.09846148316063602,-0.0011789230222263919,0.042869538525357374,1.7045576384267886,0.0,0.0,0.1,0.0,1,42863.55752190763,-0.0949237356855025,3.2400980435730307,83.19251267557708,42863.55752190763,-0.0949237356855025,3.2400980435730307,83.19251267557708,,,,,,,,,,,
1.3834919929504395,-98.26488494668301,1.1664719944841004,56.8956975121804,-0.06635577667071049,0.04901442695174083,0.030690318986039782,0.0001995563507080078,0.03067666194069041,1,1,1,1,0.098264884946683,-0.0011664719944841004,0.0431043024878196,1.7584257498102995,0.0,0.0,0.1,0.0,1,44529.048809935135,0.05365091108989323,1.4015858963197236,65.02490404535929,44529.048809935135,0.05365091108989323,1.4015858963197236,65.02490404535929,,,,,,,,,,,
1.3902523517608643,-98.45582121949846,1.1920414236836598,57.16197174651546,-0.07510569147472974,0.04988690939571511,0.02899810569514789,6.127357482910156e-05,0.030635811061951613,1,1,1,1,0.09845582121949846,-0.0011920414236836598,0.04283802825348454,1.6614690702062502,0.0,0.0,0.1,0.0,1,41963.58505419868,-0.23537677959194686,4.054919176149399,3.3665505718055933,41963.58505419868,-0.23537677959194686,4.054919176149399,3.3665505718055933,,,,,,,,,,,
1.3931500911712646,-98.30265292896877,1.186940621476464,56.95102454092692,-0.06359475475134696,0.04842019569353559,0.03295440842899146,0.0001285076141357422,0.03061288656920453,1,1,1,1,0.09830265292896877,-0.0011869406214764639,0.043048975459073074,1.8881485193315561,0.0,0.0,0.1,0.0,1,43862.93461740654,-0.05650154473607051,2.2910468804566606,145.884158403781,43862.93461740654,-0.05650154473607051,2.2910468804566606,145.884158403781,0.5849609375,0.252197265625,-0.057891845703125,0.01837158203125,0.9990234375,0.0007600784301757812,0.006847381591796875,-0.02630615234375,11.0,0.0,0.0
1.3999998569488525,-98.30638328047567,1.1878348951743827,56.931485701684736,-0.06482781245671008,0.04631571128645636,0.03308442259705712,7.271766662597656e-05,0.030572205127483893,1,1,1,1,0.09830638328047567,-0.0011878348951743828,0.043068514298315264,1.8955977824386232,0.0,0.0,0.1,0.0,1,42682.83798589267,-0.13727983263073582,3.45008905362612,30.062357378688226,42682.83798589267,-0.13727983263073582,3.45008905362612,30.062357378688226,,,,,,,,,,,
1.4018316268920898,-98.25753157022375,1.157889587659318,56.878476606224154,-0.06431182298861027,0.049907288127145774,0.032561951957360814,4.887580871582031e-05,0.03056795799539884,1,1,1,1,0.09825753157022375,-0.001157889587659318,0.04312152339377585,1.8656624198645246,0.0,0.0,0.1,0.0,1,43127.07194219774,0.2350637880487334,2.8632536297860844,3.233061350013095,43127.07194219774,0.2350637880487334,2.8632536297860844,3.233061350013095,,,,,,,,,,,
1.4047398567199707,-98.4728782208204,1.15896728023904,57.13928109288727,-0.0718602714262139,0.05025884802059866,0.028630684015762794,5.2928924560546875e-05,0.03057012353003068,1,1,1,1,0.0984728782208204,-0.00115896728023904,0.042860718907112724,1.6404173586758755,0.0,0.0,0.1,0.0,1,41126.492068481406,-0.20455017957797683,5.047229033851369,-91.42742435626522,41126.492068481406,-0.20455017957797683,5.047229033851369,-91.42742435626522,,,,,,,,,,,
1.4090487957000732,-98.4781886737104,1.1790463175488402,57.16870627353778,-0.07229693674906511,0.04902259964695335,0.02839352981539641,6.29425048828125e-05,0.03058410544595842,1,1,1,1,0.0984781886737104,-0.00117904631754884,0.04283129372646222,1.6268294239010819,0.0,0.0,0.1,0.0,1,42511.61630544953,-0.25530741077168695,3.467170865073824,19.680657665255595,42511.61630544953,-0.25530741077168695,3.467170865073824,19.680657665255595,,,,,,,,,,,
1.412027359008789,-98.47612355018953,1.186907413739743,57.114049501607425,-0.07092372374829571,0.05273950687112045,0.029564475513827435,0.0002181529998779297,0.030593815499329276,1,1,1,1,0.09847612355018953,-0.001186907413739743,0.042885950498392576,1.693919670460178,0.0,0.0,0.1,0.0,1,42935.42531586979,-0.20987135868413878,3.4269448815753,58.64988296489642,42935.42531586979,-0.20987135868413878,3.4269448815753,58.64988296489642,,,,,,,,,,,
1.415379524230957,-98.29663533904116,1.1721171888929376,56.952677036628245,-0.06412926125639835,0.04820007011543574,0.03343765569865842,8.463859558105469e-05,0.030599785314513118,1,1,1,1,0.09829663533904116,-0.0011721171888929376,0.043047322963371756,1.9158365483446935,0.0,0.0,0.1,0.0,1,43440.80750569019,-0.018855016950656084,2.279252987429736,127.98971804587151,43440.80750569019,-0.018855016950656084,2.279252987429736,127.98971804587151,-0.353515625,0.2296142578125,-0.0633544921875,0.0206298828125,0.99072265625,-0.007122039794921875,0.00199127197265625,-0.02972412109375,6.0,0.0,0.0
1.4200942516326904,-98.31267366494966,1.1754798386988918,56.940931364927565,-0.06561010016698751,0.04659663048512714,0.0330408287077692,0.00010085105895996094,0.0306086092794302,1,1,1,1,0.09831267366494965,-0.001175479838698892,0.04305906863507244,1.8931000365698647,0.0,0.0,0.1,0.0,1,42677.076086859386,-0.16808922185646663,3.511006198450564,21.183260498887464,42677.076086859386,-0.16808922185646663,3.511006198450564,21.183260498887464,,,,,,,,,,,
1.4232773780822754,-98.25341661382767,1.2052928058711574,57.02659110794477,-0.06369652979184025,0.04432171970710313,0.03135551326241985,9.608268737792969e-05,0.0306216535990561,1,1,1,1,0.09825341661382767,-0.0012052928058711573,0.04297340889205523,1.7965385744031364,0.0,0.0,0.1,0.0,1,42168.71383101753,-0.34729480257409745,3.0248236670725253,-18.640409341152118,42168.71383101753,-0.34729480257409745,3.0248236670725253,-18.640409341152118,,,,,,,,,,,
1.42647385597229,-98.46954589891985,1.154887923258059,57.13002373319486,-0.07424843225043731,0.048727874518882774,0.02946542453503559,8.654594421386719e-05,0.03064263026280251,1,1,1,1,0.09846954589891985,-0.0011548879232580588,0.04286997626680514,1.6882444674187653,0.0,0.0,0.1,0.0,1,42096.00888572557,0.137859873061006,4.9244324857091915,-25.65864435892677,42096.00888572557,0.137859873061006,4.9244324857091915,-25.65864435892677,1.11328125,1.0205078125,-0.056884765625,0.029296875,1.0107421875,0.007701873779296875,0.0013723373413085938,-0.0269012451171875,6.0,0.0,0.0
1.431962251663208,-98.33871176901506,1.1726189602855281,57.03034256198106,-0.06767761962935073,0.04922749485181027,0.032392950774273815,0.0003063678741455078,0.03068800089908391,1,1,1,1,0.09833871176901507,-0.0011726189602855282,0.04296965743801894,1.8559793653409218,0.0,0.0,0.1,0.0,1,42934.14105421687,-0.21834152023636738,2.920086799838156,73.5829384186374,42934.14105421687,-0.21834152023636738,2.920086799838156,73.5829384186374,,,,,,,,,,,
1.435523509979248,-98.28008568445165,1.1876019797822532,56.88213771866396,-0.06492759736020497,0.04684045906071755,0.032512009156214786,9.489059448242188e-05,0.030721134946538272,1,1,1,1,0.09828008568445165,-0.0011876019797822533,0.04311786228133604,1.862800908141796,0.0,0.0,0.1,0.0,1,43340.00501226136,-0.24734997491591731,3.076071102382833,30.81639821685046,43340.00501226136,-0.24734997491591731,3.076071102382833,30.81639821685046,-1.0791015625,-0.609375,-0.06658935546875,0.02459716796875,0.99755859375,-0.00024771690368652344,0.0015840530395507812,-0.0284271240234375,6.0,0.0,0.0
1.4401624202728271,-98.46663940976046,1.168324407888134,57.145937294489265,-0.06902380399896377,0.050139258056673686,0.029439185464463398,0.00010013580322265625,0.030768549990451633,1,1,1,1,0.09846663940976046,-0.0011683244078881342,0.04285406270551074,1.6867410794166329,0.0,0.0,0.1,0.0,1,41672.51169162171,-0.10541796353771565,4.316683503180602,-31.5667688992064,41672.51169162171,-0.10541796353771565,4.316683503180602,-31.5667688992064,,,,,,,,,,,
1.4427309036254883,-98.47121727926952,1.1716755533301706,57.156494913073914,-0.0726282974014218,0.05236559046639337,0.02954785024810528,0.00012803077697753906,0.030795495207852498,1,1,1,1,0.09847121727926952,-0.0011716755533301706,0.04284350508692609,1.6929671129010149,0.0,0.0,0.1,0.0,1,42558.11974363946,-0.1989860318750573,3.4804229729116902,29.03052411870004,42558.11974363946,-0.1989860318750573,3.4804229729116902,29.03052411870004,,,,,,,,,,,
1.4502334594726562,-98.25812890956107,1.1666399966303564,56.87130280828207,-0.06250950175118258,0.04828481824950552,0.03272224474974506,9.560585021972656e-05,0.030862486251857432,1,1,1,1,0.09825812890956107,-0.0011666399966303565,0.043128697191717934,1.8748465203545088,0.0,0.0,0.1,0.0,1,43276.777310742575,-0.13241007397962867,2.819248969401465,64.51625703500179,43276.777310742575,-0.13241007397962867,2.819248969401465,64.51625703500179,,,,,,,,,,,
1.453523874282837,-98.42532788128837,1.1318307783979902,57.061701902016466,-0.08117609890151743,0.042339619549483586,0.02613454536687892,9.512901306152344e-05,0.030884992474421554,1,1,1,1,0.09842532788128837,-0.0011318307783979903,0.04293829809798353,1.4973991490153418,0.0,0.0,0.1,0.0,1,41660.3019480675,0.034924127853327686,4.55110500167757,-149.64319663895674,41660.3019480675,0.034924127853327686,4.55110500167757,-149.64319663895674,2.458984375,1.9453125,-0.05548095703125,0.03411865234375,1.017578125,0.019561767578125,-0.00807952880859375,-0.047088623046875,4.0,0.0,0.0
1.4585528373718262,-98.47664621962676,1.1698049126643049,57.11393277337818,-0.07358760874426033,0.05059805644311579,0.03010611114338474,0.00010418891906738281,0.030901321702522445,1,1,1,1,0.09847664621962676,-0.0011698049126643048,0.04288606722662182,1.7249531060677228,0.0,0.0,0.1,0.0,1,42455.18578750904,-0.324620629271305,3.65929915336774,93.60923737550414,42455.18578750904,-0.324620629271305,3.65929915336774,93.60923737550414,,,,,,,,,,,
1.460975170135498,-98.47003634033555,1.1495215146216093,57.16150759326632,-0.07296637527806592,0.05044916103710115,0.03126996404600529,0.00010275840759277344,0.030898550866561146,1,1,1,1,0.09847003634033555,-0.0011495215146216094,0.04283849240673368,1.7916369653619306,0.0,0.0,0.1,0.0,1,42292.25441862825,0.039513910948418274,3.3900013642103786,68.23692918807951,42292.25441862825,0.039513910948418274,3.3900013642103786,68.23692918807951,,,,,,,,,,,
1.4637961387634277,-98.30300339043995,1.1694801468467286,56.89960654199565,-0.06343397259623154,0.04930897548965762,0.03365467566630742,8.893013000488281e-05,0.030888109198003024,1,1,1,1,0.09830300339043996,-0.0011694801468467287,0.04310039345800435,1.928270876561047,0.0,0.0,0.1,0.0,1,44208.58197461357,-0.2534188098218479,2.1442145844198377,101.86027903312197,44208.58197461357,-0.2534188098218479,2.1442145844198377,101.86027903312197,2.783203125,1.7099609375,-0.06488037109375,0.01468658447265625,1.017578125,0.0196990966796875,-0.006038665771484375,-0.048583984375,4.0,0.0,0.0
1.4690544605255127,-98.46855769279287,1.1665860263177863,57.10776074542279,-0.0725584403573684,0.04923545588071725,0.030164248193246763,0.00010418891906738281,0.03086432004693218,1,1,1,1,0.09846855769279288,-0.0011665860263177863,0.04289223925457721,1.7282841136581584,0.0,0.0,0.1,0.0,1,41969.20104877847,-0.14667178512031948,4.121902242063008,-30.685471012933622,41969.20104877847,-0.14667178512031948,4.121902242063008,-30.685471012933622,,,,,,,,,,,
1.4714715480804443,-98.48793626421498,1.1374817625181093,57.15936957212698,-0.07188174991844684,0.04855651868237253,0.03112014137057492,0.00010776519775390625,0.030855044844886263,1,1,1,1,0.09848793626421498,-0.0011374817625181093,0.042840630427873026,1.783052758384412,0.0,0.0,0.1,0.0,1,42262.28699526524,0.12088493841671702,3.6286781801492065,61.13103421329306,42262.28699526524,0.12088493841671702,3.6286781801492065,61.13103421329306,,,,,,,,,,,
1.4747235774993896,-98.30779986696366,1.166387597858425,56.92521884654417,-0.06447254749442391,0.045986873987846774,0.034535377386462805,9.179115295410156e-05,0.030846737459765555,1,1,1,1,0.09830779986696367,-0.0011663875978584252,0.04307478115345583,1.978731368135862,0.0,0.0,0.1,0.0,1,43852.28957609371,-0.2976619272958174,2.2269076286857876,120.23656915333024,43852.28957609371,-0.2976619272958174,2.2269076286857876,120.23656915333024,2.388671875,0.6943359375,-0.0723876953125,0.020751953125,1.029296875,0.0249481201171875,-0.004108428955078125,-0.057891845703125,4.0,0.0,0.0
1.4794425964355469,-98.28249036757471,1.1354254487530895,56.87767615927223,-0.06433399602382157,0.05092390664009262,0.03225461514920867,0.00010371208190917969,0.03085080656842364,1,1,1,1,0.0982824903675747,-0.0011354254487530894,0.043122323840727776,1.8480533178683847,0.0,0.0,0.1,0.0,1,42805.426576293095,-0.0021294065300757614,3.32531428618916,-13.697598389335539,42805.426576293095,-0.0021294065300757614,3.32531428618916,-13.697598389335539,,,,,,,,,,,
1.482335090637207,-98.49616133204356,1.1730976529948303,57.174794489670354,-0.06988930652920287,0.05206283246347839,0.02930908974247585,0.0002372264862060547,0.030865046676242743,1,1,1,1,0.09849616133204356,-0.0011730976529948302,0.042825205510329645,1.679287143614039,0.0,0.0,0.1,0.0,1,40896.82934330597,-0.4905807684069885,5.040944720827189,-62.539764944405306,40896.82934330597,-0.4905807684069885,5.040944720827189,-62.539764944405306,,,,,,,,,,,
1.4856879711151123,-98.44221893443557,1.1495980345788885,57.113464637852964,-0.07358759031961479,0.05239593531621148,0.028381849440632156,8.606910705566406e-05,0.030888223778731256,1,1,1,1,0.09844221893443557,-0.0011495980345788885,0.04288653536214704,1.6261601877239589,0.0,0.0,0.1,0.0,1,42937.18475862073,0.001824908358383004,3.0965982548469437,0.5483519244069335,42937.18475862073,0.001824908358383004,3.0965982548469437,0.5483519244069335,6.92578125,8.109375,-0.054412841796875,0.01373291015625,1.072265625,0.0692138671875,-0.00133514404296875,-0.08941650390625,4.0,0.0,0.0
1.4902598857879639,-98.43963161773326,1.158284282219339,57.07096606876813,-0.07437398343041442,0.05047208778274166,0.029122254974245157,0.00010514259338378906,0.030915230731382765,1,1,1,1,0.09843963161773325,-0.0011582842822193391,0.04292903393123187,1.6685822999281155,0.0,0.0,0.1,0.0,1,42787.50261874372,-0.20027235627947243,3.428455046705036,38.89350605006533,42787.50261874372,-0.20027235627947243,3.428455046705036,38.89350605006533,,,,,,,,,,,
1.4931411743164062,-98.47542874250777,1.1600650475426835,57.148319607219946,-0.0726630558153223,0.049481593882159516,0.029747528176744465,0.00024199485778808594,0.030923386354125164,1,1,1,1,0.09847542874250777,-0.0011600650475426834,0.042851680392780055,1.7044078154739546,0.0,0.0,0.1,0.0,1,42173.318139219744,-0.17498048308824166,3.7130262463991137,44.25400834677335,42173.318139219744,-0.17498048308824166,3.7130262463991137,44.25400834677335,,,,,,,,,,,
1.4964570999145508,-98.46250476906529,1.167031895610672,57.112376001378145,-0.0716968580661652,0.04891483065718066,0.0313478305775373,8.487701416015625e-05,0.030922282108506078,1,1,1,1,0.09846250476906529,-0.001167031895610672,0.04288762399862185,1.7960983889840374,0.0,0.0,0.1,0.0,1,42812.98446461861,-0.18975223827379106,3.357064267144956,68.565489750155,42812.98446461861,-0.18975223827379106,3.357064267144956,68.565489750155,7.80859375,8.046875,-0.0460205078125,-0.003879547119140625,1.025390625,0.04022216796875,0.01068115234375,-0.09979248046875,7.0,0.0,0.0
1.5009334087371826,-98.45130263996565,1.161707221645731,57.078304270265214,-0.0754238690052575,0.053284827067971816,0.026501566438482425,0.00010371208190917969,0.03090434498940627,1,1,1,1,0.09845130263996564,-0.001161707221645731,0.04292169572973479,1.5184279074105913,0.0,0.0,0.1,0.0,1,42758.26838235193,-0.11120299059691409,3.389967261767778,-69.92956829810386,42758.26838235193,-0.11120299059691409,3.389967261767778,-69.92956829810386,,,,,,,,,,,
1.503840446472168,-98.3352714218583,1.185499963511769,56.96519194927399,-0.0666246026916159,0.049052269956333466,0.031798200132131034,0.0002551078796386719,0.03088236293551761,1,1,1,1,0.0983352714218583,-0.0011854999635117689,0.04303480805072601,1.821902663683445,0.0,0.0,0.1,0.0,1,43287.91726854247,-0.2825562240857345,2.5670121017265615,184.2012764766043,43287.91726854247,-0.2825562240857345,2.5670121017265615,184.2012764766043,,,,,,,,,,,
1.511026382446289,-98.44862665009619,1.1435813338787435,57.10208532549856,-0.0742786749811331,0.05335546418859194,0.027169622179096707,9.608268737792969e-05,0.03079596513397886,1,1,1,1,0.09844862665009618,-0.0011435813338787435,0.04289791467450144,1.5567046818272763,0.0,0.0,0.1,0.0,1,42309.00029839108,-0.004361535254052001,3.7902566834403384,-32.0438996974542,42309.00029839108,-0.004361535254052001,3.7902566834403384,-32.0438996974542,,,,,,,,,,,
1.5147395133972168,-98.3036498938132,1.2075025827954489,56.82603181852027,-0.05699067667458871,0.043443938648520274,0.03360566312662373,8.749961853027344e-05,0.030737597988384383,1,1,1,1,0.0983036498938132,-0.0012075025827954489,0.04317396818147973,1.9254626648939541,0.0,0.0,0.1,0.0,1,43899.01444538606,-0.4625655453134231,2.57796857393817,178.4355160136819,43899.01444538606,-0.4625655453134231,2.57796857393817,178.4355160136819,13.6640625,5.12890625,-0.045074462890625,0.04229736328125,1.0087890625,0.00970458984375,0.01319122314453125,-0.1163330078125,7.0,0.0,0.0
1.520571231842041,-98.31823485847436,1.1792288401253985,56.91842489016611,-0.061985095430050215,0.04879566710296228,0.033123835442274305,9.036064147949219e-05,0.030652858996791835,1,1,1,1,0.09831823485847435,-0.0011792288401253985,0.04308157510983389,1.8978559721281703,0.0,0.0,0.1,0.0,1,42366.05954210396,-0.012318581407361917,3.4970274018839502,21.371361835591706,42366.05954210396,-0.012318581407361917,3.4970274018839502,21.371361835591706,,,,,,,,,,,
1.5228607654571533,-98.31527918919227,1.1645552828990344,56.9733869997461,-0.06340424520959372,0.04560206662520612,0.0333113404951067,8.58306884765625e-05,0.030628476413952162,1,1,1,1,0.09831527918919226,-0.0011645552828990343,0.043026613000253906,1.9085992202928441,0.0,0.0,0.1,0.0,1,42222.959178627796,0.01692718912882729,3.41532831016152,35.69027885235823,42222.959178627796,0.01692718912882729,3.41532831016152,35.69027885235823,,,,,,,,,,,
1.5263550281524658,-98.2790863481634,1.1492980337982746,56.87640699571901,-0.06901545426314927,0.04773256087722402,0.03151409224240672,6.937980651855469e-05,0.030608505677391713,1,1,1,1,0.0982790863481634,-0.0011492980337982745,0.043123593004280994,1.8056244806758734,0.0,0.0,0.1,0.0,1,43107.20497572675,-0.03134269059361766,3.214926989165267,-17.27144844176029,43107.20497572675,-0.03134269059361766,3.214926989165267,-17.27144844176029,9.46875,-1.1396484375,-0.07470703125,0.04486083984375,0.9833984375,-0.018890380859375,0.01336669921875,-0.1590576171875,7.0,0.0,0.0
1.530827522277832,-98.28301737744623,1.1610451620530953,56.87903143425036,-0.06646425656469977,0.04652578059615459,0.031931703147954536,8.702278137207031e-05,0.030611612254661098,1,1,1,1,0.09828301737744623,-0.0011610451620530952,0.043120968565749644,1.8295518230424,0.0,0.0,0.1,0.0,1,42626.122447937545,-0.20474675449216934,3.454247505830222,35.44082405423384,42626.122447937545,-0.20474675449216934,3.454247505830222,35.44082405423384,,,,,,,,,,,
1.5331764221191406,-98.4924454853846,1.160196706215158,57.16871329280969,-0.07134683720015643,0.049572104295333444,0.02917970651167394,8.654594421386719e-05,0.030624017204648003,1,1,1,1,0.09849244548538459,-0.0011601967062151578,0.04283128670719031,1.6718740305493225,0.0,0.0,0.1,0.0,1,40551.69849993456,-0.20892765202105829,5.382332316223621,-75.83978309693077,40551.69849993456,-0.20892765202105829,5.382332316223621,-75.83978309693077,,,,,,,,,,,
1.5365173816680908,-98.44872239891545,1.171908395223639,57.11814061476512,-0.07292427084215379,0.04910033962534264,0.031329825776502986,7.653236389160156e-05,0.03064881885637232,1,1,1,1,0.09844872239891544,-0.0011719083952236391,0.04288185938523488,1.7950667898737982,0.0,0.0,0.1,0.0,1,42883.72072449668,-0.22991431931054054,3.155479912654913,82.3390157044399,42883.72072449668,-0.22991431931054054,3.155479912654913,82.3390157044399,13.2578125,16.640625,-0.081298828125,0.047027587890625,1.0478515625,0.042999267578125,0.0201416015625,-0.2039794921875,11.0,0.0,0.0
1.5408616065979004,-98.30014441721893,1.215698020531696,56.87599236443304,-0.05612272907981817,0.04560239236791445,0.033699390265369104,8.869171142578125e-05,0.03068912501986597,1,1,1,1,0.09830014441721893,-0.001215698020531696,0.04312400763556696,1.930832834369901,0.0,0.0,0.1,0.0,1,43573.883543213306,-0.363290408904073,2.6899294437263417,75.72511680336595,43573.883543213306,-0.363290408904073,2.6899294437263417,75.72511680336595,,,,,,,,,,,
1.5432312488555908,-98.48869002553302,1.174399595705668,57.138452389041056,-0.07371179688028827,0.049866161979214625,0.029239627092077607,8.487701416015625e-05,0.03071467075163008,1,1,1,1,0.09848869002553302,-0.0011743995957056682,0.04286154761095894,1.675307226912427,0.0,0.0,0.1,0.0,1,40763.87512686561,0.15552373838674047,5.183431943872956,-136.89701084565547,40763.87512686561,0.15552373838674047,5.183431943872956,-136.89701084565547,,,,,,,,,,,
1.550157070159912,-98.47030490505354,1.15739024794751,57.14868278623491,-0.0710507285573569,0.05169418603577944,0.02906656546810504,8.130073547363281e-05,0.03078735348992131,1,1,1,1,0.09847030490505354,-0.00115739024794751,0.042851317213765096,1.665391526263119,0.0,0.0,0.1,0.0,1,42602.1269503688,-0.11404472304133349,3.3868510918555668,22.839367475516493,42602.1269503688,-0.11404472304133349,3.3868510918555668,22.839367475516493,,,,,,,,,,,
1.5529193878173828,-98.49220454749283,1.1655405258964522,57.18684395893949,-0.0729877183991502,0.04890370368167216,0.02931757801862644,7.605552673339844e-05,0.030809354130309562,1,1,1,1,0.09849220454749283,-0.001165540525896452,0.04281315604106051,1.6797734860128095,0.0,0.0,0.1,0.0,1,42391.637485859144,-0.23405380230938017,3.615127227062354,33.0743201170204,42391.637485859144,-0.23405380230938017,3.615127227062354,33.0743201170204,27.90625,16.1875,-0.042266845703125,-0.023529052734375,1.1142578125,0.11370849609375,0.033416748046875,-0.2269287109375,11.0,0.0,0.0
1.556035041809082,-98.44423673692451,1.1883813643479386,57.109763023232674,-0.06968760334868987,0.04959486320465313,0.03126275904537779,9.083747863769531e-05,0.030824532393887598,1,1,1,1,0.09844423673692451,-0.0011883813643479386,0.042890236976767325,1.791224149234586,0.0,0.0,0.1,0.0,1,43044.75973293057,-0.3063561285296874,3.1045181462924103,80.35325497922243,43044.75973293057,-0.3063561285296874,3.1045181462924103,80.35325497922243,,,,,,,,,,,
1.56032395362854,-98.29873738734904,1.1705082947945582,56.92706094931648,-0.06264111388337645,0.04857284754121038,0.03398721455754623,8.96453857421875e-05,0.030833893786178974,1,1,1,1,0.09829873738734904,-0.0011705082947945581,0.043072939050683524,1.9473239515529908,0.0,0.0,0.1,0.0,1,43352.04003161054,-0.038524615669016174,2.7038025438649633,83.84050053128796,43352.04003161054,-0.038524615669016174,2.7038025438649633,83.84050053128796,,,,,,,,,,,
1.5626311302185059,-98.43257616051353,1.154127515867413,57.11460535275643,-0.06957407142583609,0.05112854413167263,0.030160056826552793,0.0001862049102783203,0.03083712841234475,1,1,1,1,0.09843257616051354,-0.0011541275158674128,0.04288539464724357,1.7280439660362021,0.0,0.0,0.1,0.0,1,41256.07491620894,-0.03391249609362486,4.710597559471391,-117.26464207245779,41256.07491620894,-0.03391249609362486,4.710597559471391,-117.26464207245779,,,,,,,,,,,
1.5659515857696533,-98.48691606080605,1.1729282623235,57.17069197511808,-0.07301886210026041,0.05065932113800549,0.02899841747041858,7.62939453125e-05,0.030842695814465772,1,1,1,1,0.09848691606080605,-0.0011729282623235001,0.04282930802488192,1.6614869336134175,0.0,0.0,0.1,0.0,1,42344.14033998741,-0.28463152249890056,3.7950755405275376,-5.142360052269378,42344.14033998741,-0.28463152249890056,3.7950755405275376,-5.142360052269378,45.0,15.125,-0.07904052734375,-0.004459381103515625,1.1103515625,0.11602783203125,0.044189453125,-0.2427978515625,11.0,0.0,0.0
1.5703418254852295,-98.397856199658,1.273297811374316,57.26386382828118,-0.0649993960874218,0.06173908707646193,0.03494674560169929,8.749961853027344e-05,0.030850533835393826,1,1,1,1,0.09839785619965799,-0.001273297811374316,0.04273613617171882,2.002301030694742,0.0,0.0,0.1,0.0,1,42260.30035878509,-0.6357445466490463,2.986562071560593,146.18298498898847,42260.30035878509,-0.6357445466490463,2.986562071560593,146.18298498898847,,,,,,,,,,,
1.5726633071899414,-98.50648879990837,1.1298339472204821,56.863189858676165,-0.060542816887961065,0.07655735739972555,0.04246162019148171,0.000194549560546875,0.030857549321616422,1,1,1,1,0.09850648879990836,-0.0011298339472204822,0.04313681014132383,2.4328716282593805,0.0,0.0,0.1,0.0,1,45598.43493886565,1.1606052230035644,4.504178672969609,315.56137250482516,45598.43493886565,1.1606052230035644,4.504178672969609,315.56137250482516,,,,,,,,,,,
1.575943946838379,-98.37916792927558,0.9520277354209838,56.79755881741725,-0.05437211617604447,0.04124692186051213,0.015957430455107724,7.581710815429688e-05,0.030877778878958886,1,1,1,1,0.09837916792927558,-0.0009520277354209838,0.043202441182582756,0.914293416951197,0.0,0.0,0.1,0.0,1,42973.13440538257,1.0511943754837105,2.6327622661930916,-682.1897431848129,42973.13440538257,1.0511943754837105,2.6327622661930916,-360,60.34375,8.3359375,-0.06512451171875,-0.002674102783203125,1.1171875,0.11669921875,0.05517578125,-0.309814453125,11.0,0.0,0.0
1.5803472995758057,-98.51182008611895,1.2052593765321782,56.78577918110407,-0.05603639448073019,0.06608623876858932,0.027213027080439826,9.1552734375e-05,0.030900674322540254,1,1,1,1,0.09851182008611895,-0.0012052593765321782,0.043214220818895935,1.5591915994844185,0.0,0.0,0.1,0.0,1,42694.795663509925,-1.4231150239162296,4.057242529431598,242.32530869374114,42694.795663509925,-1.4231150239162296,4.057242529431598,242.32530869374114,,,,,,,,,,,
1.582646369934082,-98.45904410549892,0.9340497702401933,56.93512074881791,-0.05438662055206579,0.04521473482260216,0.019365224488100047,0.00019502639770507812,0.030896513830236748,1,1,1,1,0.09845904410549892,-0.0009340497702401933,0.04306487925118209,1.1095456324915227,0.0,0.0,0.1,0.0,1,41530.80976528201,2.448668570568144,3.023193995418099,-277.7607927124665,41530.80976528201,2.448668570568144,3.023193995418099,-277.7607927124665,,,,,,,,,,,
1.5859689712524414,-98.15592761705688,1.0484690719393335,56.90427599849361,-0.050414162233363015,0.044692185886403044,0.023677143808742057,7.748603820800781e-05,0.03085279779681503,1,1,1,1,0.09815592761705688,-0.0010484690719393334,0.04309572400150639,1.3566004111652272,0.0,0.0,0.1,0.0,1,42778.27950950203,-0.8009845404686834,1.430041168507909,132.01897309149237,42778.27950950203,-0.8009845404686834,1.430041168507909,132.01897309149237,71.0,5.16015625,-0.063720703125,-0.00618743896484375,1.130859375,0.1282958984375,0.0679931640625,-0.39990234375,11.0,0.0,0.0
1.5904262065887451,-98.02471979113777,1.101133663825012,56.88636006191416,-0.0537781959905709,0.036160791172955,0.024693368059061794,9.1552734375e-05,0.03071607742992222,1,1,1,1,0.09802471979113778,-0.001101133663825012,0.04311363993808584,1.4148257717473942,0.0,0.0,0.1,0.0,1,42697.27377182322,-0.31473352688648093,2.7865083289567605,40.74916131964577,42697.27377182322,-0.31473352688648093,2.7865083289567605,40.74916131964577,,,,,,,,,,,
1.5925779342651367,-98.18099852709099,1.1181019505915781,56.82658375987733,-0.06399650557501613,0.029060635900551773,0.025033804060590262,8.463859558105469e-05,0.03061952603615529,1,1,1,1,0.09818099852709099,-0.0011181019505915781,0.04317341624012267,1.4343313178292847,0.0,0.0,0.1,0.0,1,43133.86792789578,-0.26875190196866255,5.01373353317331,35.167020599588156,43133.86792789578,-0.26875190196866255,5.01373353317331,35.167020599588156,,,,,,,,,,,
1.596421241760254,-97.97300566277731,1.0809209799455526,56.86211251710373,-0.07120029171197279,0.06286084584063889,0.022530455016613517,7.963180541992188e-05,0.030404929891173087,1,1,1,1,0.09797300566277731,-0.0010809209799455526,0.04313788748289627,1.2908999829613077,0.0,0.0,0.1,0.0,1,42468.249815147115,0.22240742832302046,2.263430563710427,-36.650897049071574,42468.249815147115,0.22240742832302046,2.263430563710427,-36.650897049071574,85.125,-2.87890625,-0.060577392578125,0.01641845703125,1.1435546875,0.1466064453125,0.0804443359375,-0.51171875,11.0,0.0,0.0
1.6007251739501953,-98.15303645534338,1.145918029543378,56.98568955591871,-0.07207969305799335,0.04711564521270801,0.025754113934310357,8.7738037109375e-05,0.030110644421411127,1,1,1,1,0.09815303645534339,-0.001145918029543378,0.043014310444081286,1.4756020335350473,0.0,0.0,0.1,0.0,1,42156.61591086195,-0.35282363401874606,4.334613381076516,86.39575832996024,42156.61591086195,-0.35282363401874606,4.334613381076516,86.39575832996024,,,,,,,,,,,
1.6031074523925781,-98.23678672598055,1.2171726573591084,57.27297333232701,-0.061958898560757335,0.05503191041166438,0.014407949857410129,0.00019788742065429688,0.029926985631387345,1,1,1,1,0.09823678672598055,-0.0012171726573591084,0.04272702666767299,0.8255147182657167,0.0,0.0,0.1,0.0,1,40578.377425778424,-0.6538977241397477,4.186858808560391,-397.64191483254274,40578.377425778424,-0.6538977241397477,4.186858808560391,-360,,,,,,,,,,,
1.6064112186431885,-98.13267986694319,1.1962549725917682,57.09259577458529,-0.05790719541717006,0.07430940586990464,0.019947831032526075,7.772445678710938e-05,0.02964451529895706,1,1,1,1,0.0981326798669432,-0.001196254972591768,0.04290740422541471,1.1429265286038353,0.0,0.0,0.1,0.0,1,43553.55010021522,0.1967487372521135,2.758693289711979,161.60153961182795,43553.55010021522,0.1967487372521135,2.758693289711979,161.60153961182795,85.0,-12.796875,-0.07293701171875,0.04083251953125,1.130859375,0.1365966796875,0.09356689453125,-0.6962890625,11.0,0.0,0.0
1.6107382774353027,-98.19533956889215,1.1293897484059743,57.62590232381355,-0.07062189102644202,0.03154201907663591,0.01785776695191348,9.679794311523438e-05,0.029214688707096623,1,1,1,1,0.09819533956889215,-0.0011293897484059743,0.042374097676186454,1.0231746778728428,0.0,0.0,0.1,0.0,1,40535.2075958152,0.3946070069833961,3.764964024572163,-25.905925240252486,40535.2075958152,0.3946070069833961,3.764964024572163,-25.905925240252486,,,,,,,,,,,
1.6130340099334717,-98.05316283926446,1.509036221245988,57.713010395828796,-0.0626807615210422,0.07275147265708579,0.011211682652412963,8.988380432128906e-05,0.02896018356132242,1,1,1,1,0.09805316283926446,-0.001509036221245988,0.0422869896041712,0.6423820972233031,0.0,0.0,0.1,0.0,1,41969.027133472046,-3.478058969485925,1.9844812224486976,-240.3371156079099,41969.027133472046,-3.478058969485925,1.9844812224486976,-240.3371156079099,,,,,,,,,,,
1.6161270141601562,-98.1326102502715,1.2373762164944782,57.786302729883005,-0.06400044555374332,0.05585960398185726,0.014545345649444283,8.225440979003906e-05,0.02858104125888708,1,1,1,1,0.0981326102502715,-0.0012373762164944783,0.04221369727011699,0.8333869172721308,0.0,0.0,0.1,0.0,1,42219.127778227914,2.0095299016384853,4.055480627756361,105.20298852534881,42219.127778227914,2.0095299016384853,4.055480627756361,105.20298852534881,74.0,-23.90625,-0.07781982421875,0.04632568359375,1.1123046875,0.12322998046875,0.10589599609375,-0.9072265625,11.0,0.0,0.0
1.621281385421753,-97.98239753873457,1.4192411998543955,58.098926947103024,-0.04103060861907878,0.056683192275219646,0.01423702379786165,9.799003601074219e-05,0.02785159136014068,1,1,1,1,0.09798239753873457,-0.0014192411998543955,0.041901073052896975,0.815721376444787,0.0,0.0,0.1,0.0,1,41564.498846692106,-0.5909605880391272,2.786828139590404,7.107690123373847,41564.498846692106,-0.5909605880391272,2.786828139590404,7.107690123373847,,,,,,,,,,,
1.6240596771240234,-98.01312412006243,1.2909866776088454,58.32206237944693,-0.06668760934834074,0.04771612509989466,0.018484613236662662,0.00021791458129882812,0.027411885810286304,1,1,1,1,0.09801312412006243,-0.0012909866776088454,0.041677937620553066,1.0590903243924268,0.0,0.0,0.1,0.0,1,41228.78720069471,1.1932079623899838,3.709870402337573,147.52981009577772,41228.78720069471,1.1932079623899838,3.709870402337573,147.52981009577772,52.375,-43.59375,-0.054718017578125,0.0270538330078125,1.099609375,0.09674072265625,0.08544921875,-0.501953125,8.0,0.0,0.0
1.6272170543670654,-97.72761195126773,1.5607547553151866,58.24051850642615,-0.06274208174527121,0.057636088692549076,0.020597396479262762,9.703636169433594e-05,0.02688463606447564,1,1,1,1,0.09772761195126774,-0.0015607547553151866,0.04175948149357385,1.1801438872193772,0.0,0.0,0.1,0.0,1,43014.70700715989,-1.590867299354358,1.4235438420650892,75.13396316229823,43014.70700715989,-1.590867299354358,1.4235438420650892,75.13396316229823,,,,,,,,,,,
1.632199764251709,-97.81966606625859,1.7807170552413847,59.076421075512734,-0.08361833975093808,0.05688088656992902,0.022380481654116505,0.0002338886260986328,0.02603919119516199,1,1,1,1,0.0978196660662586,-0.0017807170552413846,0.04092357892448727,1.2823071422508432,0.0,0.0,0.1,0.0,1,39692.66090112343,-0.7598674195920553,3.811975430329327,49.98846473410938,39692.66090112343,-0.7598674195920553,3.811975430329327,49.98846473410938,,,,,,,,,,,
1.6355006694793701,-97.55994403628912,1.9519206265333156,59.90935075437371,-0.08986435280065344,0.06400252117284332,0.02136242767642543,8.511543273925781e-05,0.02549496746021428,1,1,1,1,0.09755994403628912,-0.0019519206265333155,0.04009064924562629,1.2239769460126388,0.0,0.0,0.1,0.0,1,38222.344678535286,-0.8901104836642928,1.6843588710881212,-8.260240130427576,38222.344678535286,-0.8901104836642928,1.6843588710881212,-8.260240130427576,17.796875,-64.125,-0.0161590576171875,0.0045928955078125,1.138671875,0.1292724609375,0.09442138671875,-0.81640625,8.0,0.0,0.0
1.6432161331176758,-97.18057643475164,1.9916444614964024,60.488789724316895,-0.07680557450540963,0.0532350806277934,0.016899641495861473,9.703636169433594e-05,0.024333733820278917,1,1,1,1,0.09718057643475164,-0.0019916444614964026,0.039511210275683106,0.9682781329970157,0.0,0.0,0.1,0.0,1,41242.59119605567,0.07980320044773992,2.345396326318161,-35.100043914108255,41242.59119605567,0.07980320044773992,2.345396326318161,-35.100043914108255,-20.1875,-80.875,-0.00537109375,-0.0232696533203125,1.11328125,0.10491943359375,0.10626220703125,-1.2001953125,8.0,0.0,0.0
1.6463780403137207,-96.8607079642326,2.273372730881284,61.429705806929974,-0.09318574947438209,0.06513676859663645,0.007025170255382739,9.870529174804688e-05,0.02390293175189056,1,1,1,1,0.0968607079642326,-0.002273372730881284,0.03857029419307002,0.40251260599427363,0.0,0.0,0.1,0.0,1,37422.988890798304,-1.755264505508417,1.1573961638311112,-262.58271083873757,37422.988890798304,-1.755264505508417,1.1573961638311112,-262.58271083873757,,,,,,,,,,,
1.6501333713531494,-96.28525764901397,2.4147320235203034,62.485900816629304,-0.05847952510594702,0.08224335750561709,0.003784507888976452,9.226799011230469e-05,0.023395652736913936,1,1,1,1,0.09628525764901397,-0.0024147320235203035,0.037514099183370696,0.2168363295723154,0.0,0.0,0.1,0.0,1,37666.472311053665,-0.618638053312591,0.03620413200447459,-70.93137093579467,37666.472311053665,-0.618638053312591,0.03620413200447459,-70.93137093579467,,,,,,,,,,,
1.653210163116455,-95.78799942372707,2.7771079765520783,63.25951645829774,-0.05518253512382242,0.11318981953262605,0.0029999592779259157,8.678436279296875e-05,0.022957316949522157,1,1,1,1,0.09578799942372707,-0.0027771079765520784,0.036740483541702264,0.1718850053362689,0.0,0.0,0.1,0.0,1,38147.64239553475,-2.3562100617703416,-0.21008315524197752,-19.3892003411786,38147.64239553475,-2.3562100617703416,-0.21008315524197752,-19.3892003411786,-47.28125,-79.4375,-0.00024378299713134766,-0.01171112060546875,1.1025390625,0.0870361328125,0.11676025390625,-1.6083984375,8.0,0.0,0.0
1.6563916206359863,-95.25336221569133,2.8214325557690696,64.40837945778084,-0.05165613807836983,0.13034117360261138,0.00360846924832993,9.560585021972656e-05,0.022459067310091695,1,1,1,1,0.09525336221569132,-0.0028214325557690697,0.03559162054221916,0.20675005843204958,0.0,0.0,0.1,0.0,1,36270.772329471714,-0.06899499734097227,-0.2942777331824247,19.492817719237273,36270.772329471714,-0.06899499734097227,-0.2942777331824247,19.492817719237273,,,,,,,,,,,
1.662794828414917,-94.69406045019714,3.0778636534603248,65.47104441217756,-0.041767243824487585,0.10842207136122002,-0.006259371015690019,9.393692016601562e-05,0.021271782991616944,1,1,1,1,0.09469406045019714,-0.0030778636534603246,0.03452895558782244,-0.3586355416055535,0.0,0.0,0.1,0.0,1,39539.39876533865,-0.6240353628367807,1.4164338349627612,-137.9043505925151,39539.39876533865,-0.6240353628367807,1.4164338349627612,-137.9043505925151,,,,,,,,,,,
1.665036678314209,-94.00876718459928,3.6150753895621763,66.7315442045121,-0.06393426303125586,0.094516589306198,-0.01063890672151937,7.462501525878906e-05,0.02079088838950917,1,1,1,1,0.09400876718459927,-0.0036150753895621765,0.03326845579548789,-0.6095644537764233,0.0,0.0,0.1,0.0,1,32727.105576977203,-4.849593252003955,-3.4826878492359454,-178.38748589443497,32727.105576977203,-4.849593252003955,-3.4826878492359454,-178.38748589443497,,,,,,,,,,,
1.670058012008667,-93.27686339572826,4.027514131522236,68.70411771235538,-0.03177010642269403,0.09584529495613163,-0.02315374197409573,8.20159912109375e-05,0.01952597843728987,1,1,1,1,0.09327686339572826,-0.004027514131522236,0.031295882287644614,-1.3266116950505884,0.0,0.0,0.1,0.0,1,35599.30173924609,-1.4091742642260072,0.10027064285875076,-233.68323231125754,35599.30173924609,-1.4091742642260072,0.10027064285875076,-233.68323231125754,-64.1875,-57.8125,-0.00399017333984375,0.00162506103515625,1.15234375,0.143310546875,0.0372314453125,-2.14453125,6.0,32.0,-31.0
1.6737089157104492,-92.73259924600082,4.5092976844972865,70.46524738660005,-0.025874027067198963,0.11472038321685506,-0.023631899502187068,9.703636169433594e-05,0.018416122182610867,1,1,1,1,0.09273259924600082,-0.004509297684497287,0.029534752613399946,-1.35400810335263,0.0,0.0,0.1,0.0,1,34046.95786579746,-2.399417450491005,0.004690996145493287,-31.526578724124953,34046.95786579746,-2.399417450491005,0.004690996145493287,-31.526578724124953,,,,,,,,,,,
1.676168441772461,-91.46629666651164,5.026834065934693,71.53573894251191,-0.0062202893386425,0.10065402785549521,-0.02995513876649029,9.417533874511719e-05,0.017564681036082604,1,1,1,1,0.09146629666651164,-0.0050268340659346935,0.02846426105748809,-1.7163030260486125,0.0,0.0,0.1,0.0,1,34850.205241021096,-3.9193882047357382,-8.04924025002081,-247.60191011383358,34850.205241021096,-3.9193882047357382,-8.04924025002081,-247.60191011383358,-70.8125,-27.5625,-0.004215240478515625,-0.0096893310546875,1.1171875,0.1181640625,-0.052642822265625,1.8232421875,6.0,32.0,-18.0
1.6821718215942383,-90.30614844115871,5.394648368035057,73.48005348485037,-0.02272451436778392,0.11048055346884511,-0.04304966599473663,0.0009877681732177734,0.01505877567321132,1,1,1,1,0.09030614844115871,-0.005394648368035057,0.026519946515149627,-2.466564170946268,0.0,0.0,0.1,0.0,1,36640.675082183916,-0.6731213673546763,-0.978757029492082,-223.62064979517584,36640.675082183916,-0.6731213673546763,-0.978757029492082,-223.62064979517584,,,,,,,,,,,
1.6925678253173828,-88.65402188984606,6.063208283188506,75.4170744933578,-0.01949778307942693,0.08069642248799859,-0.03960721846907063,0.007630825042724609,0.009319834227357205,1,1,1,1,0.08865402188984606,-0.006063208283188506,0.0245829255066422,-2.2693264565303526,0.0,0.0,0.1,0.0,1,38889.44127593114,-0.5238383090374541,-0.2868642061487985,-5.5459266576385,38889.44127593114,-0.5238383090374541,-0.2868642061487985,-5.5459266576385,-68.625,-8.5703125,0.0121612548828125,0.005130767822265625,1.10546875,0.102294921875,-0.01038360595703125,4.11328125,6.0,48.0,-26.0
1.7022452354431152,-87.51966499933204,6.743348684714301,77.3385698820753,-0.0005712205268810862,0.07321922416540154,-0.059897900577219436,0.007246255874633789,0.002564715007601886,1,1,1,1,0.08751966499933203,-0.0067433486847143015,0.022661430117924694,-3.431896904768891,0.0,0.0,0.1,0.0,1,38629.47663068819,-0.4201158033708414,0.6155429589350936,-231.61491357530252,38629.47663068819,-0.4201158033708414,0.6155429589350936,-231.61491357530252,-64.6875,2.142578125,0.0077972412109375,-0.009979248046875,1.09375,0.08709716796875,0.10498046875,4.6484375,6.0,27.0,-14.0
1.7131590843200684,-85.97805735500914,7.263191942745144,78.81462900360455,-0.010417756119281791,0.05092260834083649,-0.06216271872017573,0.00909423828125,-0.006210882747486613,1,1,1,1,0.08597805735500914,-0.0072631919427451445,0.021185370996395447,-3.5616614257249437,0.0,0.0,0.1,0.0,1,39661.02110469079,0.2388460719762359,0.06898715430487501,-71.24808372172718,39661.02110469079,0.2388460719762359,0.06898715430487501,-71.24808372172718,-58.78125,7.94140625,-0.00328826904296875,-0.01427459716796875,1.0693359375,0.06756591796875,0.2418212890625,5.90625,6.0,42.0,-22.0
1.7224247455596924,-84.51303488048693,7.891502469290861,81.02304275342249,-0.030089994107244233,0.04723431416964738,-0.054373195439158126,0.007422208786010742,-0.014178360623438462,1,1,1,1,0.08451303488048692,-0.007891502469290861,0.01897695724657751,-3.1153546173037374,0.0,0.0,0.1,0.0,1,37838.67013519094,-0.14856447816213866,-0.33080007402805567,25.558629783577807,37838.67013519094,-0.14856447816213866,-0.33080007402805567,25.558629783577807,,,,,,,,,,,
1.7323153018951416,-83.00735680059942,8.435920225319268,82.90030470668988,-0.017653259127847796,0.04305061689359563,-0.06978706375746375,0.008361339569091797,-0.02257470907102174,1,1,1,1,0.08300735680059942,-0.008435920225319268,0.01709969529331012,-3.998504217913062,0.0,0.0,0.1,0.0,1,38606.938578021014,0.061182458049231114,-0.25041570707741334,-194.01927063266243,38606.938578021014,0.061182458049231114,-0.25041570707741334,-194.01927063266243,-45.46875,18.1875,-0.0210723876953125,-0.03521728515625,1.04296875,0.03179931640625,0.52490234375,6.73828125,15.0,27.0,-12.0
1.7424402236938477,-81.4799096393978,9.148394831118095,85.20681236119056,-0.03593219715133697,0.016207740109329752,-0.06178169031297288,0.008464574813842773,-0.03058944434210013,1,1,1,1,0.0814799096393978,-0.009148394831118095,0.014793187638809442,-3.539830106117628,0.0,0.0,0.1,0.0,1,37897.20577811547,-0.4298844150797323,-0.2557225167661432,14.805226009535751,37897.20577811547,-0.4298844150797323,-0.2557225167661432,14.805226009535751,,,,,,,,,,,
1.752394437789917,-79.76958553677831,9.817521295254457,87.08286438540655,-0.02358069428736971,0.026221670137354866,-0.06667796861754098,0.008437633514404297,-0.03764501387446813,1,1,1,1,0.0797695855367783,-0.009817521295254457,0.012917135614593449,-3.8203661882908504,0.0,0.0,0.1,0.0,1,38502.78109057413,-0.5794709093411292,-0.7759065049798046,-99.6484244129052,38502.78109057413,-0.5794709093411292,-0.7759065049798046,-99.6484244129052,,,,,,,,,,,
1.7620854377746582,-78.29854494126174,10.702278613183765,88.79224479338087,-0.02816274045496895,0.005277700585445199,-0.06185242067953591,0.008222579956054688,-0.04357482879417851,1,1,1,1,0.07829854494126173,-0.010702278613183765,0.011207755206619126,-3.5438826576051032,0.0,0.0,0.1,0.0,1,38672.62139044834,-1.3138675329916978,-0.35331517132967694,-10.497688839330308,38672.62139044834,-1.3138675329916978,-0.35331517132967694,-10.497688839330308,-46.90625,18.453125,-0.01299285888671875,-0.01068115234375,0.99755859375,0.0,0.0037078857421875,-0.15478515625,28.0,34.0,-7.0
1.7719223499298096,-76.4822249573078,11.179872481455396,91.30957663667274,-0.041969852247547804,0.0009039723879607647,-0.05153266641767038,0.008111238479614258,-0.0484572103882872,1,1,1,1,0.0764822249573078,-0.011179872481455397,0.008690423363327255,-2.952604292788064,0.0,0.0,0.1,0.0,1,37231.36954163974,-0.659108346760599,-1.1859288338592853,45.96500106656636,37231.36954163974,-0.659108346760599,-1.1859288338592853,45.96500106656636,,,,,,,,,,,
1.782311201095581,-74.59682384889294,11.964842079860821,93.56547182507828,-0.04837067771318112,0.0055434000593023395,-0.03574497273833501,0.008869409561157227,-0.05200457113899377,1,1,1,1,0.07459682384889293,-0.011964842079860821,0.006434528174921724,-2.048036076716781,0.0,0.0,0.1,0.0,1,37834.36818364109,-1.5528538240583636,-1.15952726832922,99.72438253153878,37834.36818364109,-1.5528538240583636,-1.15952726832922,99.72438253153878,-33.0,14.6953125,-0.00885772705078125,-0.0169830322265625,1.0078125,0.01113128662109375,0.00475311279296875,0.278564453125,28.0,21.0,-6.0
1.7924528121948242,-73.20975565651649,12.65736973780238,95.91206462119,-0.025282502888709615,-0.00043167243009306774,-0.04650817497595616,0.008176088333129883,-0.05358023546758811,1,1,1,1,0.0732097556565165,-0.01265736973780238,0.004087935378810002,-2.664722138978237,0.0,0.0,0.1,0.0,1,37507.816566265705,-1.6935901487461755,-0.2813547515833492,-131.3862513988249,37507.816566265705,-1.6935901487461755,-0.2813547515833492,-131.3862513988249,-6.61328125,-0.8701171875,-0.005977630615234375,-0.0196990966796875,1.015625,0.019744873046875,0.0013561248779296875,0.91845703125,28.0,18.0,-6.0
1.8019225597381592,-71.34236135236263,13.52334455900208,97.81232760950328,-0.04507095139938319,0.0007948583235829583,-0.03419607667364925,0.007894754409790039,-0.05353726767425057,1,1,1,1,0.07134236135236263,-0.01352334455900208,0.002187672390496715,-1.9592908693058653,0.0,0.0,0.1,0.0,1,37991.11025271668,-2.556591822259148,-1.6484304873563222,82.33910143106787,37991.11025271668,-2.556591822259148,-1.6484304873563222,82.33910143106787,,,,,,,,,,,
1.8124144077301025,-69.35237761529802,14.250369884735985,100.12358735290087,-0.03748870269678479,-0.009146340322992878,-0.0219074795702369,0.009004354476928711,-0.05215053726716272,1,1,1,1,0.06935237761529803,-0.014250369884735985,-0.00012358735290086997,-1.255206119143649,0.0,0.0,0.1,0.0,1,37582.795164932104,-2.2953934929053124,-1.6126049547329586,81.9068476296956,37582.795164932104,-2.2953934929053124,-1.6126049547329586,81.9068476296956,8.3515625,-13.40625,0.00655364990234375,-0.026153564453125,1.0078125,0.006992340087890625,0.007717132568359375,1.2314453125,45.0,29.0,-10.0
1.8221557140350342,-67.74264040147985,15.15556816720168,102.63208418391145,-0.03737765047607435,0.01030401321431996,-0.02471313115243898,0.007478475570678711,-0.049743089089731254,1,1,1,1,0.06774264040147984,-0.01515556816720168,-0.002632084183911445,-1.41595811358803,0.0,0.0,0.1,0.0,1,36883.734312902045,-2.9779785708235305,-1.1418083405994834,-45.97496247739315,36883.734312902045,-2.9779785708235305,-1.1418083405994834,-45.97496247739315,20.3125,-28.453125,-0.01116180419921875,-0.017303466796875,1.0146484375,0.01513671875,0.007472991943359375,1.5205078125,45.0,8.0,-5.0
1.8324754238128662,-66.17931906061226,15.930933813682037,104.55811457607824,-0.013329911293021432,0.018385817191642815,-0.02422363335524187,0.008216381072998047,-0.04630063433142057,1,1,1,1,0.06617931906061225,-0.015930933813682036,-0.004558114576078239,-1.3879119557276847,0.0,0.0,0.1,0.0,1,38026.679185437795,-2.7246167876402576,-0.9533176744029497,-16.74359462119434,38026.679185437795,-2.7246167876402576,-0.9533176744029497,-16.74359462119434,26.515625,-41.53125,-0.01141357421875,-0.00739288330078125,0.98583984375,-0.0117950439453125,0.0020236968994140625,1.7919921875,45.0,23.0,-18.0
1.8423371315002441,-64.02061242994824,16.803492053139987,106.9191150159943,-0.011599048046723313,0.012832060661448307,-0.002414833778820433,0.007890701293945312,-0.0424964748447315,1,1,1,1,0.06402061242994825,-0.01680349205313999,-0.0069191150159942936,-0.13835978375203895,0.0,0.0,0.1,0.0,1,37067.45848090453,-3.172656237431287,-2.5107934432406496,188.04098518585403,37067.45848090453,-3.172656237431287,-2.5107934432406496,188.04098518585403,29.75,-52.03125,-0.01306915283203125,-0.0019741058349609375,0.98291015625,-0.018524169921875,0.00014007091522216797,2.083984375,45.0,7.0,-6.0
1.8533737659454346,-62.43721742687127,17.62497112230367,108.76998477617158,0.005190591664402034,0.011505710513989065,-0.011281527056282062,0.009459972381591797,-0.03773297542325093,1,1,1,1,0.06243721742687127,-0.01762497112230367,-0.008769984776171583,-0.6463838867876097,0.0,0.0,0.1,0.0,1,38230.34157317719,-2.8672753226314316,-0.9699653826343551,-78.55736104204382,38230.34157317719,-2.8672753226314316,-0.9699653826343551,-78.55736104204382,23.09375,-57.0,-0.00572967529296875,0.00018036365509033203,0.95751953125,-0.033905029296875,0.01293182373046875,2.44140625,50.0,12.0,-12.0
1.863508939743042,-60.49996110050692,18.483341062820084,110.91541145470407,0.002902554111731483,0.03502536863653328,0.007211485801524047,0.007850408554077148,-0.032891336129116905,1,1,1,1,0.06049996110050692,-0.018483341062820083,-0.010915411454704071,0.4131877004458455,0.0,0.0,0.1,0.0,1,37428.84447610878,-3.192309020269942,-2.0906000890226815,162.5100536460514,37428.84447610878,-3.192309020269942,-2.0906000890226815,162.5100536460514,11.1796875,-58.53125,-0.0123138427734375,-0.01435089111328125,0.98583984375,-0.022216796875,0.003047943115234375,2.859375,50.0,18.0,-15.0
1.8720159530639648,-58.43955862979856,19.25227746776767,112.8197366831571,0.03106746783371837,0.02412892821360118,0.010431144285108522,0.0067021846771240234,-0.02854605971468362,1,1,1,1,0.05843955862979856,-0.01925227746776767,-0.012819736683157104,0.5976605430287266,0.0,0.0,0.1,0.0,1,37169.25321248517,-3.4039435861731526,-3.3198296931573164,41.470237155516955,37169.25321248517,-3.4039435861731526,-3.3198296931573164,41.470237155516955,-2.013671875,-56.5625,-0.0030536651611328125,-0.005344390869140625,0.978515625,-0.0208587646484375,0.0006718635559082031,3.310546875,50.0,9.0,-10.0
