time,x_pos,y_pos,z_pos,x_rot,y_rot,z_rot,delta_time,z_filtered,x_pos_est,y_pos_est,z_pos_est,z_rot_est,x_error,y_error,z_error,yaw_error,x_setpoint,y_setpoint,z_setpoint,yaw_setpoint,vicon_available,thrust_cal,pitch_cal,roll_cal,yaw_cal,thrust_lim,pitch_lim,roll_lim,yaw_lim,gyro_x,gyro_y,acc_x,acc_y,acc_z,stateEstimate_az,stateEstimate_vz,stateEstimate_yaw,range_zrange,motion_deltaX,motion_deltaY
3.74342942237854,944.9701124236065,1665.87230233586,60.098089074231474,0.11296557713112096,-0.06133672224694636,1.6401979156425361,0.0006237030029296875,1.586204909486732,944.9701124236065,1665.87230233586,0.9871225026464342,0.00745391845703125,0.08002988757639355,0.059127697664139986,-0.060098089074231476,363.97641813247196,1.025,1.725,0.0,15469.860468532228,1.0,14658087.543523764,-904.6551647967863,644.4744223934583,3100.5432840266476,65535,-40,40,360,0.1812744140625,-0.1785888671875,-0.01517486572265625,-0.0005164146423339844,0.9990234375,-0.0006017684936523438,-0.0038318634033203125,0.00745391845703125,10.0,-11.0,0.0
3.746657133102417,944.9463504496047,1665.9037006590036,60.114071746983605,0.11185257561393194,-0.06233456294342711,1.6419377686291832,0.00034999847412109375,1.5886996046137307,944.9701124236065,1665.87230233586,0.9871225026464342,0.00745391845703125,0.08005364955039533,0.05909629934099644,-0.060114071746983605,364.07610436558,1.025,1.725,0.0,15469.860468532228,1.0,39451.65014185175,-4.080882672820918,0.2803226800638807,112.3392429861573,39451.65014185175,-4.080882672820918,0.2803226800638807,112.3392429861573,,,,,,,,,,,
3.749094009399414,944.9696696501572,1665.8533687576737,59.9804521139733,0.11504333607241757,-0.0628449621605714,1.6413195331803616,0.00034546852111816406,1.590765206460634,944.9701124236065,1665.87230233586,0.9871225026464342,0.00745391845703125,0.08003033034984276,0.059146631242326296,-0.0599804521139733,364.0406820836172,1.025,1.725,0.0,15469.860468532228,1.0,40480.25293578884,-3.703963573535237,0.9710875610038079,38.76143435339637,40480.25293578884,-3.703963573535237,0.9710875610038079,38.76143435339637,,,,,,,,,,,
3.7511768341064453,944.9477172134107,1665.9155947364836,60.06162106413814,0.11392454651673305,-0.059772673546856336,1.6407889294386655,7.176399230957031e-05,1.5925226536482535,944.9701124236065,1665.87230233586,0.9871225026464342,0.00745391845703125,0.08005228278658932,0.059084405263516375,-0.060061621064138135,364.01028072862414,1.025,1.725,0.0,15469.860468532228,1.0,38876.96564535624,-4.124127883128386,-0.15517179227583755,38.03965580401476,38876.96564535624,-4.124127883128386,-0.15517179227583755,38.03965580401476,,,,,,,,,,,
3.7540676593780518,944.9244216019872,1665.914892515074,60.0841248492577,0.11240189139963215,-0.06123538439565731,1.641036069351367,7.43865966796875e-05,1.5950756634530705,944.9244216019872,1665.914892515074,1.888356062368111,0.001255035400390625,0.0800755783980128,0.05908510748492608,-0.060084124849257695,364.0244408025712,1.025,1.725,0.0,15469.860468532228,1.0,39419.06940003181,-4.069274459495339,0.5073936522782794,67.39909405581923,39419.06940003181,-4.069274459495339,0.5073936522782794,67.39909405581923,0.0125732421875,0.15869140625,-0.01549530029296875,0.0,0.99951171875,-0.00057220458984375,-0.0038661956787109375,0.001255035400390625,10.0,5.0,0.0
3.758390188217163,944.9156029794646,1665.957973062748,60.081509795580025,0.11251779755638137,-0.05901474940498909,1.6414313256915285,7.390975952148438e-05,1.598587155093523,944.9244216019872,1665.914892515074,1.888356062368111,0.001255035400390625,0.08008439702053545,0.05904202693725211,-0.060081509795580024,364.04708732268824,1.025,1.725,0.0,15469.860468532228,1.0,39554.559993323244,-3.93292647763285,0.28323551158472693,68.79806272932994,39554.559993323244,-3.93292647763285,0.28323551158472693,68.79806272932994,,,,,,,,,,,
3.760819911956787,945.0895131662159,1665.8918374524135,59.81064457389776,0.12306859431964129,-0.06976343233448547,1.647215845290069,6.580352783203125e-05,1.6005868356021542,944.9244216019872,1665.914892515074,1.888356062368111,0.001255035400390625,0.07991048683378414,0.05910816254758652,-0.05981064457389776,364.3785158821953,1.025,1.725,0.0,15469.860468532228,1.0,41439.39904380722,-2.333830308289338,1.1591075544020484,270.8300600827967,41439.39904380722,-2.333830308289338,1.1591075544020484,270.8300600827967,,,,,,,,,,,
3.766467332839966,944.9088613054787,1665.9034376564673,60.12131482400013,0.11206807288004464,-0.061228060904908344,1.6413945076446481,7.510185241699219e-05,1.6052494823391605,944.9088613054787,1665.9034376564673,2.6994767450636896,0.005016326904296875,0.08009113869452131,0.059096562343532694,-0.06012131482400013,364.0449778039921,1.025,1.725,0.0,15469.860468532228,1.0,38638.12020875617,-4.534566385609189,0.4755589827812865,-25.695111641967245,38638.12020875617,-4.534566385609189,0.4755589827812865,-25.695111641967245,-0.03057861328125,0.09466552734375,-0.0144805908203125,-0.0006604194641113281,1.0,0.00045228004455566406,-0.003917694091796875,0.005016326904296875,10.0,9.0,0.0
3.7705092430114746,944.9134991041404,1665.9406466609028,60.149508083379054,0.11096090712124809,-0.0626626870286294,1.641697366085122,8.7738037109375e-05,1.6083766744393648,944.9134991041404,1665.9406466609028,3.4295142071576192,0.01282501220703125,0.08008650089585956,0.059059353339097245,-0.06014950808337905,364.06233031442116,1.025,1.725,0.0,15469.860468532228,1.0,39421.666996160406,-3.79024604384601,0.3810764717602724,67.37847450939314,39421.666996160406,-3.79024604384601,0.3810764717602724,67.37847450939314,-0.1875,-0.09722900390625,-0.016845703125,-0.00011968612670898438,0.99853515625,-0.001705169677734375,-0.00402069091796875,0.01282501220703125,10.0,-4.0,4.0
3.7731728553771973,944.9195779405861,1665.9159676940258,60.13188584539787,0.10994352164052842,-0.0622178093184334,1.6418684716793914,7.462501525878906e-05,1.6102750004192095,944.9134991041404,1665.9406466609028,3.4295142071576192,0.01282501220703125,0.08008042205941387,0.059084032305974234,-0.060131885845397866,364.0721339428238,1.025,1.725,0.0,15469.860468532228,1.0,39659.710697435905,-3.749056863260135,0.8292686509567195,66.89421200098118,39659.710697435905,-3.749056863260135,0.8292686509567195,66.89421200098118,,,,,,,,,,,
3.780582904815674,944.9736191832012,1665.9082573472701,60.10484450459622,0.11184324253020073,-0.061167984515115986,1.6412846257771345,8.082389831542969e-05,1.6154821707604305,944.9134991041404,1665.9406466609028,3.4295142071576192,0.01282501220703125,0.08002638081679879,0.059091742652729866,-0.06010484450459622,364.0386820367385,1.025,1.725,0.0,15469.860468532228,1.0,39601.97121080671,-3.58175701619879,0.7133989667292366,53.81255432586004,39601.97121080671,-3.58175701619879,0.7133989667292366,53.81255432586004,,,,,,,,,,,
3.7873432636260986,945.0748556110088,1665.9391847119105,59.89261807777119,0.12225921229244083,-0.06654369981541067,1.647329906580307,7.271766662597656e-05,1.6197358163863296,944.9134991041404,1665.9406466609028,3.4295142071576192,0.01282501220703125,0.07992514438899116,0.05906081528808954,-0.05989261807777119,364.3850511127318,1.025,1.725,0.0,15469.860468532228,1.0,40078.317454852855,-3.3211521437251044,0.71361898820356,142.74001764005817,40078.317454852855,-3.3211521437251044,0.71361898820356,142.74001764005817,,,,,,,,,,,
3.790738821029663,945.0774581993604,1665.9350493094043,59.90440554668686,0.11896955411704546,-0.06814094326569332,1.646339114777761,6.985664367675781e-05,1.6217635727937239,945.0774581993604,1665.9350493094043,4.18648710541712,0.01004791259765625,0.07992254180063958,0.05906495069059565,-0.05990440554668686,364.32828292406975,1.025,1.725,0.0,15469.860468532228,1.0,39489.26586375495,-3.573335245046851,0.9111613892457815,40.675852173431224,39489.26586375495,-3.573335245046851,0.9111613892457815,40.675852173431224,-0.5166015625,0.64501953125,-0.0178070068359375,0.005153656005859375,0.99755859375,0.0014677047729492188,-0.004169464111328125,0.01004791259765625,11.0,8.0,-5.0
3.7951478958129883,945.1041904287404,1665.809829858692,59.71447099425201,0.12362416110731902,-0.07013558292704988,1.6460526436937022,8.845329284667969e-05,1.624089653692197,945.0774581993604,1665.9350493094043,4.18648710541712,0.01004791259765625,0.07989580957125964,0.05919017014130804,-0.05971447099425201,364.3118693400006,1.025,1.725,0.0,15469.860468532228,1.0,40301.892348826885,-3.4438319152932833,1.5859275572455276,58.97088071163156,40301.892348826885,-3.4438319152932833,1.5859275572455276,58.97088071163156,,,,,,,,,,,
3.7979917526245117,944.9062893940121,1665.932672356266,60.08119088470661,0.11301067962989679,-0.06219907350632627,1.6410108130973389,7.82012939453125e-05,1.6256016987862458,944.9062893940121,1665.932672356266,4.867805095093328,0.0204315185546875,0.0800937106059879,0.05906732764373396,-0.060081190884706606,364.0229937258091,1.025,1.725,0.0,15469.860468532228,1.0,37455.37012389598,-4.9112450359699995,0.01904896963432301,-85.55283965022133,37455.37012389598,-4.9112450359699995,0.01904896963432301,-85.55283965022133,-0.123291015625,-0.04644775390625,-0.0200653076171875,0.0038127899169921875,1.0,-0.0017299652099609375,-0.00508880615234375,0.0204315185546875,11.0,14.0,0.0
3.8008556365966797,944.9207245082625,1665.9005909810792,60.14921661071084,0.11161384019256711,-0.06330087527515661,1.6414095521198244,7.724761962890625e-05,1.6269152434162313,944.9062893940121,1665.932672356266,4.867805095093328,0.0204315185546875,0.08007927549173746,0.05909940901892082,-0.060149216610710834,364.0458397889247,1.025,1.725,0.0,15469.860468532228,1.0,39114.32154497294,-3.3837652827176554,1.2996080481446382,73.24306511348107,39114.32154497294,-3.3837652827176554,1.2996080481446382,73.24306511348107,,,,,,,,,,,
3.806621551513672,945.1227037690803,1665.8712447389287,59.76242213838752,0.12610047949198042,-0.06881640536794824,1.6475040510939822,0.00010371208190917969,1.6294627657297822,944.9062893940121,1665.932672356266,4.867805095093328,0.0204315185546875,0.07987729623091969,0.05912875526107132,-0.05976242213838752,364.39502885839073,1.025,1.725,0.0,15469.860468532228,1.0,40679.63125510109,-2.682299303506389,1.2602070955704652,156.42626361639674,40679.63125510109,-2.682299303506389,1.2602070955704652,156.42626361639674,,,,,,,,,,,
3.8103179931640625,944.9851429637296,1665.9118245971363,60.06201007625161,0.11385224704175302,-0.0598144427834678,1.6411233628445987,8.845329284667969e-05,1.6309877763894676,944.9851429637296,1665.9118245971363,5.4809666612290435,0.0340576171875,0.08001485703627043,0.05908817540286373,-0.06006201007625161,364.02944235131235,1.025,1.725,0.0,15469.860468532228,1.0,38223.024986137716,-4.147517437854594,0.9044397773826535,-82.145397367925,38223.024986137716,-4.147517437854594,0.9044397773826535,-82.145397367925,0.4140625,0.5712890625,-0.0014429092407226562,-0.0133209228515625,1.0087890625,0.00887298583984375,-0.00528717041015625,0.0340576171875,11.0,-9.0,0.0
3.8155977725982666,944.9277328915983,1665.935617673278,60.10930185361222,0.1131713215035183,-0.06408146024813575,1.6429108664241487,8.177757263183594e-05,1.63280416398669,944.9851429637296,1665.9118245971363,5.4809666612290435,0.0340576171875,0.08007226710840167,0.0590643823267219,-0.060109301853612226,364.1318587622851,1.025,1.725,0.0,15469.860468532228,1.0,39383.44490647211,-3.5797286797051022,1.1295133371738766,92.05107957265886,39383.44490647211,-3.5797286797051022,1.1295133371738766,92.05107957265886,,,,,,,,,,,
3.8187646865844727,944.956171614561,1665.9017745855967,60.03796154408785,0.11461691521818501,-0.06376464115642179,1.6422593650506718,7.796287536621094e-05,1.6338513671531372,944.956171614561,1665.9017745855967,6.032833544637051,0.0024623870849609375,0.08004382838543904,0.05909822541440326,-0.06003796154408785,364.09453048323786,1.025,1.725,0.0,15469.860468532228,1.0,39909.12799539164,-3.1258060899127877,1.5447803101002255,44.39002618842723,39909.12799539164,-3.1258060899127877,1.5447803101002255,44.39002618842723,0.124755859375,1.619140625,-0.014404296875,0.005504608154296875,1.01171875,0.01158905029296875,-0.00478363037109375,0.0024623870849609375,11.0,5.0,1.0
3.8218679428100586,944.9428885624992,1665.8755409310222,60.01001555569455,0.11618130476246925,-0.06193832250321047,1.6419095156569232,7.295608520507812e-05,1.6347162233073187,944.956171614561,1665.9017745855967,6.032833544637051,0.0024623870849609375,0.0800571114375008,0.059124459068977786,-0.06001001555569455,364.07448558951086,1.025,1.725,0.0,15469.860468532228,1.0,39703.24801051824,-3.377472474380583,1.5433649856744762,51.00976064733376,39703.24801051824,-3.377472474380583,1.5433649856744762,51.00976064733376,,,,,,,,,,,
3.8267526626586914,944.910558907083,1665.9295509935714,60.11021937330767,0.1132917621663496,-0.06258739187402634,1.6418434918050318,0.00028228759765625,1.6359779513873756,944.956171614561,1665.9017745855967,6.032833544637051,0.0024623870849609375,0.08008944109291702,0.05907044900642859,-0.06011021937330767,364.0707027014503,1.025,1.725,0.0,15469.860468532228,1.0,39190.206552536445,-3.360814722155574,1.1633077931995996,59.90025026307177,39190.206552536445,-3.360814722155574,1.1633077931995996,59.90025026307177,,,,,,,,,,,
3.82958984375,944.9804486077834,1665.8796944000642,59.985814972223544,0.11630133984498342,-0.06289077749573463,1.6418395101443801,7.891654968261719e-05,1.6366221893962183,944.956171614561,1665.9017745855967,6.032833544637051,0.0024623870849609375,0.08001955139221661,0.05912030559993582,-0.05998581497222354,364.0704745690995,1.025,1.725,0.0,15469.860468532228,1.0,40286.10424336434,-2.6867639291971144,1.8833289294669946,60.936374475986824,40286.10424336434,-2.6867639291971144,1.8833289294669946,60.936374475986824,,,,,,,,,,,
3.8316545486450195,945.0437878247557,1665.84804069633,59.71424858112196,0.12363046437913791,-0.06937030940713167,1.6448922371194088,6.842613220214844e-05,1.6370532474845028,944.956171614561,1665.9017745855967,6.032833544637051,0.0024623870849609375,0.07995621217524433,0.05915195930367008,-0.05971424858112196,364.2453829407744,1.025,1.725,0.0,15469.860468532228,1.0,41789.028316328724,-2.529508298934973,1.877101829626044,191.08937261970732,41789.028316328724,-2.529508298934973,1.877101829626044,191.08937261970732,,,,,,,,,,,
3.8351354598999023,944.9239181399712,1665.8914192718346,60.03592240639215,0.11609066835936449,-0.06382012128124163,1.642240293435125,7.700920104980469e-05,1.6377414466512987,944.9239181399712,1665.8914192718346,6.929612288104623,0.023956298828125,0.0800760818600288,0.059108580728165404,-0.060035922406392155,364.0934377601585,1.025,1.725,0.0,15469.860468532228,1.0,38034.46343616916,-3.856066033548118,1.2236593574532577,-1.5773135144073294,38034.46343616916,-3.856066033548118,1.2236593574532577,-1.5773135144073294,0.268310546875,0.11212158203125,-0.0218505859375,0.010772705078125,1.001953125,-0.004878997802734375,0.004215240478515625,0.023956298828125,15.0,-1.0,0.0
3.8404054641723633,944.9168893758781,1665.9440877194202,60.07401957103338,0.11442467158684817,-0.061480796489422083,1.6415972393540204,7.843971252441406e-05,1.6386038289472784,944.9168893758781,1665.9440877194202,7.736675651186612,0.0151519775390625,0.0800831106241219,0.05905591228057983,-0.06007401957103338,364.0565934753126,1.025,1.725,0.0,15469.860468532228,1.0,39415.1375792559,-3.1414987997555226,1.3547925393256677,50.3352865201271,39415.1375792559,-3.1414987997555226,1.3547925393256677,50.3352865201271,-0.7080078125,0.0166778564453125,-0.0166778564453125,-0.0206756591796875,1.0185546875,0.01190948486328125,0.005184173583984375,0.0151519775390625,15.0,-7.0,7.0
3.846088409423828,944.9286536661486,1665.8979865514582,60.06585452775194,0.11297115097504509,-0.0653625435365219,1.6421480018821646,0.00010824203491210938,1.6393585683015766,944.9168893758781,1665.9440877194202,7.736675651186612,0.0151519775390625,0.08007134633385135,0.05910201344854181,0.466244145472248,364.08814984368917,1.025,1.725,0.52631,15469.860468532228,1.0,1655158.6528980318,-3.0608962986032533,1.8075649583034967,69.78172625097739,65535,-3.0608962986032533,1.8075649583034967,69.78172625097739,,,,,,,,,,,
3.849442720413208,944.9635540502693,1665.8858247090075,59.98267525405717,0.11523661552284568,-0.06264992280985451,1.6420025856561766,9.036064147949219e-05,1.639753118387889,944.9635540502693,1665.8858247090075,8.463058626314089,0.01806640625,0.08003644594973071,0.059114175290992534,0.46632732474594274,364.0798181076674,1.025,1.725,0.52631,15469.860468532228,1.0,55744.32714226419,-2.8566163370377096,1.7548429602915847,57.593865374232564,55744.32714226419,-2.8566163370377096,1.7548429602915847,57.593865374232564,0.72314453125,3.28125,-0.017913818359375,0.00843048095703125,1.013671875,0.015869140625,0.006214141845703125,0.01806640625,15.0,2.0,-8.0
3.8547518253326416,944.9332067011891,1665.8837301178628,60.029155832298954,0.11308657873345557,-0.06403636672602783,1.6429523919148992,8.749961853027344e-05,1.6402475229822937,944.9635540502693,1665.8858247090075,8.463058626314089,0.01806640625,0.08006679329881092,0.0591162698821372,0.466280844167701,364.1342379976473,1.025,1.725,0.52631,15469.860468532228,1.0,55185.92290824882,-3.1776346014679047,1.6954536097173338,77.79292028885736,55185.92290824882,-3.1776346014679047,1.6954536097173338,77.79292028885736,,,,,,,,,,,
3.8579955101013184,944.9282084917166,1665.9009472397047,60.08501260408459,0.11157393785309268,-0.06100622596068609,1.6413512668654753,8.511543273925781e-05,1.640518517036401,944.9282084917166,1665.9009472397047,9.11679544418138,0.0516357421875,0.08007179150828335,0.059099052760295305,0.4662249873959154,364.0425002898426,1.025,1.725,0.52631,15469.860468532228,1.0,55052.72108324767,-3.057461644342374,1.6085996114905257,19.76188450387673,55052.72108324767,-3.057461644342374,1.6085996114905257,19.76188450387673,6.6640625,6.90625,-0.036407470703125,-0.0022983551025390625,0.97412109375,-0.02093505859375,0.00554656982421875,0.0516357421875,15.0,7.0,8.0
3.8611435890197754,944.95366205785,1665.8960194610158,60.1029857425589,0.11231851311976951,-0.06223715680568228,1.6420105759221406,7.534027099609375e-05,1.6407307976456367,944.9282084917166,1665.9009472397047,9.11679544418138,0.0516357421875,0.08004633794214999,0.05910398053898416,0.4662070142574411,364.0802759161843,1.025,1.725,0.52631,15469.860468532228,1.0,55231.54945655695,-2.840554231576416,1.7876487113775017,79.9977249361107,55231.54945655695,-2.840554231576416,1.7876487113775017,79.9977249361107,,,,,,,,,,,
3.8658721446990967,944.9636593094625,1665.8906686043993,60.03675949648086,0.1133398385842237,-0.06377435127889912,1.6427215720018626,7.82012939453125e-05,1.6410140078934512,944.9282084917166,1665.9009472397047,9.11679544418138,0.0516357421875,0.08003634069053749,0.05910933139560075,0.4662732405035191,364.1210129908027,1.025,1.725,0.52631,15469.860468532228,1.0,55574.62606057868,-2.964812448128396,1.7857548454367607,74.73787486659461,55574.62606057868,-2.964812448128396,1.7857548454367607,74.73787486659461,,,,,,,,,,,
3.868608236312866,944.9469685744857,1665.8852277215024,60.11447273650795,0.11362541430574018,-0.0611443403349697,1.6419117889955157,7.724761962890625e-05,1.641153066292288,944.9282084917166,1665.9009472397047,9.11679544418138,0.0516357421875,0.08005303142551429,0.05911477227849764,0.466195527263492,364.0746158422176,1.025,1.725,0.52631,15469.860468532228,1.0,54853.31456860975,-3.134267276970352,1.80802995616514,35.68527241165198,54853.31456860975,-3.134267276970352,1.80802995616514,35.68527241165198,,,,,,,,,,,
3.8724679946899414,945.0712117080654,1665.94136387393,59.92739302307619,0.11967076271830004,-0.0679666660950479,1.6455570414022427,7.796287536621094e-05,1.641331167887082,945.0712117080654,1665.94136387393,9.105175721340693,0.0821533203125,0.07992878829193455,0.05905863612607004,0.46638260697692374,364.28347342038296,1.025,1.725,0.52631,15469.860468532228,1.0,56128.11182969982,-2.2920651379968486,1.5263471201773102,142.80882177527644,56128.11182969982,-2.2920651379968486,1.5263471201773102,142.80882177527644,2.662109375,-0.5107421875,-0.032073974609375,-0.017364501953125,1.001953125,-0.01087188720703125,0.0045928955078125,0.0821533203125,9.0,0.0,0.0
3.8776862621307373,944.9371541811189,1665.8911687235263,60.11658259596364,0.11126237583594566,-0.0603565129700208,1.6405507539803896,7.772445678710938e-05,1.6415277040237384,945.0712117080654,1665.94136387393,9.105175721340693,0.0821533203125,0.0800628458188811,0.059108831276473664,0.4661934174040363,363.99663428008137,1.025,1.725,0.52631,15469.860468532228,1.0,54711.51039630516,-3.571458732984331,1.968399560174655,-24.59259346697546,54711.51039630516,-3.571458732984331,1.968399560174655,-24.59259346697546,,,,,,,,,,,
3.881443738937378,944.9185480948416,1665.870806243456,60.05913736104375,0.11406065959294198,-0.06500643684564786,1.640493397495851,7.414817810058594e-05,1.641657889718941,944.9185480948416,1665.870806243456,9.094631511649313,0.027374267578125,0.08008145190515836,0.05912919375654405,0.46625086263895615,363.9933479955896,1.025,1.725,0.52631,15469.860468532228,1.0,55590.27059479325,-3.0930472970599276,1.910933536804793,58.62928839441579,55590.27059479325,-3.0930472970599276,1.910933536804793,58.62928839441579,-6.70703125,-3.5390625,-0.01535797119140625,-0.0157318115234375,0.99560546875,-0.00778961181640625,-0.0032958984375,0.027374267578125,9.0,0.0,0.0
3.8861324787139893,944.9135721791727,1665.9254156346383,60.096093075419205,0.11261252114989814,-0.06086824281741032,1.6410392045703013,8.0108642578125e-05,1.6417826570352196,944.9185480948416,1665.870806243456,9.094631511649313,0.027374267578125,0.08008642782082734,0.05907458436536171,0.4662139069245807,364.024620437384,1.025,1.725,0.52631,15469.860468532228,1.0,55195.576690932,-2.9793864147962146,1.553362883635142,70.63912551691062,55195.576690932,-2.9793864147962146,1.553362883635142,70.63912551691062,,,,,,,,,,,
3.8896055221557617,944.9266578090434,1665.9531148919298,60.105094955433266,0.11327189178669238,-0.06198173526351617,1.642477209692998,8.630752563476562e-05,1.6418569330956034,944.9266578090434,1665.9531148919298,9.08515056406645,-0.0101776123046875,0.08007334219095662,0.05904688510807023,0.46620490504456663,364.1070120618327,1.025,1.725,0.52631,15469.860468532228,1.0,55289.97582623202,-2.875666509612326,1.664255144964894,95.85901559262294,55289.97582623202,-2.875666509612326,1.664255144964894,95.85901559262294,-0.2032470703125,-6.21484375,-0.01326751708984375,0.0059661865234375,1.015625,0.0198516845703125,-0.0025234222412109375,-0.0101776123046875,9.0,0.0,0.0
3.8944435119628906,944.9256334965704,1665.913228363608,60.09616853570185,0.11197807787852361,-0.062112665597107285,1.64087603731847,8.344650268554688e-05,1.641925326867186,944.9266578090434,1665.9531148919298,9.08515056406645,-0.0101776123046875,0.08007436650342958,0.05908677163639209,0.4662138314642981,364.01527164249933,1.025,1.725,0.52631,15469.860468532228,1.0,55368.93044406379,-2.9770431239272304,2.020170681359385,31.001770016398705,55368.93044406379,-2.9770431239272304,2.020170681359385,31.001770016398705,,,,,,,,,,,
3.8976616859436035,945.0073495783851,1665.7772595377248,59.80430188272932,0.11959723733832321,-0.06465401670310965,1.6415143720297627,7.581710815429688e-05,1.641957200146141,945.0073495783851,1665.7772595377248,9.076605785477815,-0.07379150390625,0.07999265042161494,0.05922274046227517,0.46650569811727066,364.0518455273731,1.025,1.725,0.52631,15469.860468532228,1.0,56835.5916990462,-2.4838816409178994,2.7709435889242187,77.22183265920197,56835.5916990462,-2.4838816409178994,2.7709435889242187,77.22183265920197,-4.0625,-6.19921875,-0.033966064453125,-0.004138946533203125,0.9853515625,-0.03802490234375,-0.003940582275390625,-0.07379150390625,9.0,0.0,0.0
3.9007647037506104,945.096846913642,1665.795305471117,59.68942037621611,0.12446378424059155,-0.06805060933597645,1.6444781479083408,7.700920104980469e-05,1.6419762848987551,945.0073495783851,1665.7772595377248,9.076605785477815,-0.07379150390625,0.07990315308635798,0.05920469452888301,0.46662057962378384,364.2216573766383,1.025,1.725,0.52631,15469.860468532228,1.0,55994.700851049034,-2.285018467531292,1.771630042698369,148.7939628840333,55994.700851049034,-2.285018467531292,1.771630042698369,148.7939628840333,,,,,,,,,,,
3.905433177947998,945.0846844971585,1665.935592111943,59.885101547396125,0.12089151568407117,-0.06451562558355509,1.6452471213909499,7.867813110351562e-05,1.642001152663008,945.0073495783851,1665.7772595377248,9.076605785477815,-0.07379150390625,0.0799153155028415,0.05906440788805708,0.4664248984526038,364.26571631174926,1.025,1.725,0.52631,15469.860468532228,1.0,54624.348239185936,-2.953187243731215,1.1989061554825524,78.14206210933779,54624.348239185936,-2.953187243731215,1.1989061554825524,78.14206210933779,,,,,,,,,,,
3.9085774421691895,945.0384482456614,1665.9355214602847,59.93577679206802,0.11816043442966707,-0.06901635875055945,1.645324045790171,7.867813110351562e-05,1.6420242267104663,945.0384482456614,1665.9355214602847,9.068912811520926,-0.1702880859375,0.07996155175433864,0.05906447853971531,0.4663742232079319,364.2701237551662,1.025,1.725,0.52631,15469.860468532228,1.0,55080.10429944231,-3.2528073448397463,1.8286373975874715,66.07264311733054,55080.10429944231,-3.2528073448397463,1.8286373975874715,66.07264311733054,7.1328125,-7.0390625,-0.044921875,-0.0210113525390625,1.041015625,0.03790283203125,-0.0032978057861328125,-0.1702880859375,9.0,0.0,0.0
3.9153096675872803,944.9401896595677,1665.89224162177,60.00070913404085,0.11454357657879784,-0.06287670235052097,1.6415192003372618,7.867813110351562e-05,1.6421026572538988,945.0384482456614,1665.9355214602847,9.068912811520926,-0.1702880859375,0.08005981034043225,0.059107758378230076,0.4663092908659591,364.052122169015,1.025,1.725,0.52631,15469.860468532228,1.0,55175.99659153676,-3.288110630695353,1.961041229622853,11.288927396635117,55175.99659153676,-3.288110630695353,1.961041229622853,11.288927396635117,,,,,,,,,,,
3.9180867671966553,944.9417254256128,1665.9027752475324,60.092170344841556,0.11238276280752532,-0.061669627604042904,1.6412659777668444,7.82012939453125e-05,1.6421462603600898,945.0384482456614,1665.9355214602847,9.068912811520926,-0.1702880859375,0.08005827457438716,0.059097224752467585,0.46621782965515834,364.0376135844526,1.025,1.725,0.52631,15469.860468532228,1.0,54774.365992724895,-2.942671405245223,1.753525749079726,52.731689488715745,54774.365992724895,-2.942671405245223,1.753525749079726,52.731689488715745,,,,,,,,,,,
3.920872688293457,944.9149484324502,1665.9251776801975,60.037979604744116,0.1156746474515931,-0.062336464000723193,1.6426009161982753,7.605552673339844e-05,1.6421910494530658,945.0384482456614,1665.9355214602847,9.068912811520926,-0.1702880859375,0.08008505156754984,0.05907482231980248,0.46627202039525584,364.1140999224834,1.025,1.725,0.52631,15469.860468532228,1.0,55669.638210686295,-3.15804368538719,1.6435641707823112,103.01356993174312,55669.638210686295,-3.15804368538719,1.6435641707823112,103.01356993174312,,,,,,,,,,,
3.926212787628174,944.9433310100699,1665.9241561468514,60.132349842060954,0.11066070985566615,-0.061485388188994135,1.64224720543598,8.368492126464844e-05,1.64227312030428,944.9433310100699,1665.9241561468514,9.362083460710341,-0.319580078125,0.08005666898993014,0.059075843853148624,0.466177650157939,364.0938337886355,1.025,1.725,0.52631,15469.860468532228,1.0,55039.44084810006,-2.8478797384175953,1.8469848858193754,55.854944472955786,55039.44084810006,-2.8478797384175953,1.8469848858193754,55.854944472955786,-4.3046875,-21.765625,-0.041839599609375,-0.03656005859375,1.0712890625,0.060577392578125,0.003902435302734375,-0.319580078125,12.0,0.0,0.0
3.9299449920654297,944.9523369977584,1665.8778166145587,60.09647093769268,0.11192140875644696,-0.0610927829104216,1.6405532652988717,7.987022399902344e-05,1.6423209844985378,944.9523369977584,1665.8778166145587,9.62592351606359,-0.529296875,0.08004766300224161,0.059122183385441306,0.4662135290623073,363.99677816803137,1.025,1.725,0.52631,15469.860468532228,1.0,55501.06537053579,-2.924144025022827,2.113892995895751,20.776644190224943,55501.06537053579,-2.924144025022827,2.113892995895751,20.776644190224943,5.8671875,-41.375,-0.03369140625,-0.0540771484375,1.1787109375,0.1708984375,0.01439666748046875,-0.529296875,12.0,0.0,0.0
3.935680389404297,945.0794610994906,1665.899791236587,59.76712289784611,0.1249536484078498,-0.06901749761600766,1.6470350581117006,0.0002853870391845703,1.6423807521868665,944.9523369977584,1665.8778166145587,9.62592351606359,-0.529296875,0.07992053890050943,0.05910020876341309,0.46654287710215386,364.36815753988475,1.025,1.725,0.52631,15469.860468532228,1.0,56328.63428064915,-2.457418782172274,1.7946541029485958,163.98909061831733,56328.63428064915,-2.457418782172274,1.7946541029485958,163.98909061831733,,,,,,,,,,,
3.9410576820373535,944.9472506882908,1665.913064470084,60.105322488426935,0.11244260598506522,-0.06120749057890411,1.640996764096521,8.702278137207031e-05,1.642435970068208,944.9472506882908,1665.913064470084,9.86364653024404,-0.79248046875,0.08005274931170925,0.05908693552991599,0.46620467751157296,364.02218877735584,1.025,1.725,0.52631,15469.860468532228,1.0,54292.087699017284,-3.471989667512692,1.7540372818587742,-34.28754943969284,54292.087699017284,-3.471989667512692,1.7540372818587742,-34.28754943969284,12.8828125,-71.0,-0.03759765625,-0.059112548828125,1.1943359375,0.1678466796875,0.031524658203125,-0.79248046875,12.0,0.0,0.0
3.9466159343719482,944.9599900203045,1665.8792731681556,59.98573963220174,0.11633281437725355,-0.06139548177012102,1.6414156935650155,9.751319885253906e-05,1.6424920618910113,944.9472506882908,1665.913064470084,9.86364653024404,-0.79248046875,0.08004000997969547,0.059120726831844425,0.4663242603677982,364.04619166781424,1.025,1.725,0.52631,15469.860468532228,1.0,55712.45164884786,-2.913317353044819,1.982423636546114,67.30610598686002,55712.45164884786,-2.913317353044819,1.982423636546114,67.30610598686002,,,,,,,,,,,
3.9499993324279785,945.0678365730013,1665.888991155471,59.787227247299086,0.12494971458301754,-0.07106958779994915,1.6480580338338122,9.036064147949219e-05,1.6425257365397647,945.0678365730013,1665.888991155471,10.077700685782608,-1.107421875,0.07993216342699873,0.0591110088445289,0.4665227727527009,364.4267697313061,1.025,1.725,0.52631,15469.860468532228,1.0,56302.01242424861,-2.278478609801584,1.8333266277723095,229.6071993690945,56302.01242424861,-2.278478609801584,1.8333266277723095,229.6071993690945,22.546875,-87.0,-0.030731201171875,-0.06768798828125,1.3125,0.30859375,0.05206298828125,-1.107421875,12.0,0.0,0.0
3.9552974700927734,944.9311881598712,1665.9506199278014,60.0802597413756,0.1136579711798963,-0.060016110293557676,1.6407261438661056,8.606910705566406e-05,1.6425773872067113,945.0678365730013,1665.888991155471,10.077700685782608,-1.107421875,0.08006881184012878,0.05904938007219857,0.46622974025862435,364.0066833803022,1.025,1.725,0.52631,15469.860468532228,1.0,54374.87173942592,-3.5096174088408096,1.542420042578331,-62.03823968510743,54374.87173942592,-3.5096174088408096,1.542420042578331,-62.03823968510743,,,,,,,,,,,
3.958550453186035,945.0510282373508,1665.970128365411,59.96363663061447,0.11860655551030744,-0.06784401712507403,1.646943540236521,8.130073547363281e-05,1.6426170922153411,945.0510282373508,1665.970128365411,10.270587130896576,-1.458984375,0.07994897176264919,0.05902987163458897,0.46634636336938545,364.3629139518869,1.025,1.725,0.52631,15469.860468532228,1.0,55916.93746372433,-2.1762136927068747,1.7687279389961057,223.59831847879073,55916.93746372433,-2.1762136927068747,1.7687279389961057,223.59831847879073,44.34375,-110.6875,-0.0112457275390625,-0.058807373046875,1.3623046875,0.36279296875,0.0853271484375,-1.458984375,12.0,0.0,0.0
3.966327667236328,945.0443195779253,1665.9081594842098,59.86468059958326,0.1210922227835906,-0.0654830942755159,1.6454476644263252,8.20159912109375e-05,1.6427420573360303,945.0510282373508,1665.970128365411,10.270587130896576,-1.458984375,0.0799556804220747,0.05909184051579018,0.46644531940041667,364.27720658128703,1.025,1.725,0.52631,15469.860468532228,1.0,55563.706036032185,-2.9903402621072366,2.005891783971767,47.35250902271163,55563.706036032185,-2.9903402621072366,2.005891783971767,47.35250902271163,,,,,,,,,,,
3.970141887664795,945.1190341009265,1665.8701257641317,59.741831904245565,0.12582773718277226,-0.06877117988571803,1.647292492405332,7.62939453125e-05,1.642832679151404,945.1190341009265,1665.8701257641317,10.444788478452208,-1.8427734375,0.07988096589907355,0.05912987423586833,0.4665681680957544,364.38290743841173,1.025,1.725,0.52631,15469.860468532228,1.0,55874.141059740294,-2.5681121024502565,2.0599392581810325,106.05715981589182,55874.141059740294,-2.5681121024502565,2.0599392581810325,106.05715981589182,63.375,-128.5,0.0006570816040039062,-0.040924072265625,1.32421875,0.330810546875,0.1207275390625,-1.8427734375,12.0,0.0,0.0
3.9746787548065186,944.965815847396,1665.8910598194693,60.11853670325178,0.11159572132539272,-0.061536109717861366,1.6413104318868472,8.106231689453125e-05,1.642958750192651,945.1190341009265,1665.8701257641317,10.444788478452208,-1.8427734375,0.08003418415260398,0.05910894018053068,0.46619146329674815,364.0401606179107,1.025,1.725,0.52631,15469.860468532228,1.0,53901.98183323606,-3.7146137583164798,1.6539243724119543,-55.070616175072004,53901.98183323606,-3.7146137583164798,1.6539243724119543,-55.070616175072004,,,,,,,,,,,
3.9779090881347656,944.9291535202589,1665.912880456747,60.13473907165092,0.11128848472472316,-0.06344119301588837,1.6411869600949494,7.867813110351562e-05,1.6430614041219236,944.9291535202589,1665.912880456747,10.601367833152379,-2.32421875,0.08007084647974114,0.05908711954325304,0.46617526092834904,364.0330862053461,1.025,1.725,0.52631,15469.860468532228,1.0,55252.796981432744,-3.2082674890436076,1.6447955601274606,57.3066445653393,55252.796981432744,-3.2082674890436076,1.6447955601274606,57.3066445653393,77.625,-128.625,0.006511688232421875,-0.0188751220703125,1.294921875,0.293701171875,0.1514892578125,-2.32421875,12.0,4.0,-4.0
3.980919599533081,945.0271872755382,1665.9136884146683,60.27058765517752,0.10228697169170299,-0.06578889040189549,1.6468356457074664,7.653236389160156e-05,1.6431472833933891,944.9291535202589,1665.912880456747,10.601367833152379,-2.32421875,0.07997281272446184,0.059086311585331716,0.46603941234482243,364.35673205073954,1.025,1.725,0.52631,15469.860468532228,1.0,54520.52147238414,-2.2388169008808783,1.8531630789442788,233.78539186835917,54520.52147238414,-2.2388169008808783,1.8531630789442788,233.78539186835917,,,,,,,,,,,
3.9857370853424072,945.1770551818656,1665.9505743616435,59.89326069079308,0.10981364609239701,-0.05930697636061551,1.6507057480030063,8.273124694824219e-05,1.643288543428084,944.9291535202589,1665.912880456747,10.601367833152379,-2.32421875,0.07982294481813437,0.05904942563835652,0.4664167393092069,364.57847257855786,1.025,1.725,0.52631,15469.860468532228,1.0,56663.44942676469,-2.285221982442523,1.6887923817853931,137.66145173952492,56663.44942676469,-2.285221982442523,1.6887923817853931,137.66145173952492,,,,,,,,,,,
3.9885239601135254,945.0703933720025,1665.6373600306224,60.124513677114685,0.10688777087479613,-0.05984675078385619,1.6353079403824264,7.367134094238281e-05,1.6433739513750416,944.9291535202589,1665.912880456747,10.601367833152379,-2.32421875,0.07992960662799749,0.059362639969377594,0.46618548632288526,363.6962431881443,1.025,1.725,0.52631,15469.860468532228,1.0,53964.72984441421,-3.9830321650696225,4.188944919754276,-420.09673871773526,53964.72984441421,-3.9830321650696225,4.188944919754276,-360,,,,,,,,,,,
3.9923384189605713,945.1308956893739,1665.9222373574028,59.98280822481471,0.11437792612915904,-0.07281921421642187,1.6505872578496303,9.608268737792969e-05,1.643496762782662,945.1308956893739,1665.9222373574028,10.742561012699795,-2.884765625,0.07986910431062609,0.05907776264259724,0.4663271917751852,364.5716835928556,1.025,1.725,0.52631,15469.860468532228,1.0,55934.879917175735,-2.5301992328124343,0.26994610871886016,400.17036448063226,55934.879917175735,-2.5301992328124343,0.26994610871886016,360,90.4375,-128.375,0.00482177734375,0.0140838623046875,1.2373046875,0.2371826171875,0.1025390625,-2.884765625,12.0,1.0,-1.0
3.995378017425537,945.3764036306038,1665.77807893255,60.89790306976967,0.061842460887977665,-0.07029820315415324,1.6546359476785992,8.749961853027344e-05,1.643586540660518,945.1308956893739,1665.9222373574028,10.742561012699795,-2.884765625,0.07962359636939619,0.059221921067450015,0.4654120969302303,364.803656432613,1.025,1.725,0.52631,15469.860468532228,1.0,49955.849525344354,-1.2162701927739104,3.014204263069294,191.70125692769733,49955.849525344354,-1.2162701927739104,3.014204263069294,191.70125692769733,,,,,,,,,,,
3.999150514602661,945.4438393968056,1665.6338287067188,60.43367820493767,0.08036855784400974,-0.08110094223682807,1.6532086271385626,7.748603820800781e-05,1.643727065793679,945.4438393968056,1665.6338287067188,10.869221809101228,-4.21875,0.07955616060319437,0.05936617129328124,0.4658763217950623,364.7218769896566,1.025,1.725,0.52631,15469.860468532228,1.0,57358.9171333418,-2.653727076662317,2.6339533611852755,39.28817034997938,57358.9171333418,-2.653727076662317,2.6339533611852755,39.28817034997938,92.6875,-125.0625,0.0174102783203125,0.00423431396484375,1.25,0.2310791015625,0.1490478515625,-4.21875,12.0,4.0,-5.0
4.004016160964966,945.2254765261156,1665.8030262086581,60.754726790278454,0.08153996904035675,-0.08230930858892932,1.653513732701963,0.0002994537353515625,1.6439621660054502,945.4438393968056,1665.6338287067188,10.869221809101228,-4.21875,0.07977452347388442,0.05919697379134186,0.46555527320972145,364.7393582507454,1.025,1.725,0.52631,15469.860468532228,1.0,54172.14154149106,-3.934101929712679,0.9265837789108962,76.62130586903275,54172.14154149106,-3.934101929712679,0.9265837789108962,76.62130586903275,,,,,,,,,,,
4.006269454956055,945.1857042202863,1665.930416828088,60.891820510327975,0.07716173557982778,-0.08294883434974638,1.6582530816658274,8.034706115722656e-05,1.644105162308564,945.4438393968056,1665.6338287067188,10.869221809101228,-4.21875,0.07981429577971369,0.05906958317191197,0.46541817948967196,365.01090294401456,1.025,1.725,0.52631,15469.860468532228,1.0,54272.41683329357,-3.303209673071189,0.4887269793046949,256.2160547299977,54272.41683329357,-3.303209673071189,0.4887269793046949,256.2160547299977,,,,,,,,,,,
4.00931191444397,945.3134571999194,1665.8197003567961,60.89180786576542,0.07215693381829666,-0.08021869459203647,1.6563010060434362,9.489059448242188e-05,1.6443485438580325,945.3134571999194,1665.8197003567961,10.483527658205423,-4.4453125,0.07968654280008058,0.05918029964320385,0.4654181921342345,364.89905724956117,1.025,1.725,0.52631,15469.860468532228,1.0,55309.45185406885,-2.209661194797069,2.537370059329093,20.84336114163944,55309.45185406885,-2.209661194797069,2.537370059329093,20.84336114163944,85.625,-119.0,0.01183319091796875,0.0009832382202148438,1.2607421875,0.25146484375,0.13427734375,-4.4453125,7.0,12.0,4.0
4.0144407749176025,945.2433640889037,1666.0104578524447,60.8415349657072,0.07913608731081566,-0.08935222812992903,1.653258080510472,7.939338684082031e-05,1.644825542482381,945.3134571999194,1665.8197003567961,10.483527658205423,-4.4453125,0.07975663591109629,0.058989542147555314,0.4654684650342928,364.7247104591497,1.025,1.725,0.52631,15469.860468532228,1.0,55482.786611705305,-3.2898688695713822,0.8275488975339416,18.402697420353597,55482.786611705305,-3.2898688695713822,0.8275488975339416,18.402697420353597,,,,,,,,,,,
4.017578363418579,945.3994700916303,1665.894866473886,60.58156845206583,0.08971889882696055,-0.0934576744088079,1.6532326051923414,7.939338684082031e-05,1.645194657063073,945.3994700916303,1665.894866473886,10.136453756232136,-6.6484375,0.0796005299083697,0.05910513352611406,0.46572843154793414,364.72325083093904,1.025,1.725,0.52631,15469.860468532228,1.0,56674.327188729774,-2.0825776810167342,2.4945876322566765,70.17674002252932,56674.327188729774,-2.0825776810167342,2.4945876322566765,70.17674002252932,70.5,-111.6875,-0.0022907257080078125,0.0199432373046875,1.2353515625,0.1968994140625,0.171875,-6.6484375,7.0,5.0,-5.0
4.022822380065918,945.2985099648517,1666.1815692696155,60.79508107965512,0.07985776084461706,-0.08224120280944258,1.652389912411695,7.915496826171875e-05,1.645829715038401,945.3994700916303,1665.894866473886,10.136453756232136,-6.6484375,0.07970149003514826,0.058818430730384536,0.4655149189203448,364.6749680911819,1.025,1.725,0.52631,15469.860468532228,1.0,54604.60939118472,-3.413962018159814,0.3753968556729095,55.989826251558924,54604.60939118472,-3.413962018159814,0.3753968556729095,55.989826251558924,,,,,,,,,,,
4.025600910186768,945.3351034638968,1665.9159651099442,60.66031832990555,0.0683887259786015,-0.06083754472236293,1.651069934804522,7.343292236328125e-05,1.6461908590543297,945.3994700916303,1665.894866473886,10.136453756232136,-6.6484375,0.07966489653610324,0.05908403489005582,0.4656496816700944,364.5993389452391,1.025,1.725,0.52631,15469.860468532228,1.0,56165.488386913676,-2.9559217477805575,3.706184517145923,28.143879009327506,56165.488386913676,-2.9559217477805575,3.706184517145923,28.143879009327506,,,,,,,,,,,
4.028779029846191,945.6819654910635,1665.8994182530735,60.59733752778654,0.07978703277801161,-0.08230369469599871,1.6444142973083615,7.581710815429688e-05,1.6466184077159653,945.6819654910635,1665.8994182530735,9.82476248125081,-4.0,0.07931803450893654,0.059100581746926534,0.46571266247221343,364.2179990067401,1.025,1.725,0.52631,15469.860468532228,1.0,55628.00184466119,-0.8068353651574904,1.8976895937806288,-110.15660475786626,55628.00184466119,-0.8068353651574904,1.8976895937806288,-110.15660475786626,57.3125,-100.4375,-0.004589080810546875,0.0119171142578125,1.2353515625,0.1939697265625,0.19384765625,-4.0,7.0,0.0,6.0
4.036099433898926,947.5393418152696,1664.4363057561295,62.387191673706084,0.1869577140766879,0.13684523622801179,1.6066042353711207,7.891654968261719e-05,1.6473241693824217,945.6819654910635,1665.8994182530735,9.82476248125081,-4.0,0.07746065818473039,0.06056369424387049,0.4639228083262939,362.05164203460794,1.025,1.725,0.52631,15469.860468532228,1.0,51109.3935589077,2.266141624176616,6.551802455044886,-420.40017071438166,51109.3935589077,2.266141624176616,6.551802455044886,-360,,,,,,,,,,,
4.0392491817474365,947.690368102222,1664.5509212073382,62.79513577437363,0.198490192857443,0.14745069158849974,1.600179139097896,7.677078247070312e-05,1.6474471193153757,947.690368102222,1664.5509212073382,9.54427581876424,-8.4921875,0.077309631897778,0.060449078792661794,0.4635148642256263,361.68351113518696,1.025,1.725,0.52631,15469.860468532228,1.0,53117.947295323356,-1.8474512921819406,1.1540868834645661,-143.54547858457767,53117.947295323356,-1.8474512921819406,1.1540868834645661,-143.54547858457767,49.75,-93.875,0.0024318695068359375,-0.00823211669921875,1.23046875,0.1884765625,0.211181640625,-8.4921875,7.0,6.0,1.0
4.044640302658081,945.5594912815012,1667.061704711662,61.51724285557154,0.09558863482523035,-0.044324643089545646,1.6343989233078045,0.00011992454528808594,1.6471783043365433,947.690368102222,1664.5509212073382,9.54427581876424,-8.4921875,0.0794405087184988,0.05793829528833794,0.46479275714442836,363.6441603462631,1.025,1.725,0.52631,15469.860468532228,1.0,59807.9484722763,-10.77650709085997,-9.004323637086177,608.9101695235781,59807.9484722763,-10.77650709085997,-9.004323637086177,360,,,,,,,,,,,
4.047857999801636,945.9371961815117,1667.1538441064608,61.88742352842753,0.10128020034867752,-0.030610418642365914,1.6252803732945398,9.322166442871094e-05,1.6467356381280944,947.690368102222,1664.5509212073382,9.54427581876424,-8.4921875,0.0790628038184883,0.05784615589353916,0.4644225764715724,363.1217059152241,1.025,1.725,0.52631,15469.860468532228,1.0,53293.54798870846,-0.15626490277911298,1.6311131487066834,-198.16204374440068,53293.54798870846,-0.15626490277911298,1.6311131487066834,-198.16204374440068,,,,,,,,,,,
4.0511369705200195,946.2683391895392,1667.376905283484,63.32501247259637,0.060765441750167716,-0.040027721607117636,1.6259387242897332,8.916854858398438e-05,1.6460815099478692,946.2683391895392,1667.376905283484,9.592121353654989,-9.8125,0.07873166081046076,0.05762309471651611,0.4629849875274036,363.1594266486869,1.025,1.725,0.52631,15469.860468532228,1.0,48035.212386130705,-0.47354004658781435,0.8917912279122006,64.01265865096116,48035.212386130705,-0.47354004658781435,0.8917912279122006,64.01265865096116,50.0,-80.125,-0.002826690673828125,-0.0208587646484375,1.2197265625,0.1571044921875,0.2125244140625,-9.8125,10.0,-1.0,22.0
4.056861877441406,946.651179110825,1667.6221817548521,64.6096395163812,0.042555934940404015,-0.011659602666393978,1.6135376353501791,0.00010943412780761719,1.644705461961789,946.2683391895392,1667.376905283484,9.592121353654989,-9.8125,0.07834882088917504,0.057377818245147864,0.46170036048361873,362.4488965910841,1.025,1.725,0.52631,15469.860468532228,1.0,51287.07319743692,-1.0601933889255863,1.4040429623915407,-153.28051840762473,51287.07319743692,-1.0601933889255863,1.4040429623915407,-153.28051840762473,,,,,,,,,,,
4.05987024307251,946.800438063701,1668.4282424354883,66.24228626207352,0.03303252262779375,0.013541833460797572,1.6075323572073406,8.702278137207031e-05,1.6437909662439332,946.800438063701,1668.4282424354883,9.634644440591286,-8.7421875,0.07819956193629901,0.0565717575645117,0.4600677137379264,362.1048194986973,1.025,1.725,0.52631,15469.860468532228,1.0,46259.52537421099,-1.1054334386319598,-3.2095645436508558,-133.65026036336144,46259.52537421099,-1.1054334386319598,-3.2095645436508558,-133.65026036336144,46.0,-72.5625,-0.00624847412109375,-0.006282806396484375,1.2138671875,0.150146484375,0.2205810546875,-8.7421875,10.0,-15.0,16.0
4.065370321273804,948.3790848232559,1667.211278269962,67.5954682034098,-0.060559425429397074,0.13318098547693047,1.6194738814160647,0.0002727508544921875,1.6420103865741438,946.800438063701,1668.4282424354883,9.634644440591286,-8.7421875,0.07662091517674412,0.05778872173003811,0.45871453179659016,362.78901843681047,1.025,1.725,0.52631,15469.860468532228,1.0,50936.22116083154,3.5686909744521116,7.785454509059958,233.21921370251354,50936.22116083154,3.5686909744521116,7.785454509059958,233.21921370251354,,,,,,,,,,,
4.06795597076416,948.6387285262748,1667.7808696115912,69.73102821078383,-0.07047321408016542,0.14661345094140646,1.6142621158181636,7.557868957519531e-05,1.6410644548150215,946.800438063701,1668.4282424354883,9.634644440591286,-8.7421875,0.07636127147372519,0.05721913038840876,0.4565789717892161,362.49040626423925,1.025,1.725,0.52631,15469.860468532228,1.0,40967.523106778426,0.12104994698401761,-2.171008148155653,-136.13225628077177,40967.523106778426,0.12104994698401761,-2.171008148155653,-136.13225628077177,,,,,,,,,,,
4.0708067417144775,949.5001532961502,1668.3416354858796,71.88026893060695,-0.07989117500038377,0.16753354427923337,1.601129266788547,7.62939453125e-05,1.6399189570236987,949.5001532961502,1668.3416354858796,9.67352804565395,-5.828125,0.07549984670384981,0.05665836451412042,0.45442973106939305,361.73794944185977,1.025,1.725,0.52631,15469.860468532228,1.0,42723.06761465523,4.197923102923584,-1.1762294757382705,-352.74559312447207,42723.06761465523,4.197923102923584,-1.1762294757382705,-352.74559312447207,43.09375,-60.78125,-0.0160675048828125,-0.00881195068359375,1.1904296875,0.1298828125,0.2386474609375,-5.828125,10.0,-5.0,-10.0
4.076101303100586,950.5895488116101,1669.018183359759,74.33846473203499,-0.10026669839795173,0.17995914513459363,1.5978091172237496,7.748603820800781e-05,1.6377917553726744,949.5001532961502,1668.3416354858796,9.67352804565395,-5.828125,0.07441045118838986,0.05598181664024105,0.45197153526796496,361.54771888444463,1.025,1.725,0.52631,15469.860468532228,1.0,46801.71759959696,2.4874284453539786,-0.04127387320882714,-32.031743937909276,46801.71759959696,2.4874284453539786,-0.04127387320882714,-32.031743937909276,,,,,,,,,,,
4.079596281051636,951.7542881501082,1669.7307538902248,76.9524445209337,-0.10594770838888215,0.21588598983880597,1.5813401585726767,8.0108642578125e-05,1.6361687428717373,951.7542881501082,1669.7307538902248,9.708231125590451,-6.87109375,0.07324571184989179,0.05526924610977517,0.44935755547906625,360.60411706076275,1.025,1.725,0.52631,15469.860468532228,1.0,42568.728549708976,5.057919852678999,-1.2865338727954234,-382.0720795882529,42568.728549708976,5.057919852678999,-1.2865338727954234,-360,42.15625,-54.78125,-0.004425048828125,-0.00823974609375,1.1552734375,0.08905029296875,0.2705078125,-6.87109375,10.0,-22.0,25.0
4.085294008255005,953.3779950712736,1670.423229007618,79.88194460665878,-0.13829240125347073,0.24309382810200264,1.5786072919161578,7.891654968261719e-05,1.6333770467938615,951.7542881501082,1669.7307538902248,9.708231125590451,-6.87109375,0.07162200492872636,0.05457677099238208,0.4464280553933412,360.44753533537215,1.025,1.725,0.52631,15469.860468532228,1.0,45820.519907067246,4.4025821675149714,0.28799884783581553,-35.40441484752845,45820.519907067246,4.4025821675149714,0.28799884783581553,-35.40441484752845,,,,,,,,,,,
4.088415861129761,954.9958487901404,1671.5675347640713,82.72326073439139,-0.135846753349267,0.24821671703215478,1.5650478621669475,7.867813110351562e-05,1.6315383295664856,954.9958487901404,1671.5675347640713,11.539736772748462,-0.5576171875,0.07000415120985963,0.053432465235928706,0.4435867392656086,359.6706372381383,1.025,1.725,0.52631,15469.860468532228,1.0,40003.84323032467,9.235398737074723,-4.30214821456541,-361.6115006245547,40003.84323032467,9.235398737074723,-4.30214821456541,-360,40.4375,-46.125,0.0009493827819824219,-0.0112152099609375,1.1337890625,0.0711669921875,0.282470703125,-0.5576171875,28.0,20.0,31.0
4.091380834579468,956.8346497618887,1672.8328351525481,86.03610079528383,-0.13326885286047968,0.2501409534309878,1.5563182577540966,7.462501525878906e-05,1.6298172153957158,954.9958487901404,1671.5675347640713,11.539736772748462,-0.5576171875,0.06816535023811127,0.05216716484745189,0.44027389920471616,359.1704677484631,1.025,1.725,0.52631,15469.860468532228,1.0,34771.09384948966,12.90507042053321,-6.257278742789235,-279.25613765076343,34771.09384948966,12.90507042053321,-6.257278742789235,-279.25613765076343,,,,,,,,,,,
4.096373796463013,958.8835949913317,1674.2763593243772,89.22830410809007,-0.14220732966617267,0.2546828435654816,1.5478438566564174,0.00027942657470703125,1.6263829968201573,954.9958487901404,1671.5675347640713,11.539736772748462,-0.5576171875,0.06611640500866826,0.05072364067562284,0.43708169589190987,358.6849203316651,1.025,1.725,0.52631,15469.860468532228,1.0,43683.62258446068,7.5449465593957346,-3.0624755964723773,-165.50525533035704,43683.62258446068,7.5449465593957346,-3.0624755964723773,-165.50525533035704,,,,,,,,,,,
4.098940849304199,961.3340099187013,1674.9781780867831,92.2449451625545,-0.18289285150477938,0.3235778131768099,1.5510363230941875,7.653236389160156e-05,1.6244165126162975,954.9958487901404,1671.5675347640713,11.539736772748462,-0.5576171875,0.06366599008129867,0.05002182191321686,0.43406505483744545,358.8678351847865,1.025,1.725,0.52631,15469.860468532228,1.0,34867.36751609971,19.463204850604026,-2.0420520071131816,89.9195946700325,34867.36751609971,19.463204850604026,-2.0420520071131816,89.9195946700325,,,,,,,,,,,
4.102159261703491,964.3530328759617,1676.380789622818,95.70935171620572,-0.19193975603318875,0.3283844616608967,1.5264201463511888,0.00011515617370605469,1.621624493165343,964.3530328759617,1676.380789622818,13.188985358367884,-1.6494140625,0.06064696712403827,0.04861921037718207,0.43060064828379424,357.45743214966456,1.025,1.725,0.52631,15469.860468532228,1.0,37223.259511529366,18.5907812993495,-5.277815676125159,-668.4474137442405,37223.259511529366,18.5907812993495,-5.277815676125159,-360,38.1875,-34.625,-0.00896453857421875,-0.01100921630859375,1.0849609375,0.01207733154296875,0.26123046875,-1.6494140625,28.0,6.0,6.0
4.106614112854004,967.37393734375,1678.8931923280331,99.35046757171745,-0.1824268582949344,0.3185663011575067,1.5221303690108352,8.0108642578125e-05,1.617653267656169,964.3530328759617,1676.380789622818,13.188985358367884,-1.6494140625,0.05762606265625004,0.046106807671966864,0.4269595324282825,357.21164601301143,1.025,1.725,0.52631,15469.860468532228,1.0,40247.0086340179,14.57875307854707,-9.129641268414558,-127.21669884691326,40247.0086340179,14.57875307854707,-9.129641268414558,-127.21669884691326,,,,,,,,,,,
4.110515832901001,972.5897174097722,1681.3435202836174,106.69793804731522,-0.3449673054844225,0.13172081799417595,1.5733246888078922,8.082389831542969e-05,1.6135766995110674,972.5897174097722,1681.3435202836174,14.672109474672844,-3.228515625,0.05241028259022778,0.04365647971638259,0.4196120619526847,360.14486447242587,1.025,1.725,0.52631,15469.860468532228,1.0,23630.248614797525,27.72555368087768,-9.24084811464684,1095.7560708371257,23630.248614797525,27.72555368087768,-9.24084811464684,360,33.34375,-19.203125,-0.0172576904296875,0.0163421630859375,1.021484375,-0.038421630859375,0.267578125,-3.228515625,28.0,2.0,4.0
4.118628978729248,975.4825062504099,1683.1349083270134,108.92936592318378,-0.2816032689098899,0.15312460673577305,1.5350335748263622,0.0036530494689941406,1.6049555358101257,972.5897174097722,1681.3435202836174,14.672109474672844,-3.228515625,0.04951749374959013,0.04186509167298664,0.41738063407681614,357.9509452484298,1.025,1.725,0.52631,15469.860468532228,1.0,49205.90143725563,7.201720166561276,-1.9197619100825383,-442.16228004506803,49205.90143725563,7.201720166561276,-1.9197619100825383,-360,,,,,,,,,,,
4.127736568450928,980.6119087212314,1684.1183036346188,113.54640363115797,-0.04774004713830859,0.18801986503691812,1.3803115015268497,0.006822109222412109,1.5939753667992946,980.6119087212314,1684.1183036346188,16.0094445816815,-5.19140625,0.04438809127876857,0.040881696365381234,0.41276359636884197,349.086023450854,1.025,1.725,0.52631,15469.860468532228,1.0,45440.07759488847,11.556316239947696,0.6718947422234862,-1603.3169331705694,45440.07759488847,11.556316239947696,0.6718947422234862,-360,12.1015625,16.40625,-0.0197296142578125,-0.03118896484375,0.98388671875,-0.0948486328125,0.2802734375,-5.19140625,28.0,7.0,-5.0
4.1382832527160645,984.8047299829639,1686.8006118891847,117.32129849906505,-0.03317874077820118,0.17042627546836805,1.3791753517567729,0.008394002914428711,1.5776119598536136,980.6119087212314,1684.1183036346188,16.0094445816815,-5.19140625,0.040195270017036135,0.03819938811081534,0.4089887015009349,349.0209268641338,1.025,1.725,0.52631,15469.860468532228,1.0,47582.59727175178,8.727793082349534,-2.6673673955876875,-174.0605776985919,47582.59727175178,8.727793082349534,-2.6673673955876875,-174.0605776985919,,,,,,,,,,,
4.147814989089966,988.9797017446105,1689.1176986774499,120.31558350909985,-0.03257265792078587,0.16775754181181327,1.3600838004572693,0.007524013519287109,1.5564671677767854,988.9797017446105,1689.1176986774499,19.312072116497855,-8.796875,0.03602029825538955,0.03588230132255012,0.4059944164909001,347.92706155031476,1.025,1.725,0.52631,15469.860468532228,1.0,48453.24777712355,9.81024319728558,-2.140456718720261,-349.8492689136576,48453.24777712355,9.81024319728558,-2.140456718720261,-349.8492689136576,-3.197265625,39.125,0.0005130767822265625,-0.03472900390625,0.91796875,-0.1402587890625,0.29736328125,-8.796875,49.0,-15.0,-14.0
4.15769624710083,993.3093349613345,1691.9939310787138,123.32615890198397,-0.012949943886803096,0.15917655613186832,1.3593408323393676,0.0076334476470947266,1.5303710125984793,993.3093349613345,1691.9939310787138,22.285131061331278,-7.7890625,0.03169066503866554,0.033006068921286214,0.402983841098016,347.8844926128462,1.025,1.725,0.52631,15469.860468532228,1.0,48428.45479381875,10.349611137041242,-3.511544861460764,-188.22554615084337,48428.45479381875,10.349611137041242,-3.511544861460764,-188.22554615084337,-31.5625,83.125,0.0023899078369140625,-0.0071868896484375,0.91162109375,-0.142822265625,0.311767578125,-7.7890625,49.0,-1.0,-4.0
4.174779653549194,997.9778330242203,1694.7132929924862,126.39025024896945,-0.0032084401523113436,0.13784589432981045,1.3529027772344508,0.014907360076904297,1.4824728409034915,997.9778330242203,1694.7132929924862,24.960764407888625,-9.171875,0.02702216697577967,0.03028670700751377,0.3999197497510305,347.51561922706185,1.025,1.725,0.52631,15469.860468532228,1.0,50362.14735666726,6.887805737083333,-1.0314823745967998,-219.67978866759898,50362.14735666726,6.887805737083333,-1.0314823745967998,-219.67978866759898,-41.375,103.125,-0.0155792236328125,0.0137786865234375,0.884765625,-0.1676025390625,0.334716796875,-9.171875,49.0,14.0,20.0
4.184684991836548,999.3695716473562,1699.8255290649151,124.67090983849613,-0.09837712573454978,0.10031004512843786,1.433272025046392,0.007752418518066406,1.4568993782799509,999.3695716473562,1699.8255290649151,29.267079809177247,-9.65625,0.025630428352643776,0.025174470935084854,0.40163909016150384,352.12043792932707,1.025,1.725,0.52631,15469.860468532228,1.0,56522.761575374374,2.8082043647432706,-9.167892243946714,579.6174476950841,56522.761575374374,2.8082043647432706,-9.167892243946714,360,-48.8125,117.0,0.01042938232421875,0.0026073455810546875,0.9169921875,-0.1307373046875,0.3466796875,-9.65625,68.0,15.0,22.0
4.187888145446777,1004.4234865201266,1702.9451171982523,127.51413186708055,-0.1023716415328962,0.08650201054655544,1.4346897467357766,0.0010614395141601562,1.449896183820059,999.3695716473562,1699.8255290649151,29.267079809177247,-9.65625,0.02057651347987337,0.02205488280174768,0.3987958681329194,352.20166739865294,1.025,1.725,0.52631,15469.860468532228,1.0,40104.73138132227,33.56866776938927,-24.233726628973823,-77.28782336305736,40104.73138132227,33.56866776938927,-24.233726628973823,-77.28782336305736,,,,,,,,,,,
4.198592662811279,1009.5754001489635,1706.3448904429354,130.1264071543321,-0.0929825238234795,0.05678404807404875,1.4412458495178595,0.0026738643646240234,1.4307031513738178,1009.5754001489635,1706.3448904429354,33.14571958767585,-7.80859375,0.015424599851036532,0.018655109557064634,0.39618359284566784,352.5773044181203,1.025,1.725,0.52631,15469.860468532228,1.0,49376.57757292733,9.760980891177272,-6.783298844622851,-59.35970613663813,49376.57757292733,9.760980891177272,-6.783298844622851,-59.35970613663813,-52.0625,140.375,-0.00015676021575927734,-0.016998291015625,0.9580078125,-0.0833740234375,0.281494140625,-7.80859375,68.0,13.0,26.0
4.2074761390686035,1014.8930680866291,1709.3999428574107,132.8077706497292,-0.09209974119806609,0.040921869145429245,1.4461993158788435,0.006733417510986328,1.4216454638374336,1009.5754001489635,1706.3448904429354,33.14571958767585,-7.80859375,0.010106931913370885,0.015600057142589321,0.39350222935027074,352.8611171345647,1.025,1.725,0.52631,15469.860468532228,1.0,48325.20235968316,12.105790559719345,-8.57266824248468,-58.45592223669175,48325.20235968316,12.105790559719345,-8.57266824248468,-58.45592223669175,,,,,,,,,,,
4.217874050140381,1019.7596690701647,1713.2298542813792,135.16386314937068,-0.08597867524591296,0.003880215348567242,1.4479829614411073,0.008252143859863281,1.4172431742499019,1019.7596690701647,1713.2298542813792,36.63418148705013,-7.07421875,0.005240330929835295,0.011770145718620825,0.39114613685062927,352.9633124974297,1.025,1.725,0.52631,15469.860468532228,1.0,49541.20855280324,8.746124835721455,-8.836769065670621,-90.97903483047685,49541.20855280324,8.746124835721455,-8.836769065670621,-90.97903483047685,-54.25,149.5,0.00333404541015625,-0.0018157958984375,0.95458984375,-0.07049560546875,0.29052734375,-7.07421875,68.0,15.0,43.0
