time,x_pos,y_pos,z_pos,x_rot,y_rot,z_rot,delta_time,z_filtered,x_pos_est,y_pos_est,z_pos_est,z_rot_est,x_error,y_error,z_error,yaw_error,x_setpoint,y_setpoint,z_setpoint,yaw_setpoint,vicon_available,thrust_cal,pitch_cal,roll_cal,yaw_cal,thrust_lim,pitch_lim,roll_lim,yaw_lim,gyro_x,gyro_y,acc_x,acc_y,acc_z,stateEstimate_az,stateEstimate_vz,stateEstimate_yaw,range_zrange,motion_deltaX,motion_deltaY
3.7480039596557617,981.7811618594194,1716.4300199256672,57.5358449780896,-0.005148686906773452,-0.058559462028689176,1.6036455526920246,0.0009253025054931641,1.5509187503064197,981.7811618594194,1716.4300199256672,1.2854653189580856,-0.0095977783203125,0.0432188381405806,0.008569980074332762,-0.0575358449780896,361.8821220041773,1.025,1.725,0.0,15469.860468532228,1.0,389740.307836523,-337.64353288674215,73.79860542397363,1039.6161635024646,65535,-40,40,360,0.10345458984375,-0.124755859375,0.03607177734375,0.0013952255249023438,1.0009765625,0.0009627342224121094,-0.00432586669921875,-0.0095977783203125,13.0,0.0,0.0
3.750795602798462,981.6024126723541,1716.4006578612593,57.67170672271796,-0.012584890897100461,-0.043442049262627944,1.6036573429923935,0.0001068115234375,1.5536024579199352,981.6024126723541,1716.4006578612593,2.4568650267484187,-0.0095977783203125,0.04339758732764585,0.008599342138740668,0.468638293277282,361.88279753862764,1.025,1.725,0.52631,15469.860468532228,1.0,2816159.2857568753,-2.8745998628384335,-0.22923522471392999,28.554585019162488,65535,-2.8745998628384335,-0.22923522471392999,28.554585019162488,-0.1297607421875,0.10894775390625,0.037017822265625,0.002017974853515625,0.9990234375,-0.00064849853515625,-0.00432586669921875,-0.0095977783203125,13.0,0.0,0.0
3.757429599761963,981.7734003290158,1716.4147253933565,57.50445911813283,-0.0072660199863720494,-0.057982309939272884,1.6038106343108514,9.107589721679688e-05,1.5584984981759455,981.6024126723541,1716.4006578612593,2.4568650267484187,-0.0095977783203125,0.04322659967098423,0.008585274606643451,0.4688055408818671,361.89158048421126,1.025,1.725,0.52631,15469.860468532228,1.0,55869.984761282925,-1.0493690308237476,-0.5157827813026084,30.596991872878842,55869.984761282925,-1.0493690308237476,-0.5157827813026084,30.596991872878842,,,,,,,,,,,
3.7607791423797607,981.7944826574408,1716.4268133796252,57.55968088873242,-0.0062658722006216855,-0.057891554259120626,1.6050212958918,0.00026988983154296875,1.5613189024088265,981.7944826574408,1716.4268133796252,3.5111447531483204,-0.01012420654296875,0.04320551734255923,0.008573186620374826,0.4687503191112675,361.9609462832182,1.025,1.725,0.52631,15469.860468532228,1.0,55118.06534930399,-1.5381275857095786,-0.5307455538197541,59.67224544130735,55118.06534930399,-1.5381275857095786,-0.5307455538197541,59.67224544130735,0.29931640625,0.2254638671875,0.03668212890625,0.0021724700927734375,1.0009765625,0.0008502006530761719,-0.004329681396484375,-0.01012420654296875,13.0,0.0,0.0
3.7629764080047607,981.7903182057869,1716.4195492735369,57.530953123604334,-0.00649541100109534,-0.05853284456840374,1.6036275192196245,7.462501525878906e-05,1.5629919443460356,981.7944826574408,1716.4268133796252,3.5111447531483204,-0.01012420654296875,0.04320968179421311,0.008580450726463141,0.4687790468763956,361.88108876231877,1.025,1.725,0.52631,15469.860468532228,1.0,55629.11597496877,-1.710264871022344,-0.36887692141472306,-29.73961261966342,55629.11597496877,-1.710264871022344,-0.36887692141472306,-29.73961261966342,,,,,,,,,,,
3.7715744972229004,981.5382600594454,1716.40981235988,57.716547643458014,-0.011692608725768914,-0.04348264852560993,1.6053317030800707,7.867813110351562e-05,1.5698029111078484,981.5382600594454,1716.40981235988,4.459987063379726,-0.00980377197265625,0.04346173994055459,0.008590187640119894,0.46859345235654193,361.97873130503666,1.025,1.725,0.52631,15469.860468532228,1.0,55030.362138547694,-2.2967303368462275,-0.4046917969215816,46.47834902534048,55030.362138547694,-2.2967303368462275,-0.4046917969215816,46.47834902534048,0.07635498046875,0.314208984375,0.038360595703125,0.0014743804931640625,1.0,0.0002968311309814453,-0.0043182373046875,-0.00980377197265625,13.0,0.0,0.0
3.7755279541015625,981.5790825756545,1716.4514727898713,57.67157230584124,-0.01436926864719067,-0.04506432666437574,1.6053283415304092,6.985664367675781e-05,1.572641315933698,981.5382600594454,1716.40981235988,4.459987063379726,-0.00980377197265625,0.04342091742434548,0.008548527210128668,0.46863842769415875,361.9785387024284,1.025,1.725,0.52631,15469.860468532228,1.0,55585.57958413613,-1.4264599322071454,-0.6322771064475861,29.603170123759256,55585.57958413613,-1.4264599322071454,-0.6322771064475861,29.603170123759256,,,,,,,,,,,
3.7789671421051025,981.7139120361442,1716.4298906543718,57.47015650367557,-0.010501609239301022,-0.0574541704068743,1.6030454757243986,7.43865966796875e-05,1.5752203044022495,981.7139120361442,1716.4298906543718,5.513980630501706,-0.01015472412109375,0.043286087963855836,0.008570109345628225,0.46883984349632435,361.8477401265493,1.025,1.725,0.52631,15469.860468532228,1.0,56338.36683173217,-0.8411994888713608,-0.2468175283651235,-26.63390701835086,56338.36683173217,-0.8411994888713608,-0.2468175283651235,-26.63390701835086,-0.472900390625,0.39404296875,0.0379638671875,-0.01094818115234375,1.0166015625,0.0099334716796875,-0.0011606216430664062,-0.01015472412109375,15.0,0.0,0.0
3.781226634979248,981.5155241882092,1716.4358257567467,57.735806783553734,-0.010884521055518492,-0.04396795323261977,1.6057372816034103,6.961822509765625e-05,1.5766301409527603,981.7139120361442,1716.4298906543718,5.513980630501706,-0.01015472412109375,0.043484475811790844,0.00856417424325332,0.46857419321644617,362.00196924268516,1.025,1.725,0.52631,15469.860468532228,1.0,53219.05791086739,-3.734324130946618,-0.42645158280237594,142.21888978927643,53219.05791086739,-3.734324130946618,-0.42645158280237594,142.21888978927643,,,,,,,,,,,
3.7880849838256836,981.7306971044111,1716.4663587675695,57.5568296471759,-0.004790337662012041,-0.05929586653779031,1.6046362020157596,7.486343383789062e-05,1.5810160708716239,981.7139120361442,1716.4298906543718,5.513980630501706,-0.01015472412109375,0.043269302895588904,0.008533641232430455,0.46875317035282404,361.9388820294048,1.025,1.725,0.52631,15469.860468532228,1.0,55831.107264795704,-0.950027914317521,-0.41033004438827503,15.296831465175563,55831.107264795704,-0.950027914317521,-0.41033004438827503,15.296831465175563,,,,,,,,,,,
3.7902772426605225,981.7818165990235,1716.412944624851,57.58426995044066,-0.003572003249525933,-0.058143950139449764,1.6050612203599117,7.581710815429688e-05,1.5823176114888613,981.7139120361442,1716.4298906543718,5.513980630501706,-0.01015472412109375,0.0432181834009765,0.008587055375149021,0.46872573004955925,361.9632337867404,1.025,1.725,0.52631,15469.860468532228,1.0,55174.99393862335,-1.120424149276748,0.25903495969367124,46.090697741740044,55174.99393862335,-1.120424149276748,0.25903495969367124,46.090697741740044,,,,,,,,,,,
3.792377233505249,981.5666303220619,1716.39749243215,57.76807944124243,-0.007797087549566506,-0.044345721291024036,1.606508197193463,6.365776062011719e-05,1.58351507387701,981.7139120361442,1716.4298906543718,5.513980630501706,-0.01015472412109375,0.043433369677938115,0.008602507567849898,0.4685419205587575,362.04613945235604,1.025,1.725,0.52631,15469.860468532228,1.0,53916.60589196201,-3.85836864375544,-0.12457456792904342,90.12661176844202,53916.60589196201,-3.85836864375544,-0.12457456792904342,90.12661176844202,,,,,,,,,,,
3.797207832336426,981.6550751080194,1716.444029077345,57.64969341192387,-0.01626309191368877,-0.04250421679067953,1.60331637035793,8.249282836914062e-05,1.5861915739446006,981.6550751080194,1716.444029077345,6.46256586511794,-0.140625,0.04334492489198055,0.008555970922654978,0.46866030658807606,361.8632612457434,1.025,1.725,0.52631,15469.860468532228,1.0,55788.20870554687,-1.227910314476011,-0.4246921065803561,-26.821881059764202,55788.20870554687,-1.227910314476011,-0.4246921065803561,-26.821881059764202,4.1171875,1.2763671875,0.0243072509765625,-0.00266265869140625,1.001953125,-0.0023784637451171875,-0.0010204315185546875,-0.140625,15.0,0.0,0.0
3.7995126247406006,981.7229090999855,1716.4124256690714,57.466471814145095,-0.01364373570680337,-0.055446815914563234,1.602589685275619,8.153915405273438e-05,1.5872556089557281,981.6550751080194,1716.444029077345,6.46256586511794,-0.140625,0.04327709090001451,0.008587574330928646,0.46884352818585484,361.82162525749186,1.025,1.725,0.52631,15469.860468532228,1.0,56826.45218774483,-0.9214922520615125,0.14005496312720042,-1.4709369671269457,56826.45218774483,-0.9214922520615125,0.14005496312720042,-1.4709369671269457,,,,,,,,,,,
3.8016176223754883,981.7562768854128,1716.4768273878599,57.53796054531702,-0.005929548742598655,-0.058623396522995426,1.603296575988383,6.937980651855469e-05,1.5882548327212345,981.6550751080194,1716.444029077345,6.46256586511794,-0.140625,0.04324372311458717,0.008523172612140115,0.46877203945468293,361.86212711191024,1.025,1.725,0.52631,15469.860468532228,1.0,54803.241909878045,-1.2428752722610983,-0.8530556575167114,57.31562842584523,54803.241909878045,-1.2428752722610983,-0.8530556575167114,57.31562842584523,,,,,,,,,,,
3.8055367469787598,981.5590306682727,1716.4159253856249,57.72295064214699,-0.011884789566555145,-0.04444759275476084,1.6040255983095184,7.224082946777344e-05,1.589994172830408,981.6550751080194,1716.444029077345,6.46256586511794,-0.140625,0.043440969331727274,0.00858407461437514,0.46858704935785295,361.90389701408213,1.025,1.725,0.52631,15469.860468532228,1.0,54594.386127994796,-2.697276690162271,0.1696205745599074,44.523068639260075,54594.386127994796,-2.697276690162271,0.1696205745599074,44.523068639260075,,,,,,,,,,,
3.809323787689209,981.6415459284992,1716.4448149347566,57.659110614754624,-0.013761032724862721,-0.04571290704127418,1.6036799626095282,8.7738037109375e-05,1.5915855904682068,981.6415459284992,1716.4448149347566,7.3163067158962924,-0.29736328125,0.043358454071500775,0.00855518506524345,0.4686508893852453,361.88409354722364,1.025,1.725,0.52631,15469.860468532228,1.0,55659.88313608123,-1.1349209079548885,-0.2619610455831902,20.748581187873793,55659.88313608123,-1.1349209079548885,-0.2619610455831902,20.748581187873793,-1.9345703125,-2.88671875,0.019775390625,0.0099029541015625,1.0048828125,0.0016326904296875,-0.00023496150970458984,-0.29736328125,15.0,0.0,0.0
3.811784505844116,981.7955591957696,1716.4054402188324,57.52744834371853,-0.006685282296764759,-0.057899108655861516,1.6037032662998183,0.00027680397033691406,1.5924544079502536,981.6415459284992,1716.4448149347566,7.3163067158962924,-0.29736328125,0.04320444080423044,0.008594559781167618,0.4687825516562814,361.8854287503243,1.025,1.725,0.52631,15469.860468532228,1.0,56340.318199970956,-0.16331176606937148,0.31312046031887936,29.13469398304184,56340.318199970956,-0.16331176606937148,0.31312046031887936,29.13469398304184,,,,,,,,,,,
3.818704843521118,981.579219241158,1716.3812138998815,57.762718110663286,-0.008732004418283758,-0.0435333000733554,1.6053498809333313,0.00012969970703125,1.5947369761702108,981.6415459284992,1716.4448149347566,7.3163067158962924,-0.29736328125,0.04342078075884206,0.008618786100118542,0.46854728188933664,361.9797728193091,1.025,1.725,0.52631,15469.860468532228,1.0,54814.785315275105,-2.257585218853551,0.015478004795123235,50.051926956265675,54814.785315275105,-2.257585218853551,0.015478004795123235,50.051926956265675,,,,,,,,,,,
3.820868730545044,981.7595512190952,1716.4435885817347,57.56297329281266,-0.004664302037805596,-0.059852501625600935,1.6052977273836133,7.224082946777344e-05,1.5953394245531938,981.6415459284992,1716.4448149347566,7.3163067158962924,-0.29736328125,0.043240448780904786,0.00855641141826527,0.46874702670718726,361.97678464102364,1.025,1.725,0.52631,15469.860468532228,1.0,57023.54467120833,0.3336097588226743,-0.6184009374764646,27.491347620039107,57023.54467120833,0.3336097588226743,-0.6184009374764646,27.491347620039107,,,,,,,,,,,
3.827106237411499,981.5794547356959,1716.3825972457112,57.74033530852272,-0.0095552612132226,-0.04398698230144875,1.6050902324984617,8.0108642578125e-05,1.5969589663583676,981.6415459284992,1716.4448149347566,7.3163067158962924,-0.29736328125,0.04342054526430411,0.008617402754288832,0.4685696646914772,361.9648960598339,1.025,1.725,0.52631,15469.860468532228,1.0,54907.304203249136,-2.2004501124774043,0.21273724245004205,26.616650527878335,54907.304203249136,-2.2004501124774043,0.21273724245004205,26.616650527878335,,,,,,,,,,,
3.8307301998138428,981.8111090141024,1716.4616847366879,57.525487854145794,-0.007460847035291994,-0.058810633036249366,1.6030312524481958,7.891654968261719e-05,1.5978103578841443,981.8111090141024,1716.4616847366879,8.284810585357219,-0.63818359375,0.043188890985897614,0.008538315263312142,0.46878451214585415,361.84692519285204,1.025,1.725,0.52631,15469.860468532228,1.0,56357.552335135304,-0.2077884572820441,-0.3762385131850431,-19.327902025998213,56357.552335135304,-0.2077884572820441,-0.3762385131850431,-19.327902025998213,1.251953125,3.318359375,0.0491943359375,0.00507354736328125,1.01171875,0.01534271240234375,0.006969451904296875,-0.63818359375,17.0,0.0,0.0
3.8347887992858887,981.8010793836357,1716.4231534270762,57.52823818111522,-0.005944666686073201,-0.05849108175202081,1.6038149673856965,7.557868957519531e-05,1.598605336644793,981.8111090141024,1716.4616847366879,8.284810585357219,-0.63818359375,0.04319892061636426,0.008576846572923841,0.4687817618188847,361.8918287511122,1.025,1.725,0.52631,15469.860468532228,1.0,55380.17020472975,-1.6135734852124017,0.27869773545101817,45.572121530665385,55380.17020472975,-1.6135734852124017,0.27869773545101817,45.572121530665385,,,,,,,,,,,
3.838318109512329,981.550932283348,1716.424871351069,57.71518018869773,-0.010150898303283988,-0.04540661045540481,1.6045726079223033,8.177757263183594e-05,1.599271400995649,981.550932283348,1716.424871351069,9.156390293604233,-0.806640625,0.04344906771665205,0.008575128648931013,0.46859481981130224,361.9352383562478,1.025,1.725,0.52631,15469.860468532228,1.0,54537.26546438168,-3.0297693988689995,0.03434143266363443,46.70099806197507,54537.26546438168,-3.0297693988689995,0.03434143266363443,46.70099806197507,-2.931640625,-0.29638671875,0.02459716796875,-0.002986907958984375,0.94482421875,-0.055938720703125,0.00890350341796875,-0.806640625,17.0,0.0,0.0
3.840603828430176,981.6271679084759,1716.4632215320153,57.626117111544104,-0.015767911254058985,-0.04530095681595165,1.6040741918748278,7.772445678710938e-05,1.5996225145349992,981.550932283348,1716.424871351069,9.156390293604233,-0.806640625,0.04337283209152406,0.008536778467984733,0.46868388288845586,361.90668122028586,1.025,1.725,0.52631,15469.860468532228,1.0,56094.55349257766,-0.7658306263131088,-0.26871204833276274,8.521321970971393,56094.55349257766,-0.7658306263131088,-0.26871204833276274,8.521321970971393,,,,,,,,,,,
3.8426566123962402,981.664967259151,1716.4457927025085,57.6399868391078,-0.0175582876586008,-0.04276813792664878,1.6043096725781787,5.9604644775390625e-05,1.5999374600994687,981.550932283348,1716.424871351069,9.156390293604233,-0.806640625,0.04333503274084899,0.008554207297491529,0.46867001316089213,361.9201732707446,1.025,1.725,0.52631,15469.860468532228,1.0,55270.3027966065,-1.1523087645521173,0.30610323816374785,38.738762213576216,55270.3027966065,-1.1523087645521173,0.30610323816374785,38.738762213576216,,,,,,,,,,,
3.8478472232818604,981.661411993302,1716.433625858322,57.70821284984048,-0.014680869004780845,-0.04091986619004951,1.6037426388088087,0.00019598007202148438,1.6006686155723242,981.661411993302,1716.433625858322,9.940804273154427,-0.95654296875,0.04333858800669805,0.008566374141677897,0.46860178715015943,361.88768462891835,1.025,1.725,0.52631,15469.860468532228,1.0,55168.88701486268,-1.5626891904931233,0.1738453870513721,19.18085192697415,55168.88701486268,-1.5626891904931233,0.1738453870513721,19.18085192697415,-0.8232421875,-6.66796875,0.01105499267578125,0.005290985107421875,0.95654296875,-0.0271453857421875,0.0064239501953125,-0.95654296875,17.0,0.0,0.0
3.851940393447876,981.6127186587688,1716.4498656561427,57.657830732330936,-0.01587196973960981,-0.04456869110132759,1.6044689399476226,0.00041556358337402344,1.6011381049445061,981.661411993302,1716.433625858322,9.940804273154427,-0.95654296875,0.04338728134123119,0.00855013434385728,0.468652169267669,361.92929861882794,1.025,1.725,0.52631,15469.860468532228,1.0,55585.792002651375,-1.7860057488908188,0.06283048254630422,43.262614382842834,55585.792002651375,-1.7860057488908188,0.06283048254630422,43.262614382842834,,,,,,,,,,,
3.8548450469970703,981.7362186641969,1716.435738771966,57.47543322872877,-0.012325451764836322,-0.05605118436609895,1.6025984004839202,9.918212890625e-05,1.6014372871825817,981.661411993302,1716.433625858322,9.940804273154427,-0.95654296875,0.04326378133580306,0.008564261228033956,0.46883456677127117,361.8221246021451,1.025,1.725,0.52631,15469.860468532228,1.0,56613.50578307921,-0.5009527184229714,0.2947353661493571,-36.13580889547812,56613.50578307921,-0.5009527184229714,0.2947353661493571,-36.13580889547812,,,,,,,,,,,
3.8601152896881104,981.6099086423694,1716.3842807309154,57.71913647436574,-0.011531691667926757,-0.04288971832193677,1.6041882299502102,9.1552734375e-05,1.6019101690394824,981.661411993302,1716.433625858322,9.940804273154427,-0.95654296875,0.043390091357630584,0.008615719269084594,0.46859086352563417,361.913215120709,1.025,1.725,0.52631,15469.860468532228,1.0,54603.222810858344,-2.068123867353176,0.3651034277090211,54.64173018601582,54603.222810858344,-2.068123867353176,0.3651034277090211,54.64173018601582,,,,,,,,,,,
3.8622114658355713,981.6445295186909,1716.4242024113241,57.66019058384456,-0.015783863925074564,-0.04366314486373708,1.6041967344407697,7.200241088867188e-05,1.6020719515450044,981.661411993302,1716.433625858322,9.940804273154427,-0.95654296875,0.04335547048130911,0.008575797588675868,0.4686498094161554,361.913702392125,1.025,1.725,0.52631,15469.860468532228,1.0,55868.14931009596,-1.164085923956382,-0.22681300393520987,29.05750450112641,55868.14931009596,-1.164085923956382,-0.22681300393520987,29.05750450112641,,,,,,,,,,,
3.870563268661499,981.6426271700691,1716.4218891268536,57.681689427670314,-0.01538060046114154,-0.04269486185126884,1.6050348239422794,8.153915405273438e-05,1.6026196201927594,981.6426271700691,1716.4218891268536,10.346692919519048,-1.224609375,0.04335737282993091,0.008578110873146442,0.4686283105723296,361.96172138341575,1.025,1.725,0.52631,15469.860468532228,1.0,55343.942802023324,-1.5414070724570483,0.19657897311159497,37.899661513889484,55343.942802023324,-1.5414070724570483,0.19657897311159497,37.899661513889484,-0.80859375,2.98046875,0.00960540771484375,-0.019989013671875,1.017578125,0.014892578125,-0.0014886856079101562,-1.224609375,14.0,0.0,0.0
3.878150463104248,981.7430035106365,1716.4709808423042,57.61013417208062,-0.00439944804925225,-0.05660101445439612,1.6039888506381064,7.915496826171875e-05,1.6029839458279929,981.6426271700691,1716.4218891268536,10.346692919519048,-1.224609375,0.04325699648936347,0.008529019157695756,0.46869986582791934,361.9017915276033,1.025,1.725,0.52631,15469.860468532228,1.0,55549.0158474786,-1.2333479539089118,0.06968035955637222,16.565510978559693,55549.0158474786,-1.2333479539089118,0.06968035955637222,16.565510978559693,,,,,,,,,,,
3.8805174827575684,981.7658281157591,1716.4330835016099,57.50367917386634,-0.006165068730353872,-0.05916483578308601,1.6041624151240088,0.0002727508544921875,1.6030831310036788,981.6426271700691,1716.4218891268536,10.346692919519048,-1.224609375,0.04323417188424094,0.008566916498390129,0.4688063208261336,361.91173604011885,1.025,1.725,0.52631,15469.860468532228,1.0,56182.67546596782,-1.3304344513995574,0.5656270567658188,35.18513994980431,56182.67546596782,-1.3304344513995574,0.5656270567658188,35.18513994980431,,,,,,,,,,,
3.883343458175659,981.7980292948127,1716.4751007153554,57.47236371466528,-0.00987121427660108,-0.057924412112480575,1.6026548179756972,7.557868957519531e-05,1.603196936206086,981.7980292948127,1716.4751007153554,10.712029575824838,-1.5029296875,0.04320197070518725,0.008524899284644562,0.46883763628533465,361.8253570863146,1.025,1.725,0.52631,15469.860468532228,1.0,55571.84695562094,-1.2805267151494617,-0.08801140310287064,-16.492202612629875,55571.84695562094,-1.2805267151494617,-0.08801140310287064,-16.492202612629875,-0.15087890625,-6.046875,-0.007228851318359375,-0.02642822265625,1.13671875,0.1304931640625,0.0005168914794921875,-1.5029296875,14.0,0.0,0.0
3.887805938720703,981.5701991736721,1716.4164360420123,57.71802555939826,-0.01020270474780478,-0.04623465774835204,1.605910130556392,8.0108642578125e-05,1.6033437575962979,981.7980292948127,1716.4751007153554,10.712029575824838,-1.5029296875,0.04342980082632789,0.008583563957987735,0.4685919744406017,362.01187275818427,1.025,1.725,0.52631,15469.860468532228,1.0,54440.674825084396,-2.6821596461542763,0.4734841723574521,94.18589930808797,54440.674825084396,-2.6821596461542763,0.4734841723574521,94.18589930808797,,,,,,,,,,,
3.889988899230957,981.8025306301081,1716.4523625119064,57.52706660722153,-0.004971115811113603,-0.059569757926087735,1.6042522716021113,7.748603820800781e-05,1.6034092485223432,981.7980292948127,1716.4751007153554,10.712029575824838,-1.5029296875,0.043197469369891904,0.008547637488093642,0.46878293339277843,361.916884437076,1.025,1.725,0.52631,15469.860468532228,1.0,56879.13042357698,0.7716264565015767,-0.06104533997213277,-36.69573604668568,56879.13042357698,0.7716264565015767,-0.06104533997213277,-36.69573604668568,,,,,,,,,,,
3.8920936584472656,981.5735303232453,1716.3798103997456,57.70320682878102,-0.011285857877329218,-0.04332795969777001,1.6042487898389293,7.200241088867188e-05,1.6034683396949094,981.7980292948127,1716.4751007153554,10.712029575824838,-1.5029296875,0.04342646967675466,0.008620189600254435,0.4686067931712189,361.9166849467404,1.025,1.725,0.52631,15469.860468532228,1.0,53970.23109620529,-3.9528969698579592,0.9061358029970021,28.60587881812482,53970.23109620529,-3.9528969698579592,0.9061358029970021,28.60587881812482,,,,,,,,,,,
3.8973546028137207,981.7160189069494,1716.4556195519247,57.54871863245354,-0.0036180596630768077,-0.06028048585604552,1.6055109593233095,0.0002815723419189453,1.6036057736214009,981.7160189069494,1716.4556195519247,11.040934487053018,-1.6435546875,0.04328398109305056,0.008544380448075345,0.4687612813675464,361.98900193122563,1.025,1.725,0.52631,15469.860468532228,1.0,55874.04148759188,-0.9456994285855999,-0.06057166552832072,49.92063403378246,55874.04148759188,-0.9456994285855999,-0.06057166552832072,49.92063403378246,0.54248046875,-24.984375,-0.004833221435546875,0.004756927490234375,1.189453125,0.1873779296875,0.00875091552734375,-1.6435546875,14.0,0.0,0.0
3.900019407272339,981.629654524656,1716.4499320779425,57.70009606816955,-0.014257254612639658,-0.04316627573863725,1.6045380711032242,0.00033211708068847656,1.6036643493782776,981.7160189069494,1716.4556195519247,11.040934487053018,-1.6435546875,0.04337034547534404,0.008550067922057451,0.4686099039318304,361.93325954227674,1.025,1.725,0.52631,15469.860468532228,1.0,54374.71513212481,-2.2729024242252573,0.2517457663479804,-4.061135844619784,54374.71513212481,-2.2729024242252573,0.2517457663479804,-4.061135844619784,,,,,,,,,,,
3.9020795822143555,981.8149026571823,1716.4226728620074,57.49244617683444,-0.0067232362192873344,-0.05965753976812812,1.6039555359497915,6.413459777832031e-05,1.6037099819538432,981.7160189069494,1716.4556195519247,11.040934487053018,-1.6435546875,0.043185097342817697,0.008577327137992597,0.4688175538231655,361.89988273656706,1.025,1.725,0.52631,15469.860468532228,1.0,57117.95309592226,0.4323626742728839,0.5832880196670958,3.9811710493238976,57117.95309592226,0.4323626742728839,0.5832880196670958,3.9811710493238976,,,,,,,,,,,
3.906935214996338,981.5692015424393,1716.380379884116,57.759818519494104,-0.010126600289530491,-0.04441472201664836,1.6057158610860573,8.392333984375e-05,1.6038153777453383,981.5692015424393,1716.380379884116,11.437062679526804,-1.7802734375,0.04343079845756074,0.00861962011588389,0.46855018148050587,362.00074193744587,1.025,1.725,0.52631,15469.860468532228,1.0,54490.445081081365,-2.597754038154048,0.3789281373128274,60.08179651141505,54490.445081081365,-2.597754038154048,0.3789281373128274,60.08179651141505,-0.50732421875,-42.03125,0.00720977783203125,-0.0322265625,1.2724609375,0.27392578125,0.024993896484375,-1.7802734375,15.0,0.0,0.0
3.9092414379119873,981.7786632989786,1716.4478645950578,57.455522370036846,-0.00779240407257399,-0.05939585373781362,1.6038990535401287,7.700920104980469e-05,1.6038577569035595,981.5692015424393,1716.380379884116,11.437062679526804,-1.7802734375,0.043221336701021414,0.008552135404942192,0.4688544776299631,361.8966465328766,1.025,1.725,0.52631,15469.860468532228,1.0,57763.126898248105,0.6124113416343016,-0.372525667633981,-43.203656235476174,57763.126898248105,0.6124113416343016,-0.372525667633981,-43.203656235476174,,,,,,,,,,,
3.911348581314087,981.6184587494392,1716.35434910205,57.72538972969285,-0.011041120172057325,-0.04348786923595261,1.6043998147383578,7.033348083496094e-05,1.6038979515688707,981.5692015424393,1716.380379884116,11.437062679526804,-1.7802734375,0.043381541250560755,0.008645650897949964,0.4685846102703071,361.9253380360791,1.025,1.725,0.52631,15469.860468532228,1.0,53186.82039981217,-3.2162549559155202,1.1572603639484216,49.67391110935454,53186.82039981217,-3.2162549559155202,1.1572603639484216,49.67391110935454,,,,,,,,,,,
3.9183905124664307,981.6391639367682,1716.4126184779388,57.622387622249484,-0.017443688184250513,-0.04186339550899147,1.6048030912899534,7.82012939453125e-05,1.6040208685365878,981.5692015424393,1716.380379884116,11.437062679526804,-1.7802734375,0.043360836063231774,0.008587381522061151,0.4686876123777504,361.9484440804621,1.025,1.725,0.52631,15469.860468532228,1.0,55636.58103508632,-1.459820414140954,0.056264380134452674,34.14397885296158,55636.58103508632,-1.459820414140954,0.056264380134452674,34.14397885296158,,,,,,,,,,,
3.920682668685913,981.7019595159686,1716.3795716860445,57.43871291868574,-0.01498002135308536,-0.05466042032596162,1.6036104372243956,0.0002639293670654297,1.6040568305734266,981.5692015424393,1716.380379884116,11.437062679526804,-1.7802734375,0.04329804048403139,0.008620428313955472,0.4688712870813142,361.88011003608653,1.025,1.725,0.52631,15469.860468532228,1.0,56754.002057420395,-0.9433610050154453,0.5687215384050867,-16.516534760428712,56754.002057420395,-0.9433610050154453,0.5687215384050867,-16.516534760428712,,,,,,,,,,,
3.923563003540039,981.5169555208654,1716.4061275000274,57.73545464925766,-0.009327017539202178,-0.043399586399679835,1.6056776755600017,0.00010156631469726562,1.6041007977205868,981.5169555208654,1716.4061275000274,11.794490267763095,-2.072265625,0.043483044479134605,0.008593872499972576,0.4685745453507423,361.9985540679644,1.025,1.725,0.52631,15469.860468532228,1.0,53717.470369977986,-2.8622921433578092,-0.00015212694885516354,89.12470478263238,53717.470369977986,-2.8622921433578092,-0.00015212694885516354,89.12470478263238,5.60546875,-53.71875,0.002536773681640625,-0.018951416015625,1.36328125,0.359130859375,0.07568359375,-2.072265625,15.0,0.0,0.0
3.927867889404297,981.7950383167245,1716.448050835309,57.511436592147916,-0.00518354610703794,-0.05930139757110073,1.60303213781257,0.00032591819763183594,1.604155915047923,981.5169555208654,1716.4061275000274,11.794490267763095,-2.072265625,0.04320496168327554,0.008551949164690995,0.46879856340785203,361.846975920494,1.025,1.725,0.52631,15469.860468532228,1.0,56297.44309211985,-0.07366430677545543,0.0669311494458022,-26.65901672624979,56297.44309211985,-0.07366430677545543,0.0669311494458022,-26.65901672624979,,,,,,,,,,,
3.930058479309082,981.7672551882456,1716.4196535135068,57.55496434787229,-0.006100918042316118,-0.05664808738873706,1.6051307749590458,8.463859558105469e-05,1.6041820116591374,981.5169555208654,1716.4061275000274,11.794490267763095,-2.072265625,0.0432327448117544,0.008580346486493227,0.46875503565212767,361.9672189717164,1.025,1.725,0.52631,15469.860468532228,1.0,55065.225308677705,-1.807502954914523,0.5028910375950791,109.46007765031635,55065.225308677705,-1.807502954914523,0.5028910375950791,109.46007765031635,,,,,,,,,,,
3.9322407245635986,981.576467305512,1716.390277645273,57.739179286297,-0.010513338339557195,-0.04295251975365286,1.6050330408060274,8.249282836914062e-05,1.6042059602574592,981.5169555208654,1716.4061275000274,11.794490267763095,-2.072265625,0.043423532694488017,0.008609722354726955,0.46857082071370293,361.9616192172342,1.025,1.725,0.52631,15469.860468532228,1.0,53929.02055261551,-3.4393247901799704,0.47459855807950013,25.46845972318934,53929.02055261551,-3.4393247901799704,0.47459855807950013,25.46845972318934,,,,,,,,,,,
3.936380624771118,981.6313022926234,1716.450762286034,57.670273095817734,-0.013642033665497778,-0.04414556768129013,1.603709007792356,7.987022399902344e-05,1.6042468797419123,981.5169555208654,1716.4061275000274,11.794490267763095,-2.072265625,0.04336869770737656,0.008549237713966023,0.4686397269041822,361.88575771361485,1.025,1.725,0.52631,15469.860468532228,1.0,55668.75720411218,-1.2303686648608623,-0.06875007601338948,0.7616072200778241,55668.75720411218,-1.2303686648608623,-0.06875007601338948,0.7616072200778241,,,,,,,,,,,
3.939915180206299,981.5810097800279,1716.440714187532,57.710321584745415,-0.01272007827529657,-0.044352047560581115,1.6048330350276905,8.392333984375e-05,1.6042787083211096,981.5810097800279,1716.440714187532,12.116644909986237,-2.23046875,0.0434189902199721,0.008559285812468034,0.4685996784152545,361.95015973025727,1.025,1.725,0.52631,15469.860468532228,1.0,55204.19999693986,-1.8269112282488764,0.28941880084743643,55.35951283640047,55204.19999693986,-1.8269112282488764,0.28941880084743643,55.35951283640047,15.046875,-67.875,0.0031375885009765625,-0.01166534423828125,1.3603515625,0.35546875,0.10919189453125,-2.23046875,15.0,0.0,0.0
3.9421677589416504,981.6282926354532,1716.448313426582,57.65586900600972,-0.01529786923138193,-0.043134180271323326,1.6046623564902125,7.152557373046875e-05,1.604294584261148,981.5810097800279,1716.440714187532,12.116644909986237,-2.23046875,0.04337170736454675,0.00855168657341801,0.4686541309939902,361.9403805704063,1.025,1.725,0.52631,15469.860468532228,1.0,55830.16435385789,-1.0326273332110776,0.17834898397728666,22.052498201948275,55830.16435385789,-1.0326273332110776,0.17834898397728666,22.052498201948275,,,,,,,,,,,
3.946197748184204,981.6183888219817,1716.454025371656,57.67809461898112,-0.015799676763206132,-0.04276555401362538,1.6047505681144032,7.510185241699219e-05,1.6043222586892791,981.5810097800279,1716.440714187532,12.116644909986237,-2.23046875,0.04338161117801826,0.008545974628344083,0.46863190538101884,361.94543472417644,1.025,1.725,0.52631,15469.860468532228,1.0,55293.64860310675,-1.5807906998751997,0.2090655361617738,31.060723395707875,55293.64860310675,-1.5807906998751997,0.2090655361617738,31.060723395707875,,,,,,,,,,,
3.949791669845581,981.6362072049366,1716.4376290554535,57.64263769718721,-0.014209332204974223,-0.04425974968886115,1.6040749066740077,8.368492126464844e-05,1.6043451327809812,981.6362072049366,1716.4376290554535,12.206161278217838,-2.412109375,0.04336379279506343,0.008562370944546501,0.46866736230281275,361.9067221752621,1.025,1.725,0.52631,15469.860468532228,1.0,55548.181996226725,-1.428071727546974,0.3410531523506131,13.12698903664699,55548.181996226725,-1.428071727546974,0.3410531523506131,13.12698903664699,31.328125,-58.53125,0.0010595321655273438,-0.0197296142578125,1.4150390625,0.406005859375,0.1326904296875,-2.412109375,13.0,0.0,0.0
3.9520835876464844,981.7100869888504,1716.4227267317585,57.45648816046486,-0.011008173974869423,-0.05809575727463634,1.602682070022076,0.00011706352233886719,1.6043568492031421,981.6362072049366,1716.4376290554535,12.206161278217838,-2.412109375,0.04328991301114957,0.00857727326824147,0.4688535118395351,361.82691851355526,1.025,1.725,0.52631,15469.860468532228,1.0,56853.73062743883,-0.7881257915501981,0.41847642716741745,-27.970792305200746,56853.73062743883,-0.7881257915501981,0.41847642716741745,-27.970792305200746,,,,,,,,,,,
3.9592370986938477,981.5621326191329,1716.4057716594648,57.7181602368842,-0.00982372057570077,-0.044963015178290995,1.6062104615165107,0.00013256072998046875,1.604385488446701,981.6362072049366,1716.4376290554535,12.206161278217838,-2.412109375,0.04343786738086715,0.00859422834053521,0.46859183976311575,362.0290804546562,1.025,1.725,0.52631,15469.860468532228,1.0,54767.00119081064,-1.9806734447612615,0.2821352494299455,72.84536147661174,54767.00119081064,-1.9806734447612615,0.2821352494299455,72.84536147661174,,,,,,,,,,,
3.962125301361084,980.9547064217244,1717.0318937199713,57.96544190787317,-0.039858756211721885,-0.047733766599144425,1.6190586153694895,8.034706115722656e-05,1.6043972633029546,981.6362072049366,1716.4376290554535,12.206161278217838,-2.412109375,0.04404529357827562,0.007968106280028678,0.4683445580921268,362.76522544496663,1.025,1.725,0.52631,15469.860468532228,1.0,54024.240898326665,-5.986853076724171,-4.670661747029723,426.88437453116364,54024.240898326665,-5.986853076724171,-4.670661747029723,360,,,,,,,,,,,
3.9699697494506836,981.6811906057302,1716.5379017699042,57.58053115157432,-0.021372385754383036,-0.055987604847832204,1.6012439024658007,8.320808410644531e-05,1.604520664579467,981.6811906057302,1716.5379017699042,12.289000681341268,-3.02734375,0.043318809394269804,0.008462098230095761,0.46872946884842565,361.744517582348,1.025,1.725,0.52631,15469.860468532228,1.0,56207.384067667495,0.3931437929596995,1.6330643392214343,-164.87012430640124,56207.384067667495,0.3931437929596995,1.6330643392214343,-164.87012430640124,34.4375,-39.5625,0.0252227783203125,0.006183624267578125,1.3935546875,0.3896484375,0.187744140625,-3.02734375,13.0,0.0,0.0
3.972254991531372,981.4371996377215,1716.7215311038888,57.917519935504465,-0.013359958760902247,-0.05969203484681866,1.6052785855362661,0.0001010894775390625,1.6045798991417364,981.6811906057302,1716.5379017699042,12.289000681341268,-3.02734375,0.0435628003622785,0.008278468896111234,0.46839248006449546,361.9756878939586,1.025,1.725,0.52631,15469.860468532228,1.0,52702.2350474314,-3.977523503602385,-1.7570452711308473,193.65898413671323,52702.2350474314,-3.977523503602385,-1.7570452711308473,193.65898413671323,,,,,,,,,,,
3.979729413986206,981.9060470946381,1716.2777626404409,57.60723223462136,-0.009084195736860397,-0.044464141127826214,1.5897022250931407,0.00015544891357421875,1.604774691228011,981.6811906057302,1716.5379017699042,12.289000681341268,-3.02734375,0.0430939529053619,0.008722237359559131,0.4687027677653786,361.08322818039295,1.025,1.725,0.52631,15469.860468532228,1.0,56091.49566050906,-0.21105670728883652,1.5566690722891279,-161.96750504345013,56091.49566050906,-0.21105670728883652,1.5566690722891279,-161.96750504345013,,,,,,,,,,,
3.9830880165100098,981.5959257426288,1716.5298042696224,57.98935558522001,-0.008611900860380972,-0.059959529603284524,1.6021820994604807,9.083747863769531e-05,1.6048196757132223,981.6811906057302,1716.5379017699042,12.289000681341268,-3.02734375,0.043404074257371236,0.008470195730377555,0.46832064441477994,361.798272310495,1.025,1.725,0.52631,15469.860468532228,1.0,53453.441079026976,-3.491117270814766,-1.4756255055124385,348.67522042654497,53453.441079026976,-3.491117270814766,-1.4756255055124385,348.67522042654497,,,,,,,,,,,
3.9877185821533203,981.6732895288623,1716.4298470745982,57.75056075547674,-0.015565677903277198,-0.059906960614322,1.589318521185809,8.296966552734375e-05,1.6047811368479383,981.6732895288623,1716.4298470745982,12.362911908455242,-3.365234375,0.043326710471137744,0.008570152925401772,0.4685594392445232,361.06124356592017,1.025,1.725,0.52631,15469.860468532228,1.0,56231.28400944192,-1.1898628652892715,0.7202599655643621,-214.82298251974967,56231.28400944192,-1.1898628652892715,0.7202599655643621,-214.82298251974967,-0.341552734375,-36.15625,-0.01284027099609375,0.0005941390991210938,1.3740234375,0.360595703125,0.17626953125,-3.365234375,13.0,0.0,0.0
3.9906022548675537,981.5192388707637,1716.7486330810605,57.903998525664306,-0.023472972074482276,-0.06391221268731652,1.5931582185012594,8.749961853027344e-05,1.6046988773249435,981.6732895288623,1716.4298470745982,12.362911908455242,-3.365234375,0.043480761129236274,0.008251366918939539,0.46840600147433564,361.2812420167032,1.025,1.725,0.52631,15469.860468532228,1.0,54443.75576061733,-2.6671344802999233,-2.3138854876705444,140.34496027325434,54443.75576061733,-2.6671344802999233,-2.3138854876705444,140.34496027325434,,,,,,,,,,,
3.9943735599517822,981.6644018028028,1716.2336490926862,57.87832376195569,-0.016315881523844465,-0.04947921358618357,1.5918057477629697,7.581710815429688e-05,1.6044955570087909,981.6644018028028,1716.2336490926862,11.327703337582012,-3.212890625,0.04333559819719721,0.008766350907313836,0.46843167623804427,361.20375115148425,1.025,1.725,0.52631,15469.860468532228,1.0,55511.36398399376,-0.8056196382200509,3.2059135206374956,-11.84806744691446,55511.36398399376,-0.8056196382200509,3.2059135206374956,-11.84806744691446,-10.234375,-33.21875,-0.00914764404296875,-0.018768310546875,1.4033203125,0.385009765625,0.186279296875,-3.212890625,2.0,0.0,16.0
3.9987142086029053,981.9452065000322,1716.3447858372642,57.986430005940825,-0.023961997976451575,-0.03511723760660158,1.582633018882036,8.392333984375e-05,1.604153152515882,981.6644018028028,1716.2336490926862,11.327703337582012,-3.212890625,0.04305479349996778,0.008655214162735774,0.46832356999405916,360.678192499989,1.025,1.725,0.52631,15469.860468532228,1.0,54939.95591062987,-0.04939948107562686,-0.1911200259386061,-175.53501091643918,54939.95591062987,-0.04939948107562686,-0.1911200259386061,-175.53501091643918,,,,,,,,,,,
4.00093412399292,981.4199455899161,1716.5697021116293,58.02104550797549,-0.024588845076722744,-0.05110039193767759,1.5863206851428353,7.772445678710938e-05,1.603922485131033,981.6644018028028,1716.2336490926862,11.327703337582012,-3.212890625,0.043580054410083904,0.00843029788837066,0.46828895449202446,360.8894802129856,1.025,1.725,0.52631,15469.860468532228,1.0,55207.64127284684,-6.6465582704459125,-2.029534821102916,156.30922294726892,55207.64127284684,-6.6465582704459125,-2.029534821102916,156.30922294726892,,,,,,,,,,,
4.003436088562012,981.9365072640943,1716.5860957161556,58.19766195492322,-0.02893936940068673,-0.033091303048883386,1.5778641541324185,0.0004355907440185547,1.6036054400523956,981.6644018028028,1716.2336490926862,11.327703337582012,-3.212890625,0.0430634927359057,0.00841390428384443,0.46811233804507674,360.4049566767672,1.025,1.725,0.52631,15469.860468532228,1.0,54189.99086549604,2.919278417778298,0.36964921873955675,-283.06142800293736,54189.99086549604,2.919278417778298,0.36964921873955675,-283.06142800293736,,,,,,,,,,,
4.006627082824707,981.9286843109053,1716.5211546033163,58.16719141985207,-0.014565648265980018,-0.05821770332715878,1.583025045902938,0.00012540817260742188,1.6031035755096497,981.9286843109053,1716.5211546033163,10.397775812198946,-3.228515625,0.04307131568909472,0.008478845396683709,0.46814280858014784,360.70065399374175,1.025,1.725,0.52631,15469.860468532228,1.0,55530.728652101956,-1.55831492325859,0.8155229978040726,144.8517119182189,55530.728652101956,-1.55831492325859,0.8155229978040726,144.8517119182189,-23.75,-24.75,-0.010101318359375,-0.0005769729614257812,1.4130859375,0.405517578125,0.2587890625,-3.228515625,2.0,-15.0,21.0
4.01157283782959,982.226328510267,1715.7638762584268,57.971649452788746,0.17457823703235134,-0.035099968199031155,1.5642404352220778,8.535385131835938e-05,1.6021799949278077,981.9286843109053,1716.5211546033163,10.397775812198946,-3.228515625,0.04277367148973303,0.009236123741573237,0.4683383505472112,359.6243750819321,1.025,1.725,0.52631,15469.860468532228,1.0,56094.16756263453,-0.24628410086295727,3.9004852652254103,-340.0060797301467,56094.16756263453,-0.24628410086295727,3.9004852652254103,-340.0060797301467,,,,,,,,,,,
4.019395112991333,982.6403546225004,1715.8124921435979,58.49582592833915,0.18229393356784648,-0.025623938816267296,1.563231325389024,8.726119995117188e-05,1.6000545325388145,982.6403546225004,1715.8124921435979,9.561233890250064,-2.837890625,0.042359645377499644,0.009187507856402134,0.46781417407166076,359.566557347433,1.025,1.725,0.52631,15469.860468532228,1.0,54237.840174032426,-0.3128513704061995,0.42802194061287735,-17.40270762454564,54237.840174032426,-0.3128513704061995,0.42802194061287735,-17.40270762454564,-36.625,-26.0625,-0.0038738250732421875,-0.0031871795654296875,1.37109375,0.36328125,0.27587890625,-2.837890625,2.0,-5.0,5.0
4.021657705307007,982.8633467029349,1716.2096523879807,62.175874084570864,0.073773423206609,-0.021091834155669165,1.582689758605718,7.319450378417969e-05,1.5993605896788963,982.6403546225004,1715.8124921435979,9.561233890250064,-2.837890625,0.0421366532970651,0.008790347612019331,0.4641341259154291,360.68144344668667,1.025,1.725,0.52631,15469.860468532228,1.0,25363.46180437867,1.0028231335665168,-3.478328262562759,809.2029523571138,25363.46180437867,1.0028231335665168,-3.478328262562759,360,,,,,,,,,,,
4.028724193572998,983.2697323865356,1716.5069713344385,63.5944685696683,0.07177875121948306,-0.01530437130163709,1.5778222047707477,8.249282836914062e-05,1.5967335584526374,982.6403546225004,1715.8124921435979,9.561233890250064,-2.837890625,0.041730267613464433,0.008493028665561496,0.4627155314303316,360.4025531553902,1.025,1.725,0.52631,15469.860468532228,1.0,51831.96983047726,-0.15028705970363543,-0.2730518879965603,-52.4745914715938,51831.96983047726,-0.15028705970363543,-0.2730518879965603,-52.4745914715938,,,,,,,,,,,
4.030893325805664,983.7033307549361,1716.5342398201533,65.36777058993395,0.06553392890517044,0.003939653901014802,1.575304722165774,7.700920104980469e-05,1.595916040023086,982.6403546225004,1715.8124921435979,9.561233890250064,-2.837890625,0.041296669245063866,0.008465760179846711,0.46094222941006596,360.2583120271276,1.025,1.725,0.52631,15469.860468532228,1.0,40681.48956623829,3.1324718053817953,0.44656625068308087,-100.0280802817118,40681.48956623829,3.1324718053817953,0.44656625068308087,-100.0280802817118,,,,,,,,,,,
4.037180185317993,984.4111440950536,1716.519274966682,67.24230167745984,0.05980673207645634,0.0015348439384454174,1.5709872438223742,0.00010395050048828125,1.593465020430662,982.6403546225004,1715.8124921435979,9.561233890250064,-2.837890625,0.0405888559049464,0.008480725033318095,0.4590676983225401,360.01093873991164,1.025,1.725,0.52631,15469.860468532228,1.0,50036.87745065414,1.0742811669005314,0.7219248232007038,-58.77472644864812,50036.87745065414,1.0742811669005314,0.7219248232007038,-58.77472644864812,,,,,,,,,,,
4.040821075439453,985.1706149124943,1716.6803273793926,69.87419812191695,0.05151300275489764,0.013638261648408085,1.5674975663264274,8.0108642578125e-05,1.5920147796152564,985.1706149124943,1716.6803273793926,11.212223317829842,-4.2265625,0.03982938508750567,0.008319672620607434,0.456435801878083,359.8109949475321,1.025,1.725,0.52631,15469.860468532228,1.0,43160.87831653913,3.054334779413481,-0.2322985753327158,-82.4110861760006,43160.87831653913,3.054334779413481,-0.2322985753327158,-82.4110861760006,-44.0625,-8.2734375,-0.01009368896484375,-0.01215362548828125,1.3212890625,0.31005859375,0.372802734375,-4.2265625,26.0,6.0,6.0
4.048012733459473,986.1031685596506,1716.6810001510887,72.97321724477573,0.04878122166042141,0.02279541463080145,1.5683607714878631,0.00033211708068847656,1.5893407500240804,985.1706149124943,1716.6803273793926,11.212223317829842,-4.2265625,0.03889683144034939,0.008318999848911289,0.45333678275522427,359.8604529601363,1.025,1.725,0.52631,15469.860468532228,1.0,47502.62162728013,1.5473994161328828,0.643729917928402,8.362537350522551,47502.62162728013,1.5473994161328828,0.643729917928402,8.362537350522551,,,,,,,,,,,
4.050202131271362,986.762393133726,1717.2794901501586,76.38707869210701,0.05181094631087947,0.024012800854933795,1.5613245958716422,7.915496826171875e-05,1.5885224675576184,985.1706149124943,1716.6803273793926,11.212223317829842,-4.2265625,0.03823760686627395,0.007720509849841392,0.4499229213078929,359.45730979341397,1.025,1.725,0.52631,15469.860468532228,1.0,28325.99226265141,5.458264380217378,-5.270662495512372,-284.9446197291643,28325.99226265141,5.458264380217378,-5.270662495512372,-284.9446197291643,,,,,,,,,,,
4.052363395690918,988.1191450396549,1717.2570880227172,79.94138867411893,0.05130874210354435,0.026655650732669102,1.5602748959436832,0.00011658668518066406,1.5877070075302273,985.1706149124943,1716.6803273793926,11.212223317829842,-4.2265625,0.03688085496034512,0.0077429119772828015,0.446368611325881,359.3971664177867,1.025,1.725,0.52631,15469.860468532228,1.0,26974.73701231724,12.185829097177455,1.0160493211363917,-50.68782636696515,26974.73701231724,12.185829097177455,1.0160493211363917,-50.68782636696515,,,,,,,,,,,
4.057525634765625,989.4840845840107,1717.3410391010843,84.05890452752517,0.05390742666059131,0.026419655758058196,1.5530487012616554,0.0001304149627685547,1.5856738123081497,989.4840845840107,1717.3410391010843,12.697966120485217,-3.732421875,0.0355159154159893,0.007658960898915666,0.44225109547247476,358.98313596056664,1.025,1.725,0.52631,15469.860468532228,1.0,41604.12533173118,4.32196372210958,0.2963124116472349,-130.73684090094886,41604.12533173118,4.32196372210958,0.2963124116472349,-130.73684090094886,-20.78125,25.890625,0.00843048095703125,-0.0112762451171875,1.2802734375,0.28369140625,0.465087890625,-3.732421875,26.0,8.0,6.0
4.0606160163879395,991.0926670678539,1717.2898025016552,88.33795515240324,0.06401147777356346,0.03600553978172525,1.5422591491870936,8.96453857421875e-05,1.5845704365721596,989.4840845840107,1717.3410391010843,12.697966120485217,-3.732421875,0.033907332932146116,0.007710197498344769,0.43797204484759666,358.3649401638577,1.025,1.725,0.52631,15469.860468532228,1.0,29050.91461004838,11.121028973645611,1.112301686939325,-350.1854181298738,29050.91461004838,11.121028973645611,1.112301686939325,-350.1854181298738,,,,,,,,,,,
4.067700624465942,992.6948615119372,1717.617447488052,93.28167587577892,0.07066408419037284,0.03220015558397786,1.5360356896830587,9.918212890625e-05,1.581584406946885,989.4840845840107,1717.3410391010843,12.697966120485217,-3.732421875,0.03230513848806277,0.007382552511948006,0.43302832412422104,358.0083622003059,1.025,1.725,0.52631,15469.860468532228,1.0,42499.49035145055,3.841954206972701,-0.3921617445419272,-105.22200329069143,42499.49035145055,3.841954206972701,-0.3921617445419272,-105.22200329069143,,,,,,,,,,,
4.071324586868286,994.6653836449698,1717.8475354924199,98.54812704108132,0.06999565310707591,0.04868622312446627,1.5222179093899568,8.606910705566406e-05,1.579816327824759,994.6653836449698,1717.8475354924199,14.034953041975387,-4.5390625,0.030334616355030222,0.007152464507580135,0.4277618729589186,357.2166617072721,1.025,1.725,0.52631,15469.860468532228,1.0,30359.507667654572,10.4377228733782,-0.6579403733307188,-359.00796083042684,30359.507667654572,10.4377228733782,-0.6579403733307188,-359.00796083042684,-5.71875,41.15625,0.01739501953125,0.006206512451171875,1.2080078125,0.20654296875,0.5439453125,-4.5390625,26.0,14.0,-15.0
4.079689025878906,996.6109937847732,1718.1552021906623,104.08696065320922,0.07833036834691075,0.04204775642605146,1.521427113948949,8.654594421386719e-05,1.5752812411020882,994.6653836449698,1717.8475354924199,14.034953041975387,-4.5390625,0.0283890062152268,0.006844797809337706,0.42222303934679073,357.17135246604414,1.025,1.725,0.52631,15469.860468532228,1.0,42617.927128641015,4.204659670522312,-0.18834073636773724,-50.659197046961395,42617.927128641015,4.204659670522312,-0.18834073636773724,-50.659197046961395,,,,,,,,,,,
4.081834554672241,999.0568418767695,1718.024341151763,109.74347026321868,0.08628815206071193,0.04436032162763609,1.5169128435677464,7.176399230957031e-05,1.5739438738829097,994.6653836449698,1717.8475354924199,14.034953041975387,-4.5390625,0.025943158123230545,0.00697565884823689,0.41656652973678127,356.9127038256203,1.025,1.725,0.52631,15469.860468532228,1.0,8316.202684290498,24.367720225873313,2.0609981985393686,-230.5781030942649,10000,24.367720225873313,2.0609981985393686,-230.5781030942649,,,,,,,,,,,
4.087091684341431,1001.2556236426171,1718.4612174352355,115.75689530145917,0.08561792783845786,0.027972428856813614,1.5135283293088064,0.0002849102020263672,1.5702923151637262,1001.2556236426171,1718.4612174352355,17.839748295597268,-5.1953125,0.02374437635738286,0.006538782564764461,0.4105531046985408,356.7187854428812,1.025,1.725,0.52631,15469.860468532228,1.0,34784.5785951236,8.11268633296647,-1.1509411764497508,-103.12070897242134,34784.5785951236,8.11268633296647,-1.1509411764497508,-103.12070897242134,29.75,67.5,0.0056915283203125,-0.01438140869140625,1.1142578125,0.11944580078125,0.5966796875,-5.1953125,52.0,3.0,-22.0
4.0897510051727295,1003.7594838673496,1718.4819065770587,121.8767615158767,0.0771621745909829,0.024331916351613664,1.5047694838662318,0.00033020973205566406,1.5684516075525605,1001.2556236426171,1718.4612174352355,17.839748295597268,-5.1953125,0.02124051613265044,0.00651809342294132,0.40443323848412327,356.2169405656143,1.025,1.725,0.52631,15469.860468532228,1.0,12951.986208724433,20.627947734073473,0.3753366561534416,-351.3008839730995,12951.986208724433,20.627947734073473,0.3753366561534416,-351.3008839730995,,,,,,,,,,,
4.0918869972229,1006.250712322284,1718.725949565541,128.23398986487814,0.07984936727408055,0.023038787763544892,1.4980280860378214,7.367134094238281e-05,1.566839363500582,1001.2556236426171,1718.4612174352355,17.839748295597268,-5.1953125,0.018749287677715984,0.006274050434459014,0.3980760101351218,355.8306869220277,1.025,1.725,0.52631,15469.860468532228,1.0,1894.2081302626075,25.14889521489656,-2.045863665096853,-338.1859987404519,10000,25.14889521489656,-2.045863665096853,-338.1859987404519,,,,,,,,,,,
4.0971598625183105,1009.1083461158087,1718.8801160819028,134.85858135098505,0.06880445725476327,0.00808311761837921,1.497546255781975,0.00031757354736328125,1.562490525672566,1009.1083461158087,1718.8801160819028,21.26136341666938,-5.1640625,0.015891653884191326,0.00611988391809723,0.3914514186490149,355.80308008192605,1.025,1.725,0.52631,15469.860468532228,1.0,32415.62335963139,11.00465667659571,-0.16805008025943025,-70.60252256002428,32415.62335963139,11.00465667659571,-0.16805008025943025,-70.60252256002428,46.75,86.5625,-0.0005393028259277344,-0.01293182373046875,1.0625,0.06427001953125,0.61962890625,-5.1640625,52.0,-4.0,12.0
4.099838495254517,1011.7583816768343,1719.2033785739923,141.010753655318,0.053842297402468736,-0.02106293759672046,1.4948802937529218,0.00032901763916015625,1.5603255995871033,1009.1083461158087,1718.8801160819028,21.26136341666938,-5.1640625,0.013241618323165654,0.005796621426007733,0.38529924634468193,355.6503317093191,1.025,1.725,0.52631,15469.860468532228,1.0,12484.938103171293,21.97919998920777,-2.462600137788021,-154.25212497410087,12484.938103171293,21.97919998920777,-2.462600137788021,-154.25212497410087,,,,,,,,,,,
4.109167814254761,1014.4093800690652,1719.7316934523421,147.74533218626541,0.04172508991720705,-0.028994201773039022,1.4935449418390097,0.007290840148925781,1.5517287134838642,1014.4093800690652,1719.7316934523421,24.34093261993705,-5.1640625,0.010590619930934849,0.005268306547657858,0.37856466781373455,355.57382168048724,1.025,1.725,0.52631,15469.860468532228,1.0,40636.09009151125,5.804647757114646,-0.8763477154965753,-78.51973699394804,40636.09009151125,5.804647757114646,-0.8763477154965753,-78.51973699394804,53.9375,98.75,0.0052337646484375,-0.0034961700439453125,1.0029296875,0.004741668701171875,0.63330078125,-5.1640625,52.0,-5.0,16.0
4.1195714473724365,1017.0962578603485,1720.3582226288336,154.28845148998798,0.03118479960605461,-0.05001749961908221,1.4960279857302339,0.008214235305786133,1.5419059797642989,1017.0962578603485,1720.3582226288336,27.111332824254013,-5.14453125,0.007903742139651513,0.004641777371166427,0.37202154851001196,355.7160896158001,1.025,1.725,0.52631,15469.860468532228,1.0,41811.81053432806,5.421040586945349,-1.0868159997766127,-43.691260941614836,41811.81053432806,5.421040586945349,-1.0868159997766127,-43.691260941614836,49.65625,104.8125,0.011749267578125,-0.00492095947265625,0.947265625,-0.048370361328125,0.64794921875,-5.14453125,52.0,-4.0,10.0
4.128750562667847,1020.305473093105,1719.9940941524321,160.26561823557628,0.029007746426552555,-0.06505299379677978,1.4965744388719582,0.007027864456176758,1.5334859376764496,1020.305473093105,1719.9940941524321,33.60519170046972,-5.078125,0.004694526906895021,0.005005905847567874,0.3660443817644236,355.7473990745226,1.025,1.725,0.52631,15469.860468532228,1.0,41347.807223428026,7.536721093432473,0.9110847865093391,-58.68320564119775,41347.807223428026,7.536721093432473,0.9110847865093391,-58.68320564119775,39.90625,108.625,-0.0006618499755859375,0.0006341934204101562,0.90087890625,-0.09454345703125,0.6435546875,-5.078125,92.0,-5.0,25.0
4.1396613121032715,1023.1716163888093,1720.5093744904773,166.72310041199006,0.01658058871024748,-0.07692487732231246,1.492365495182263,0.008732795715332031,1.5246745510001363,1020.305473093105,1719.9940941524321,33.60519170046972,-5.078125,0.001828383611190702,0.0044906255095227155,0.3595868995880099,355.5062443648949,1.025,1.725,0.52631,15469.860468532228,1.0,41969.69014971091,5.759495865262339,-1.0642673979795652,-101.00349666071587,41969.69014971091,5.759495865262339,-1.0642673979795652,-101.00349666071587,,,,,,,,,,,
4.14877462387085,1025.9738806639882,1720.90833557017,172.71867593370283,0.013446547703886483,-0.09586959791961533,1.4925250330442155,0.00708770751953125,1.5181957988677415,1025.9738806639882,1720.90833557017,39.45608699840849,-5.26953125,-0.0009738806639882114,0.004091664429829962,0.3535913240662972,355.51538521105726,1.025,1.725,0.52631,15469.860468532228,1.0,40968.951442372294,6.633277163915912,-1.1161761411033086,-65.78507433527935,40968.951442372294,6.633277163915912,-1.1161761411033086,-65.78507433527935,16.71875,102.5625,-0.01337432861328125,0.01529693603515625,0.8486328125,-0.152099609375,0.62548828125,-5.26953125,92.0,1.0,40.0
4.159139394760132,1028.6262222946825,1721.6588474032453,178.75851910480705,0.011908595029553402,-0.11232560642380705,1.4996936120801154,0.008210897445678711,1.512223026697737,1025.9738806639882,1720.90833557017,39.45608699840849,-5.26953125,-0.0036262222946825203,0.003341152596754682,0.3475514808951929,355.9261145349203,1.025,1.725,0.52631,15469.860468532228,1.0,41824.66974329613,5.678841821838671,-1.8140086531653854,-1.215235991860098,41824.66974329613,5.678841821838671,-1.8140086531653854,-1.215235991860098,,,,,,,,,,,
4.169624090194702,1031.6157673386238,1721.9424211674564,184.4684831351759,0.019994259546273558,-0.12218887435267942,1.5038254906771666,0.008365392684936523,1.5075192685595082,1031.6157673386238,1721.9424211674564,46.52422257709916,-5.37890625,-0.006615767338623755,0.0030575788325436404,0.341841516864824,356.16285373999176,1.025,1.725,0.52631,15469.860468532228,1.0,42462.85672050407,6.353520658203707,-0.9135896035533195,-23.968255574300606,42462.85672050407,6.353520658203707,-0.9135896035533195,-23.968255574300606,-8.703125,62.5625,-0.020263671875,-0.00847625732421875,0.89990234375,-0.10430908203125,0.57763671875,-5.37890625,110.0,5.0,23.0
4.179195880889893,1034.545830922122,1722.4411466280562,190.13348542100297,0.021490894747240547,-0.13121867122747552,1.504244822859491,0.00740814208984375,1.5046443480452543,1031.6157673386238,1721.9424211674564,46.52422257709916,-5.37890625,-0.009545830922121922,0.002558853371943769,0.33617651457899694,356.186879704253,1.025,1.725,0.52631,15469.860468532228,1.0,41282.763686870065,7.005278831111295,-1.5676157736190108,-53.37736090964657,41282.763686870065,7.005278831111295,-1.5676157736190108,-53.37736090964657,,,,,,,,,,,
4.189329147338867,1037.5811606427324,1722.7791455072659,195.76875333150048,0.027373927703352827,-0.1231708490209869,1.505067506326056,0.007906436920166016,1.5027970965711743,1037.5811606427324,1722.7791455072659,52.87877048375531,-5.3671875,-0.012581160642732356,0.0022208544927341334,0.3305412466684995,356.23401599476233,1.025,1.725,0.52631,15469.860468532228,1.0,42031.47096249417,6.770723976090237,-1.132774490385029,-49.638362385589616,42031.47096249417,6.770723976090237,-1.132774490385029,-49.638362385589616,-30.453125,13.8359375,0.0016584396362304688,0.0152435302734375,0.86865234375,-0.12255859375,0.556640625,-5.3671875,110.0,7.0,12.0
4.199219465255737,1040.5900700173993,1723.079972631238,201.10759963833164,0.030519764785051706,-0.12506682456230883,1.5041679272460555,0.007670402526855469,1.5020211745982004,1037.5811606427324,1722.7791455072659,52.87877048375531,-5.3671875,-0.015590070017399284,0.001920027368762021,0.3252024003616683,356.18247391014006,1.025,1.725,0.52631,15469.860468532228,1.0,41802.82094287934,7.223027867293605,-1.126898723309231,-65.23640329924497,41802.82094287934,7.223027867293605,-1.126898723309231,-65.23640329924497,,,,,,,,,,,
4.208961486816406,1043.580539828556,1723.498972772663,206.3292742150131,0.03240030598462196,-0.12192216742774237,1.503720637663913,0.0077359676361083984,1.5018438414034498,1043.580539828556,1723.498972772663,58.603438934224485,-5.1875,-0.018580539828556085,0.0015010272273370902,0.3199807257849868,356.1568461048631,1.025,1.725,0.52631,15469.860468532228,1.0,41999.45743242542,7.157028239334015,-1.3725422152739641,-61.54821591686612,41999.45743242542,7.157028239334015,-1.3725422152739641,-61.54821591686612,-29.375,-17.21875,-0.0002155303955078125,0.005573272705078125,0.912109375,-0.0906982421875,0.53955078125,-5.1875,110.0,3.0,5.0
4.2188544273376465,1046.1652420889166,1724.1482314930724,212.1060027754712,0.03921795442242783,-0.11381739657530413,1.5129627789398274,0.007738351821899414,1.5020577867392082,1046.1652420889166,1724.1482314930724,66.34635896992742,-5.02734375,-0.021165242088916555,0.0008517685069275557,0.31420399722452874,356.68638179363666,1.025,1.725,0.52631,15469.860468532228,1.0,40912.257347452956,6.286845411304955,-1.8183282259774474,30.394553301981873,40912.257347452956,6.286845411304955,-1.8183282259774474,30.394553301981873,-20.6875,-20.859375,0.007511138916015625,-0.01381683349609375,0.94970703125,-0.052032470703125,0.51220703125,-5.02734375,136.0,2.0,10.0
4.229377269744873,1048.8676189452492,1724.8601831483431,217.30832256139044,0.04295028925913004,-0.11550421028991897,1.5135808127242703,0.008279085159301758,1.5027021485754486,1048.8676189452492,1724.8601831483431,73.31653965469754,-4.91015625,-0.023867618945249205,0.00013981685165686031,0.30900167743860946,356.72179252108174,1.025,1.725,0.52631,15469.860468532228,1.0,42231.083273770746,6.311661839353722,-1.8736755622411212,-44.10889519775989,42231.083273770746,6.311661839353722,-1.8736755622411212,-44.10889519775989,-7.6484375,-14.046875,0.00890350341796875,-0.0203399658203125,0.98583984375,-0.022369384765625,0.50634765625,-4.91015625,136.0,5.0,3.0
4.2389373779296875,1051.6931797893033,1725.4745791708394,222.71162862674512,0.034629078788443374,-0.11151607048204934,1.5144500816588309,0.0073986053466796875,1.5037053075276776,1051.6931797893033,1725.4745791708394,79.58940644041442,-4.8203125,-0.02669317978930326,-0.00047457917083943357,0.30359837137325485,356.77159796229387,1.025,1.725,0.52631,15469.860468532228,1.0,40914.806901027805,7.237240834167284,-1.8453694823379294,-40.61593754830186,40914.806901027805,7.237240834167284,-1.8453694823379294,-40.61593754830186,5.3359375,-2.259765625,0.0033855438232421875,-0.0193023681640625,0.9853515625,-0.016448974609375,0.5029296875,-4.8203125,136.0,0.0,5.0
