time,x_pos,y_pos,z_pos,x_rot,y_rot,z_rot,delta_time,z_filtered,x_pos_est,y_pos_est,z_pos_est,z_rot_est,x_error,y_error,z_error,yaw_error,x_setpoint,y_setpoint,z_setpoint,yaw_setpoint,vicon_available,thrust_cal,pitch_cal,roll_cal,yaw_cal,thrust_lim,pitch_lim,roll_lim,yaw_lim,gyro_x,gyro_y,acc_x,acc_y,acc_z,stateEstimate_az,stateEstimate_vz,stateEstimate_yaw,range_zrange,motion_deltaX,motion_deltaY
3.753096103668213,981.8269033228978,1711.807525179437,58.67484189152676,0.14473441466879655,0.003294722462529116,1.6151639961315682,0.00021028518676757812,1.562128528109058,981.8269033228978,1711.807525179437,0.9884727242281313,-0.0518798828125,0.043173096677102195,0.013192474820562893,-0.05867484189152676,362.5420801998233,1.025,1.725,0.0,15469.860468532228,1.0,2459966.6503120027,-839.596075303475,262.5732578662112,3412.2632126301787,65535,-40,40,360,0.06488037109375,-0.06817626953125,0.032440185546875,0.0005974769592285156,0.99853515625,-0.0012760162353515625,-0.0034236907958984375,-0.0518798828125,10.0,0.0,0.0
3.7561635971069336,981.8243616776941,1711.782379084934,58.67830400207478,0.1473689971683656,0.0022476374783458397,1.6133829678390703,0.00011754035949707031,1.5645981441740968,981.8243616776941,1711.782379084934,1.8895910382279222,-0.05169677734375,0.04317563832230587,0.013217620915065936,0.46763169599792515,362.4400347954697,1.025,1.725,0.52631,15469.860468532228,1.0,3113191.504137078,-1.7731703934716854,-0.13011498110119785,-15.706319480111077,65535,-1.7731703934716854,-0.13011498110119785,-15.706319480111077,0.261962890625,-0.185546875,0.03436279296875,0.0013132095336914062,1.0009765625,0.0011072158813476562,-0.0034542083740234375,-0.05169677734375,10.0,0.0,0.0
3.7584989070892334,981.8024122316286,1711.811260994673,58.67042545611697,0.14747294931155552,0.00239662121315182,1.6166623112236174,0.00010013580322265625,1.5664129376579543,981.8243616776941,1711.782379084934,1.8895910382279222,-0.05169677734375,0.04319758776837136,0.013188739005327079,0.467639574543883,362.6279273309784,1.025,1.725,0.52631,15469.860468532228,1.0,55422.55208522614,-1.972042725149804,-0.5960054427141376,168.62621348215274,55422.55208522614,-1.972042725149804,-0.5960054427141376,168.62621348215274,,,,,,,,,,,
3.761544704437256,981.8255344143347,1711.8199580794485,58.7010539013541,0.14436968878958256,0.0016231553640591227,1.6152259679208187,9.34600830078125e-05,1.568941137839455,981.8243616776941,1711.782379084934,1.8895910382279222,-0.05169677734375,0.0431744655856653,0.013180041920551503,0.46760894609864584,362.5456309217962,1.025,1.725,0.52631,15469.860468532228,1.0,55185.803443047706,-1.5856547556674587,-0.37596948421780657,-2.364070696350346,55185.803443047706,-1.5856547556674587,-0.37596948421780657,-2.364070696350346,,,,,,,,,,,
3.7657268047332764,981.8102279249898,1711.8008570263232,58.6793458589778,0.14598444800164848,0.0021732594075344835,1.6157344682568988,7.772445678710938e-05,1.5723785640045425,981.8243616776941,1711.782379084934,1.8895910382279222,-0.05169677734375,0.04318977207501018,0.013199142973676772,0.4676306541410222,362.5747658449346,1.025,1.725,0.52631,15469.860468532228,1.0,55447.61147602386,-1.828106655101312,-0.2136540897311412,49.10542081222779,55447.61147602386,-1.828106655101312,-0.2136540897311412,49.10542081222779,,,,,,,,,,,
3.7677648067474365,981.8040457924935,1711.8159316022864,58.646545092187544,0.14752726472877392,0.004419895908284069,1.616405407133161,5.6743621826171875e-05,1.5740291011581313,981.8243616776941,1711.782379084934,1.8895910382279222,-0.05169677734375,0.04319595420750647,0.013184068397713645,0.4676634549078124,362.61320781085567,1.025,1.725,0.52631,15469.860468532228,1.0,55637.0809982868,-1.8117546577554298,-0.47377199822655813,67.80996350686291,55637.0809982868,-1.8117546577554298,-0.47377199822655813,67.80996350686291,,,,,,,,,,,
3.7728970050811768,981.7893818595411,1711.8657854196897,58.69442985480746,0.14710711151218814,0.004624240795244573,1.6172721258473046,0.0002703666687011719,1.5782415606421774,981.7893818595411,1711.8657854196897,2.700584297534835,-0.0526123046875,0.04321061814045891,0.0131342145803103,0.46761557014519245,362.6628671352011,1.025,1.725,0.52631,15469.860468532228,1.0,55204.822853152386,-1.7984893932374593,-0.5049567663599381,54.03544970321165,55204.822853152386,-1.7984893932374593,-0.5049567663599381,54.03544970321165,-0.055419921875,0.28369140625,0.033782958984375,0.0015668869018554688,0.99951171875,-4.1961669921875e-05,-0.00341796875,-0.0526123046875,10.0,0.0,0.0
3.7750980854034424,981.8049419926886,1711.7626430602013,58.688050505482195,0.14654144004619435,0.0031780616193700395,1.6160454452136528,7.343292236328125e-05,1.579867149094646,981.7893818595411,1711.8657854196897,2.700584297534835,-0.0526123046875,0.043195058007311445,0.013237356939798701,0.46762194949451774,362.5925835120824,1.025,1.725,0.52631,15469.860468532228,1.0,55410.18178869725,-1.5798328108150343,0.7910181811172319,-11.594900974656206,55410.18178869725,-1.5798328108150343,0.7910181811172319,-11.594900974656206,,,,,,,,,,,
3.7780301570892334,981.8768425424232,1711.663914619187,58.66617354386606,0.1431247000327053,0.0033624767668682803,1.6137270153344414,6.937980651855469e-05,1.582171555630216,981.8768425424232,1711.663914619187,3.4305064770865545,-0.05340576171875,0.043123157457576784,0.013336085380813075,0.4676438264561339,362.4597472649066,1.025,1.725,0.52631,15469.860468532228,1.0,55478.88341547624,-1.218277480700061,0.44737084528586313,-29.008167992868906,55478.88341547624,-1.218277480700061,0.44737084528586313,-29.008167992868906,-4.7265625,6.484375,0.05596923828125,0.00766754150390625,1.009765625,-0.00537872314453125,-0.00390625,-0.05340576171875,10.0,0.0,0.0
3.7823877334594727,981.7948019844134,1711.842127861564,58.70008217112492,0.14706372253190894,0.0030380218081014335,1.6155497395324534,7.414817810058594e-05,1.5852736222330661,981.8768425424232,1711.663914619187,3.4305064770865545,-0.05340576171875,0.043205198015586574,0.013157872138436005,0.46760991782887507,362.564181668669,1.025,1.725,0.52631,15469.860468532228,1.0,55227.82269490039,-2.127898907797144,-1.1657817826007593,75.37948287684048,55227.82269490039,-2.127898907797144,-1.1657817826007593,75.37948287684048,,,,,,,,,,,
3.7853901386260986,981.7942494432693,1711.811248626616,58.67861026724579,0.1443196610630762,-0.0008073278387665026,1.6162709467515923,0.0002257823944091797,1.5874497624155308,981.7942494432693,1711.811248626616,4.087438574959282,-0.1539306640625,0.04320575055673066,0.013188751373384093,0.46763138973275414,362.6055037984801,1.025,1.725,0.52631,15469.860468532228,1.0,55475.28447088359,-1.7161374548246913,-0.00632375471324742,58.969068224251345,55475.28447088359,-1.7161374548246913,-0.00632375471324742,58.969068224251345,5.3046875,-5.046875,0.0251312255859375,0.0,0.99365234375,-0.0028324127197265625,-0.002658843994140625,-0.1539306640625,10.0,0.0,0.0
3.7880046367645264,981.8167471444852,1711.8249020393484,58.686544218521284,0.14613337186537473,0.0013829484295118473,1.616932449764041,6.532669067382812e-05,1.5891170389418747,981.7942494432693,1711.811248626616,4.087438574959282,-0.1539306640625,0.043183252855514755,0.013175097960651555,0.4676234557814786,362.64340512922854,1.025,1.725,0.52631,15469.860468532228,1.0,55302.49415954659,-1.5020170597536056,-0.31310966592970263,62.48280374285512,55302.49415954659,-1.5020170597536056,-0.31310966592970263,62.48280374285512,,,,,,,,,,,
3.79194712638855,981.7924926583959,1711.7939390478239,58.64312311625039,0.1457612386804301,0.001305464999077536,1.6167318055784885,7.343292236328125e-05,1.5916311784198698,981.7942494432693,1711.811248626616,4.087438574959282,-0.1539306640625,0.043207507341604126,0.01320606095217613,0.4676668768837495,362.63190906421255,1.025,1.725,0.52631,15469.860468532228,1.0,55546.85739735914,-1.8284844754481673,-0.0018251868403618143,35.11475354366122,55546.85739735914,-1.8284844754481673,-0.0018251868403618143,35.11475354366122,,,,,,,,,,,
3.7939882278442383,981.7777675802828,1711.7990326986985,58.65468708637461,0.14927593498718655,0.003474049406784045,1.6167328038963955,6.842613220214844e-05,1.5928666114414711,981.7942494432693,1711.811248626616,4.087438574959282,-0.1539306640625,0.04322223241971722,0.013200967301301488,0.46765531291362533,362.63196626361525,1.025,1.725,0.52631,15469.860468532228,1.0,55263.31567222936,-1.8397573112012513,-0.20140938235298278,39.521618210969905,55263.31567222936,-1.8397573112012513,-0.20140938235298278,39.521618210969905,,,,,,,,,,,
3.7971341609954834,981.8118201635399,1711.801870704901,58.67741265304444,0.14582325005323335,-0.0010202114432680451,1.6146918105711583,6.580352783203125e-05,1.5947562061325347,981.8118201635399,1711.801870704901,4.778665095048113,-0.346923828125,0.04318817983646011,0.01319812929509908,0.4676325873469555,362.5150259600648,1.025,1.725,0.52631,15469.860468532228,1.0,55238.07468306739,-1.448743579544978,-0.13451377213649135,-16.016376443754083,55238.07468306739,-1.448743579544978,-0.13451377213649135,-16.016376443754083,-2.97265625,-2.4453125,0.04510498046875,0.0020923614501953125,1.01171875,0.00901031494140625,-0.002765655517578125,-0.346923828125,11.0,0.0,0.0
3.8016293048858643,981.8639237881438,1711.7982965616836,58.63853467051923,0.1448965334349614,0.0009575086564213392,1.6148402700158835,0.0003254413604736328,1.5971152464044072,981.8118201635399,1711.801870704901,4.778665095048113,-0.346923828125,0.04313607621185622,0.013201703438316371,0.46767146532948073,362.52353205967637,1.025,1.725,0.52631,15469.860468532228,1.0,55507.70856025458,-1.4056213897262884,-0.060398400336440505,40.75671130414084,55507.70856025458,-1.4056213897262884,-0.060398400336440505,40.75671130414084,,,,,,,,,,,
3.8037002086639404,981.8410162932894,1711.825754845246,58.6670261524926,0.14868740939021394,0.0029218488340010174,1.6157059718637676,6.842613220214844e-05,1.598154150338508,981.8118201635399,1711.801870704901,4.778665095048113,-0.346923828125,0.04315898370671061,0.013174245154754089,0.46764297384750736,362.5731331218768,1.025,1.725,0.52631,15469.860468532228,1.0,55125.05727635057,-1.8873892008351358,-0.3513107099333774,74.68614918011329,55125.05727635057,-1.8873892008351358,-0.3513107099333774,74.68614918011329,,,,,,,,,,,
3.806933879852295,981.8161907153194,1711.7750138641145,58.658653259706604,0.1473244586088403,0.002443861788126648,1.6147509072958126,7.43865966796875e-05,1.5997505835549692,981.8161907153194,1711.7750138641145,5.4007790495104775,-0.5419921875,0.043183809284680595,0.013224986135885502,0.4676513467402933,362.5184119529705,1.025,1.725,0.52631,15469.860468532228,1.0,55401.9246626723,-1.8164103100430595,0.29353051493351673,13.40956973671764,55401.9246626723,-1.8164103100430595,0.29353051493351673,13.40956973671764,-3.333984375,-1.0458984375,0.0216064453125,0.0090179443359375,1.017578125,0.0186614990234375,-0.0022220611572265625,-0.5419921875,11.0,0.0,0.0
3.811506509780884,981.7962055641074,1711.823517178242,58.668618604141045,0.14653757671045992,-3.821083906384332e-05,1.6167942433686162,7.796287536621094e-05,1.601672872708027,981.8161907153194,1711.7750138641145,5.4007790495104775,-0.5419921875,0.04320379443589263,0.0131764828217581,0.4676413813958589,362.635486486069,1.025,1.725,0.52631,15469.860468532228,1.0,55320.51144575398,-1.7278729601168281,-0.23442950202357182,79.0584187672772,55320.51144575398,-1.7278729601168281,-0.23442950202357182,79.0584187672772,,,,,,,,,,,
3.814244508743286,981.8467889237721,1711.8059659362937,58.665482316888905,0.14644009765118735,-7.917605392676436e-05,1.6146183286164109,7.891654968261719e-05,1.602758145837103,981.8161907153194,1711.7750138641145,5.4007790495104775,-0.5419921875,0.043153211076227875,0.013194034063706341,0.467644517683111,362.5108157541874,1.025,1.725,0.52631,15469.860468532228,1.0,55375.081821976826,-1.2294486618576002,0.1899507649074547,-30.67970183487796,55375.081821976826,-1.2294486618576002,0.1899507649074547,-30.67970183487796,,,,,,,,,,,
3.8163094520568848,981.8221041346825,1711.8169010911313,58.68195503931451,0.14443206598271252,-0.0002940294794177283,1.6158984236959946,6.890296936035156e-05,1.6035285374166799,981.8161907153194,1711.7750138641145,5.4007790495104775,-0.5419921875,0.04317789586531751,0.013183098908868715,0.46762804496068544,362.58415979962297,1.025,1.725,0.52631,15469.860468532228,1.0,55223.25336673568,-1.877257959605935,-0.0654296707495362,92.17608315246645,55223.25336673568,-1.877257959605935,-0.0654296707495362,92.17608315246645,,,,,,,,,,,
3.8219826221466064,981.8518630213046,1711.786470905797,58.64416912801803,0.14645523932621346,0.0025278793777195998,1.6148346141418983,7.82012939453125e-05,1.605491937094208,981.8518630213046,1711.786470905797,5.960694227954541,-0.72509765625,0.04314813697869545,0.013213529094203067,0.46766583087198194,362.5232080019676,1.025,1.725,0.52631,15469.860468532228,1.0,55468.427525256215,-1.504118754105544,0.20746711063231607,22.106102251611098,55468.427525256215,-1.504118754105544,0.20746711063231607,22.106102251611098,1.1767578125,-1.4404296875,0.02044677734375,-0.006137847900390625,1.0234375,0.0229034423828125,-0.0005116462707519531,-0.72509765625,11.0,0.0,0.0
3.824228525161743,981.8172475058155,1711.792706733071,58.678798340441446,0.14562421926051156,0.001656211519666745,1.6163778133871274,7.867813110351562e-05,1.60613419116752,981.8518630213046,1711.786470905797,5.960694227954541,-0.72509765625,0.043182752494184455,0.013207293266928901,0.46763120165955846,362.61162680566696,1.025,1.725,0.52631,15469.860468532228,1.0,55082.214992149246,-1.9556986362358577,0.045699345372467615,101.74841930066448,55082.214992149246,-1.9556986362358577,0.045699345372467615,101.74841930066448,,,,,,,,,,,
3.8262906074523926,981.8498081581023,1711.8135634185876,58.65275393483004,0.14681093494400788,0.001928596364789436,1.6158108771972106,6.747245788574219e-05,1.6067235153594501,981.8518630213046,1711.786470905797,5.960694227954541,-0.72509765625,0.04315019184189771,0.013186436581412409,0.4676572460651699,362.5791437547315,1.025,1.725,0.52631,15469.860468532228,1.0,55571.80242725125,-1.2466382169589207,-0.07282462222922315,14.951304322568422,55571.80242725125,-1.2466382169589207,-0.07282462222922315,14.951304322568422,,,,,,,,,,,
3.8316690921783447,981.8665354090258,1711.6497590449976,58.65998048810334,0.14118219907052718,0.0032112125950154494,1.6099627645968542,7.700920104980469e-05,1.6081401968498232,981.8665354090258,1711.6497590449976,6.464633633580319,-0.9072265625,0.043133464590974196,0.01335024095500239,0.4676500195118966,362.24407158461383,1.025,1.725,0.52631,15469.860468532228,1.0,55336.668705746226,-1.5490078680949404,0.8141732030557565,-57.5114811620157,55336.668705746226,-1.5490078680949404,0.8141732030557565,-57.5114811620157,-4.375,-1.8857421875,0.025177001953125,0.008575439453125,1.001953125,0.0013360977172851562,0.00101470947265625,-0.9072265625,11.0,0.0,0.0
3.8339059352874756,981.816680385594,1711.8582458724245,58.67875046170747,0.1461916102997249,0.0009887772155788414,1.6149753120125951,7.2479248046875e-05,1.6086187938039438,981.8665354090258,1711.6497590449976,6.464633633580319,-0.9072265625,0.04318331961440595,0.013141754127575496,0.4676312495382925,362.531269396145,1.025,1.725,0.52631,15469.860468532228,1.0,55217.201281792964,-2.01797059152138,-1.9795304165442489,242.57694429904052,55217.201281792964,-2.01797059152138,-1.9795304165442489,242.57694429904052,,,,,,,,,,,
3.835963249206543,981.7897567994132,1711.7839669859634,58.67345877248796,0.14843038681595178,0.0034343063545720256,1.6172551826132726,6.580352783203125e-05,1.6090533025784877,981.8665354090258,1711.6497590449976,6.464633633580319,-0.9072265625,0.04321024320058677,0.01321603301403661,0.46763654122751197,362.66189635939975,1.025,1.725,0.52631,15469.860468532228,1.0,55405.46180425782,-1.8956417657687292,0.9768217780757866,135.24667686060883,55405.46180425782,-1.8956417657687292,0.9768217780757866,135.24667686060883,,,,,,,,,,,
3.842747926712036,981.8346443659105,1711.839393494394,58.64140277596202,0.145703735309219,0.001671411490249084,1.6145884693753354,7.367134094238281e-05,1.610296491615558,981.8665354090258,1711.6497590449976,6.464633633580319,-0.9072265625,0.04316535563408945,0.013160606505605982,0.4676685972240379,362.5091049456943,1.025,1.725,0.52631,15469.860468532228,1.0,55437.61604286223,-1.4232294270308106,0.05557830877746739,3.87307952397704,55437.61604286223,-1.4232294270308106,0.05557830877746739,3.87307952397704,,,,,,,,,,,
3.8457705974578857,981.851551165541,1711.8073096148696,58.6596434578174,0.14620599836548664,0.001280155847338305,1.614443651543561,7.462501525878906e-05,1.6107855381983875,981.851551165541,1711.8073096148696,7.1182463833791525,-1.251953125,0.04314844883445903,0.013192690385130391,0.4676503565421825,362.5008074951354,1.025,1.725,0.52631,15469.860468532228,1.0,55259.21400649618,-1.4585682904901556,0.4792891144913745,33.5686885636596,55259.21400649618,-1.4585682904901556,0.4792891144913745,33.5686885636596,-2.240234375,-8.890625,0.01580810546875,0.01242828369140625,1.033203125,0.0270843505859375,0.005931854248046875,-1.251953125,13.0,0.0,0.0
3.852686643600464,981.8401314692244,1711.8216546504032,58.63238383702895,0.14783552658013352,0.0018467418672349202,1.615985452210182,7.724761962890625e-05,1.6116850594689842,981.851551165541,1711.8073096148696,7.1182463833791525,-1.251953125,0.04315986853077561,0.013178345349596839,0.467677616162971,362.58914616618324,1.025,1.725,0.52631,15469.860468532228,1.0,55427.091676127915,-1.5956973149516644,0.22626092390336072,58.362183253188995,55427.091676127915,-1.5956973149516644,0.22626092390336072,58.362183253188995,,,,,,,,,,,
3.854752540588379,981.8581298253863,1711.7638447525246,58.69756690544153,0.1441040438641004,0.0026590919057038302,1.6130593727169975,7.033348083496094e-05,1.611920247269969,981.851551165541,1711.8073096148696,7.1182463833791525,-1.251953125,0.0431418701746137,0.01323615524747538,0.4676124330945584,362.42149416070396,1.025,1.725,0.52631,15469.860468532228,1.0,54819.26590518463,-1.3916808221199395,0.9085899384518022,-85.71567804237004,54819.26590518463,-1.3916808221199395,0.9085899384518022,-85.71567804237004,,,,,,,,,,,
3.8589189052581787,981.8224425401296,1711.834422994521,58.65347954986666,0.14713217417275257,0.0014726164580141983,1.6159748317476312,0.00026297569274902344,1.6123637650639768,981.8224425401296,1711.834422994521,7.706508170294777,-1.443359375,0.0431775574598704,0.013165577005479007,0.4676565204501333,362.58853765850256,1.025,1.725,0.52631,15469.860468532228,1.0,55531.85065018709,-1.7183527034947121,-0.05986630300326862,96.63910049478912,55531.85065018709,-1.7183527034947121,-0.05986630300326862,96.63910049478912,0.837890625,-0.266845703125,0.0035953521728515625,-0.0205535888671875,0.978515625,-0.00864410400390625,0.007598876953125,-1.443359375,13.0,0.0,0.0
3.8621790409088135,981.7929827358612,1711.8172101501784,58.68897307825101,0.14884759989501534,0.002682382463165922,1.6159415037466147,0.00010132789611816406,1.612643514886442,981.8224425401296,1711.834422994521,7.706508170294777,-1.443359375,0.043207017264138815,0.013182789849821575,0.4676210269217489,362.58662810470474,1.025,1.725,0.52631,15469.860468532228,1.0,55165.07417098068,-1.7622223949429632,0.42377681682137225,37.88099991331313,55165.07417098068,-1.7622223949429632,0.42377681682137225,37.88099991331313,,,,,,,,,,,
3.865323781967163,981.8255629592566,1711.780625129764,58.67627668285074,0.14611552693025107,0.0028833288952525345,1.616446085733993,9.34600830078125e-05,1.612909192595575,981.8255629592566,1711.780625129764,8.235897393100249,-1.5966796875,0.04317443704074344,0.013219374870235924,0.4676337233171492,362.6155385229998,1.025,1.725,0.52631,15469.860468532228,1.0,55422.450459002765,-1.3437422647192374,0.5730218965385908,52.480610594095296,55422.450459002765,-1.3437422647192374,0.5730218965385908,52.480610594095296,-4.7421875,-0.228515625,0.0286102294921875,-0.01338958740234375,1.056640625,0.055450439453125,0.006458282470703125,-1.5966796875,13.0,0.0,0.0
3.872756242752075,981.7886151616534,1711.861236090064,58.6404583729132,0.14891422649671082,0.001626493089786131,1.6165215204592938,9.989738464355469e-05,1.6134241869179355,981.8255629592566,1711.780625129764,8.235897393100249,-1.5966796875,0.04321138483834659,0.013138763909935961,0.46766954162708674,362.6198606143883,1.025,1.725,0.52631,15469.860468532228,1.0,55442.17409305724,-1.6475124885703747,0.08420733879227521,40.18532674074332,55442.17409305724,-1.6475124885703747,0.08420733879227521,40.18532674074332,,,,,,,,,,,
3.8748843669891357,981.859853607353,1711.7709901467708,58.64923969069709,0.14606588364695056,0.0032971188429226617,1.6158312543470688,8.273124694824219e-05,1.6135572868423254,981.8255629592566,1711.780625129764,8.235897393100249,-1.5966796875,0.04314014639264701,0.013229009853229173,0.46766076030930287,362.5803112794169,1.025,1.725,0.52631,15469.860468532228,1.0,55287.071335297485,-0.851848599439077,1.297281717502691,10.57001283644816,55287.071335297485,-0.851848599439077,1.297281717502691,10.57001283644816,,,,,,,,,,,
3.877953052520752,981.8081036083596,1711.7722549090677,58.68464810425599,0.14351393537418597,0.00225158745804485,1.6155425339645682,7.939338684082031e-05,1.6137492230320118,981.8081036083596,1711.7722549090677,8.612468446261657,-1.705078125,0.0431918963916404,0.01322774509093233,0.46762535189574395,362.5637688200402,1.025,1.725,0.52631,15469.860468532228,1.0,55172.42940859646,-1.8932020264870355,0.3176064415874457,30.744331092728935,55172.42940859646,-1.8932020264870355,0.3176064415874457,30.744331092728935,9.828125,-14.6328125,0.0056610107421875,-0.028961181640625,1.0908203125,0.07867431640625,0.013946533203125,-1.705078125,12.0,0.0,0.0
3.8821449279785156,981.8146031099033,1711.818949134868,58.717136153041004,0.14283382770833425,0.0031044030753230403,1.6177066201927608,8.678436279296875e-05,1.6139734222246949,981.8081036083596,1711.7722549090677,8.612468446261657,-1.705078125,0.04318539689009674,0.013181050865131966,0.467592863846959,362.68776182741806,1.025,1.725,0.52631,15469.860468532228,1.0,55219.984531821305,-1.498006122615768,0.09648966217156685,85.95746124145435,55219.984531821305,-1.498006122615768,0.09648966217156685,85.95746124145435,,,,,,,,,,,
3.8842642307281494,981.8545739649624,1711.8300673765234,58.63412056150949,0.14906546877276416,0.00477789220474993,1.616120847115354,8.0108642578125e-05,1.614084357178136,981.8081036083596,1711.7722549090677,8.612468446261657,-1.705078125,0.04314542603503765,0.013169932623476597,0.4676758794384905,362.59690372281716,1.025,1.725,0.52631,15469.860468532228,1.0,56032.37319325726,-1.1269696199370216,0.24724138066697174,-26.353169547888243,56032.37319325726,-1.1269696199370216,0.24724138066697174,-26.353169547888243,,,,,,,,,,,
3.8873326778411865,982.2045755503788,1711.9828123697353,56.68581143165973,0.03787911381054713,0.03282584818357297,1.5950630375444477,7.62939453125e-05,1.6142377159112458,982.2045755503788,1711.9828123697353,8.951433213022694,-1.80859375,0.042795424449621235,0.013017187630264743,0.4696241885683402,361.390380108614,1.025,1.725,0.52631,15469.860468532228,1.0,65760.92005911129,0.8869468537002008,-0.5866681915450318,-544.5241756030325,65535,0.8869468537002008,-0.5866681915450318,-360,1.4501953125,-6.03515625,-0.004146575927734375,-0.021942138671875,1.1435546875,0.1412353515625,0.0247802734375,-1.80859375,12.0,0.0,0.0
3.8918418884277344,981.9036004038348,1711.9616388574304,57.02599602342893,0.04946383821304925,0.02607332150125062,1.6049396346357967,0.00010371208190917969,1.6143762377477633,982.2045755503788,1711.9828123697353,8.951433213022694,-1.80859375,0.04309639959616516,0.013038361142569557,0.469284003976571,361.9562674378995,1.025,1.725,0.52631,15469.860468532228,1.0,54111.163005341354,-3.0177245076732344,0.4002228380122818,221.56165724159246,54111.163005341354,-3.0177245076732344,0.4002228380122818,221.56165724159246,,,,,,,,,,,
3.8949899673461914,982.2300940454812,1711.954973816897,56.703934187053534,0.03490164865679518,0.03037820909961569,1.5950422593961213,8.869171142578125e-05,1.614392507223106,982.2300940454812,1711.954973816897,9.256569177513356,-1.9072265625,0.042769905954518773,0.013045026183102892,0.46960606581294645,361.38918960840886,1.025,1.725,0.52631,15469.860468532228,1.0,57094.44141416698,0.6536772363134178,0.525379161522496,-240.4205926647196,57094.44141416698,0.6536772363134178,0.525379161522496,-240.4205926647196,17.796875,-27.796875,-0.0032291412353515625,-0.04022216796875,1.1982421875,0.1982421875,0.041229248046875,-1.9072265625,12.0,0.0,0.0
3.897855043411255,982.2776089858454,1711.9442904930565,56.672744618353285,0.036870196777607174,0.035213780053907025,1.5944395366318127,7.677078247070312e-05,1.61433208957462,982.2300940454812,1711.954973816897,9.256569177513356,-1.9072265625,0.04272239101415459,0.013055709506943458,0.46963725538164663,361.3546561377975,1.025,1.725,0.52631,15469.860468532228,1.0,55610.71420730614,-1.1326824592865574,0.5141560390427482,1.2380037674269389,55610.71420730614,-1.1326824592865574,0.5141560390427482,1.2380037674269389,,,,,,,,,,,
3.9018619060516357,982.3004500745512,1711.9567197968822,56.673827032952445,0.03641074624376611,0.033734875690475126,1.5945769927891744,8.130073547363281e-05,1.6141010865640897,982.2300940454812,1711.954973816897,9.256569177513356,-1.9072265625,0.04269954992544876,0.013043280203117775,0.4696361729670475,361.36253179548237,1.025,1.725,0.52631,15469.860468532228,1.0,55411.7868485259,-1.3725999021842532,0.3836136500646586,23.380512343797378,55411.7868485259,-1.3725999021842532,0.3836136500646586,23.380512343797378,,,,,,,,,,,
3.904853582382202,982.2299056679489,1711.9922977418876,56.68957755168877,0.0361829211517323,0.0317577397175121,1.5968427674558001,9.298324584960938e-05,1.6137992832477168,982.2299056679489,1711.9922977418876,9.531469473793889,-2.017578125,0.042770094332051145,0.013007702258112432,0.46962042244831115,361.4923511212077,1.025,1.725,0.52631,15469.860468532228,1.0,55334.039389224425,-1.9710771862938523,0.2129064016348667,84.82335073759506,55334.039389224425,-1.9710771862938523,0.2129064016348667,84.82335073759506,25.3125,-48.6875,0.005733489990234375,-0.03216552734375,1.267578125,0.25732421875,0.06280517578125,-2.017578125,12.0,0.0,0.0
3.9078330993652344,982.2660167981087,1711.9602452991758,56.66500596985633,0.03498042779036458,0.02673788029853519,1.5944176409252302,7.510185241699219e-05,1.6134356881077436,982.2299056679489,1711.9922977418876,9.531469473793889,-2.017578125,0.042733983201891305,0.013039754700824233,0.4696449940301436,361.35340160622087,1.025,1.725,0.52631,15469.860468532228,1.0,55563.47360438406,-1.2180876235949587,0.7681650896295334,-52.90848597796196,55563.47360438406,-1.2180876235949587,0.7681650896295334,-52.90848597796196,,,,,,,,,,,
3.9122495651245117,982.2429462759771,1711.9785046794364,56.654727200602615,0.03392614435722902,0.03135549912139897,1.5959505843297868,8.058547973632812e-05,1.6127232932464162,982.2299056679489,1711.9922977418876,9.531469473793889,-2.017578125,0.04275705372402285,0.013021495320563644,0.46965527279939734,361.44123279353437,1.025,1.725,0.52631,15469.860468532228,1.0,55457.89582685116,-1.5844171619826573,0.4495418157736108,51.409103278864805,55457.89582685116,-1.5844171619826573,0.4495418157736108,51.409103278864805,,,,,,,,,,,
3.9143898487091064,981.9060232195286,1712.0302108359224,57.01112349351173,0.04875592626274339,0.027364463105133748,1.6059007154997957,7.867813110351562e-05,1.612322477098318,982.2299056679489,1711.9922977418876,9.531469473793889,-2.017578125,0.043093976780471395,0.01296978916407761,0.4692988765064882,362.01133331517747,1.025,1.725,0.52631,15469.860468532228,1.0,52613.11881104863,-4.87636510835647,-0.09961807279764684,430.5229796913412,52613.11881104863,-4.87636510835647,-0.09961807279764684,360,,,,,,,,,,,
3.9164602756500244,982.2375897296137,1711.9986326292967,56.652772016982404,0.035854802383702526,0.03064870443249347,1.5950930145427888,7.295608520507812e-05,1.6119098222523462,982.2299056679489,1711.9922977418876,9.531469473793889,-2.017578125,0.04276241027038634,0.013001367370703293,0.46965722798301757,361.39209766410147,1.025,1.725,0.52631,15469.860468532228,1.0,58373.26988229159,2.0013110294326473,1.0568916585906902,-428.8350134381067,58373.26988229159,2.0013110294326473,1.0568916585906902,-360,,,,,,,,,,,
3.9232752323150635,982.2697042424174,1711.9582090996369,56.685202277034726,0.036260873323457385,0.03432146206923618,1.5948714371274912,7.963180541992188e-05,1.610437172001784,982.2299056679489,1711.9922977418876,9.531469473793889,-2.017578125,0.042730295757582554,0.01304179090036314,0.4696247977229652,361.3794022133695,1.025,1.725,0.52631,15469.860468532228,1.0,55335.96704615786,-1.3627077704820352,0.7320259353778462,17.899349244003577,55335.96704615786,-1.3627077704820352,0.7320259353778462,17.899349244003577,,,,,,,,,,,
3.926251173019409,982.2565937109964,1711.966424651713,56.673926923242185,0.03528842606830451,0.02904401330109445,1.5947195966470151,8.511543273925781e-05,1.6097176858797686,982.2565937109964,1711.966424651713,9.880692987304734,-2.39453125,0.04274340628900359,0.01303357534828706,0.4696360730767578,361.370702394679,1.025,1.725,0.52631,15469.860468532228,1.0,55479.35355992984,-1.544774053421932,0.5535100306699652,16.368246819443815,55479.35355992984,-1.544774053421932,0.5535100306699652,16.368246819443815,46.6875,-72.8125,0.00879669189453125,-0.026153564453125,1.353515625,0.350341796875,0.123046875,-2.39453125,13.0,0.0,0.0
3.930773973464966,982.1304405921401,1711.880732257813,56.38759598138699,0.02515577432500812,0.04141355387189332,1.5972043410227512,8.606910705566406e-05,1.608678339669071,982.2565937109964,1711.966424651713,9.880692987304734,-2.39453125,0.04286955940785992,0.013119267742187048,0.46992240401861296,361.5130677605775,1.025,1.725,0.52631,15469.860468532228,1.0,56541.320564629146,-2.0976966386405462,1.0238201115666277,71.34284649091275,56541.320564629146,-2.0976966386405462,1.0238201115666277,71.34284649091275,,,,,,,,,,,
3.9336421489715576,982.271565337821,1711.9756468514486,56.73187190584747,0.03557947537826673,0.03299929619252904,1.5943202292474221,7.987022399902344e-05,1.6079587523061318,982.271565337821,1711.9756468514486,10.193696624174212,-2.681640625,0.04272843466217898,0.013024353148551427,0.4695781280941525,361.34782032820715,1.025,1.725,0.52631,15469.860468532228,1.0,53460.72800757277,-0.4066366808306878,-0.022428272324169773,-62.35989522549832,53460.72800757277,-0.4066366808306878,-0.022428272324169773,-62.35989522549832,56.125,-68.625,0.00411224365234375,-0.034576416015625,1.3828125,0.37646484375,0.1588134765625,-2.681640625,13.0,0.0,0.0
3.9364943504333496,982.270988572376,1711.941816414658,56.65329646201696,0.03381773123742353,0.030131594322072117,1.5940428640760804,8.034706115722656e-05,1.6073117869141715,982.271565337821,1711.9756468514486,10.193696624174212,-2.681640625,0.04272901142762396,0.013058183585342022,0.469656703537983,361.3319284745054,1.025,1.725,0.52631,15469.860468532228,1.0,55911.05405884084,-1.4665028863515541,0.8955242031919743,11.197713493563704,55911.05405884084,-1.4665028863515541,0.8955242031919743,11.197713493563704,,,,,,,,,,,
3.942844867706299,982.249035494088,1711.9516319152904,56.71944283406754,0.037114328709354084,0.030256748729133438,1.594828964299254,8.058547973632812e-05,1.605823195855826,982.271565337821,1711.9756468514486,10.193696624174212,-2.681640625,0.042750964505911954,0.013048368084709636,0.4695905571659324,361.3769686995675,1.025,1.725,0.52631,15469.860468532228,1.0,55239.24713237864,-1.5265495627575068,0.5874823810187615,31.29548408751773,55239.24713237864,-1.5265495627575068,0.5874823810187615,31.29548408751773,,,,,,,,,,,
3.9462499618530273,982.2639779877646,1711.988505918924,56.6981745972361,0.035150371297473136,0.030015232393016626,1.5947854844306466,8.130073547363281e-05,1.6050162716718364,982.2639779877646,1711.988505918924,10.476330511855533,-2.994140625,0.042736022012235364,0.01301149408107608,0.4696118254027638,361.37447748660253,1.025,1.725,0.52631,15469.860468532228,1.0,55509.235037410916,-1.357207306671375,0.3951889026648185,19.648415358205167,55509.235037410916,-1.357207306671375,0.3951889026648185,19.648415358205167,60.84375,-73.125,0.01056671142578125,0.018157958984375,1.3427734375,0.352294921875,0.176513671875,-2.994140625,13.0,4.0,-5.0
3.9527087211608887,982.2563859531824,1711.9622340821547,56.67050679081252,0.03559876850533866,0.03168258437227008,1.5940062188609023,9.059906005859375e-05,1.6036407309475416,982.2639779877646,1711.988505918924,10.476330511855533,-2.994140625,0.042743614046817584,0.013037765917845263,0.4696394932091874,361.3298288583363,1.025,1.725,0.52631,15469.860468532228,1.0,55496.18787254829,-1.4842980258909337,0.7078471108728701,8.805277458870725,55496.18787254829,-1.4842980258909337,0.7078471108728701,8.805277458870725,,,,,,,,,,,
3.956176996231079,982.2955118139846,1711.9336189812088,56.1391478411496,0.026968279157131257,0.06686032788703107,1.5870202768042192,8.726119995117188e-05,1.602891352035405,982.2955118139846,1711.9336189812088,10.730465109490513,-3.451171875,0.042704488186015396,0.013066381018791162,0.47017085215885035,360.92956386256543,1.025,1.725,0.52631,15469.860468532228,1.0,57924.58081071163,-1.2278009574665065,0.7813020599030742,-151.66548650665752,57924.58081071163,-1.2278009574665065,0.7813020599030742,-151.66548650665752,60.875,-73.0,0.0034046173095703125,-0.011688232421875,1.3154296875,0.3115234375,0.1971435546875,-3.451171875,13.0,14.0,13.0
3.961540699005127,982.458048238555,1711.7485617085597,56.27759048289164,0.04489448932968566,0.04904620632755746,1.5887291817967637,0.00010180473327636719,1.601842454436883,982.2955118139846,1711.9336189812088,10.730465109490513,-3.451171875,0.042541951761445033,0.013251438291440308,0.4700324095171083,361.02747690622704,1.025,1.725,0.52631,15469.860468532228,1.0,54979.758860137896,-0.8017310853551487,1.3927342705762635,43.474088998975574,54979.758860137896,-0.8017310853551487,1.3927342705762635,43.474088998975574,,,,,,,,,,,
3.965308904647827,982.3214745729615,1711.8176348543657,56.48179341992106,0.04533954261508905,0.05274119110191841,1.5841863273766261,9.655952453613281e-05,1.6010640289269653,982.3214745729615,1711.8176348543657,10.458749380211284,-4.046875,0.0426785254270385,0.013182365145634322,0.46982820658007884,360.76719052101083,1.025,1.725,0.52631,15469.860468532228,1.0,54536.383649979885,-2.2042087765284757,0.19441114719214198,-88.75420916498821,54536.383649979885,-2.2042087765284757,0.19441114719214198,-88.75420916498821,61.78125,-62.5625,0.0024662017822265625,-0.004161834716796875,1.330078125,0.32275390625,0.1702880859375,-4.046875,8.0,3.0,37.0
3.967567205429077,982.3076138603311,1711.8566479575604,56.56124240577853,0.042217893940295,0.026631156522769678,1.584778337661697,7.534027099609375e-05,1.6006408516484072,982.3214745729615,1711.8176348543657,10.458749380211284,-4.046875,0.042692386139668886,0.013143352042439573,0.4697487575942214,360.80111021177373,1.025,1.725,0.52631,15469.860468532228,1.0,54775.50683349415,-1.5865725879118495,0.1957194122688829,36.31407341665988,54775.50683349415,-1.5865725879118495,0.1957194122688829,36.31407341665988,,,,,,,,,,,
3.97165584564209,982.2797899678749,1711.9425107692064,56.32509964156972,0.0534678533509805,0.04660704386537861,1.572894361484729,8.082389831542969e-05,1.5997909438016187,982.3214745729615,1711.8176348543657,10.458749380211284,-4.046875,0.042720210032125124,0.013057489230793634,0.4699849003584302,360.1202085329994,1.025,1.725,0.52631,15469.860468532228,1.0,56408.09121512282,-1.5884985766076036,0.14837710541609606,-247.57764696919332,56408.09121512282,-1.5884985766076036,0.14837710541609606,-247.57764696919332,,,,,,,,,,,
3.9747915267944336,982.3381406001913,1711.7528209000848,56.25751862654635,0.06002922640670297,0.04359342270269872,1.5582744930143086,0.00026345252990722656,1.5990640539023575,982.3381406001913,1711.7528209000848,10.214343610260045,-4.125,0.04266185939980869,0.013247179099915228,0.47005248137345357,359.282551772608,1.025,1.725,0.52631,15469.860468532228,1.0,55786.1096816417,-1.0970853350307415,1.8985469419761392,-395.01842418414213,55786.1096816417,-1.0970853350307415,1.8985469419761392,-360,61.25,-46.625,-0.005214691162109375,0.0123443603515625,1.310546875,0.293701171875,0.1700439453125,-4.125,8.0,-26.0,21.0
3.977530002593994,982.5813733260698,1711.634140072415,56.44054345448005,0.04744324743877702,0.052645742877088945,1.5667163604603185,7.510185241699219e-05,1.5984313400784762,982.3381406001913,1711.7528209000848,10.214343610260045,-4.125,0.042418626673930246,0.013365859927585006,0.46986945654551987,359.76623514847324,1.025,1.725,0.52631,15469.860468532228,1.0,54229.32150750782,0.5676222368487951,1.6996718075127113,275.5209137288225,54229.32150750782,0.5676222368487951,1.6996718075127113,275.5209137288225,,,,,,,,,,,
3.9837682247161865,982.4707156865439,1711.9049502363164,56.618388710212415,0.04765102844504332,0.05897358470986925,1.5650604019099703,7.319450378417969e-05,1.5966387417732106,982.3381406001913,1711.7528209000848,10.214343610260045,-4.125,0.04252928431345606,0.013095049763683619,0.46969161128978754,359.6713557124897,1.025,1.725,0.52631,15469.860468532228,1.0,54935.73522469525,-1.784173129356147,-0.26549086476029243,-27.74982628204719,54935.73522469525,-1.784173129356147,-0.26549086476029243,-27.74982628204719,,,,,,,,,,,
3.987154483795166,982.5861685351163,1711.7661899387815,56.669631202417676,0.03809172559122808,0.05335159716633752,1.5672139338982343,7.534027099609375e-05,1.5954545773019444,982.5861685351163,1711.7661899387815,9.995208664248608,-4.390625,0.04241383146488374,0.013233810061218492,0.46964036879758225,359.7947440064636,1.025,1.725,0.52631,15469.860468532228,1.0,55171.060095387984,-0.7168217330195364,1.6128987529804928,49.55469609613191,55171.060095387984,-0.7168217330195364,1.6128987529804928,49.55469609613191,57.53125,-44.1875,-0.0135955810546875,-0.02093505859375,1.328125,0.3076171875,0.2034912109375,-4.390625,8.0,-8.0,5.0
3.9912378787994385,982.6764331819671,1711.7353357351733,56.66541978717707,0.05132149887959942,0.06406928609337846,1.56496343698176,7.987022399902344e-05,1.5939964652516336,982.5861685351163,1711.7661899387815,9.995208664248608,-4.390625,0.04232356681803287,0.013264664264826706,0.46964458021282285,359.6658000313424,1.025,1.725,0.52631,15469.860468532228,1.0,55434.04108666737,-0.9034670549151129,0.9514614153626804,-53.82145545549228,55434.04108666737,-0.9034670549151129,0.9514614153626804,-53.82145545549228,,,,,,,,,,,
3.994373321533203,982.6580786526731,1711.7963618992655,56.86730443495752,0.0350341846064115,0.03664236688780272,1.567040310531308,0.0002574920654296875,1.592702420977651,982.6580786526731,1711.7963618992655,9.797072112718425,-4.453125,0.04234192134732689,0.013203638100734452,0.4694426955650424,359.7847961203139,1.025,1.725,0.52631,15469.860468532228,1.0,54365.92992641226,-1.4989190774431747,0.38812066993290084,51.13286672019616,54365.92992641226,-1.4989190774431747,0.38812066993290084,51.13286672019616,48.46875,-32.1875,-0.00691986083984375,-0.0185394287109375,1.322265625,0.302734375,0.21875,-4.453125,8.0,-11.0,20.0
3.997123956680298,982.707398460704,1711.9486105080916,56.9346085641527,0.04196457773688276,0.03735723915250598,1.568902003845011,7.677078247070312e-05,1.5916435722573983,982.6580786526731,1711.7963618992655,9.797072112718425,-4.453125,0.04229260153929602,0.013051389491908367,0.4693753914358472,359.8914632899368,1.025,1.725,0.52631,15469.860468532228,1.0,54965.51888564444,-0.9414864930870369,-0.46152443544129584,60.0475126545284,54965.51888564444,-0.9414864930870369,-0.46152443544129584,60.0475126545284,,,,,,,,,,,
4.001166582107544,982.5115592771155,1712.4013555120932,58.27091190881346,0.060580933328204536,0.02910517209812321,1.5671130871971308,7.176399230957031e-05,1.5899604878935412,982.6580786526731,1711.7963618992655,9.797072112718425,-4.453125,0.042488440722884546,0.012598644487906768,0.4680390880911865,359.78896591611255,1.025,1.725,0.52631,15469.860468532228,1.0,49746.84406766633,-2.3911795382788794,-1.6573452466455245,-41.28442817802143,49746.84406766633,-2.3911795382788794,-1.6573452466455245,-41.28442817802143,,,,,,,,,,,
4.004001140594482,983.0565062074801,1712.2399701389281,58.85541605725314,0.03700668075548281,0.06727002331495731,1.5725949951001608,7.390975952148438e-05,1.5887207291768934,983.0565062074801,1712.2399701389281,9.619504090305146,-4.59765625,0.041943493792519916,0.012760029861071871,0.4674545839427468,360.1030561026356,1.025,1.725,0.52631,15469.860468532228,1.0,52003.239790376145,2.6143372778252747,2.0672499460545763,161.1133955238386,52003.239790376145,2.6143372778252747,2.0672499460545763,161.1133955238386,31.234375,-27.515625,-0.0020160675048828125,0.0038623809814453125,1.2978515625,0.277587890625,0.2423095703125,-4.59765625,8.0,-5.0,15.0
4.006830215454102,983.1746161102313,1712.3494824525912,59.36759267742742,0.03224350525971962,0.07121942838154263,1.5660261312169643,7.82012939453125e-05,1.5875917883798003,983.0565062074801,1712.2399701389281,9.619504090305146,-4.59765625,0.04182538388976866,0.012650517547408754,0.46694240732257253,359.72668792593254,1.025,1.725,0.52631,15469.860468532228,1.0,52129.2361449316,-0.4050658425500979,-0.06022171302474921,-211.75589645149904,52129.2361449316,-0.4050658425500979,-0.06022171302474921,-211.75589645149904,,,,,,,,,,,
4.0131309032440186,983.5389121032109,1712.7294276089872,60.595413177111496,0.048354366295365526,0.08376398846454217,1.5578250399522584,6.842613220214844e-05,1.58503594904824,983.0565062074801,1712.2399701389281,9.619504090305146,-4.59765625,0.04146108789678908,0.01227057239101282,0.46571458682288847,359.2568000090632,1.025,1.725,0.52631,15469.860468532228,1.0,51977.52087450114,-0.07637750258696752,-0.5131658322761097,-123.1791941157921,51977.52087450114,-0.07637750258696752,-0.5131658322761097,-123.1791941157921,,,,,,,,,,,
4.016439199447632,984.5674316717443,1712.7963781100889,61.845881927602406,-0.0033267895314286677,0.09289655130037248,1.544488782795461,6.985664367675781e-05,1.5836691316819669,984.5674316717443,1712.7963781100889,9.660482433493936,-4.515625,0.04043256832825568,0.012203621889911118,0.4644641180723975,358.49268875947763,1.025,1.725,0.52631,15469.860468532228,1.0,49098.77953471504,5.2024699680471524,0.42907022054152494,-357.31497431505534,49098.77953471504,5.2024699680471524,0.42907022054152494,-357.31497431505534,14.984375,-19.5625,0.0166473388671875,-0.01210784912109375,1.2763671875,0.255615234375,0.261474609375,-4.515625,10.0,-3.0,26.0
4.023320436477661,984.81466249657,1713.2555981563846,64.603174783143,0.010892710890272352,0.10163376408464567,1.5475006737997836,7.176399230957031e-05,1.5808933509032248,984.5674316717443,1712.7963781100889,9.660482433493936,-4.515625,0.040185337503429994,0.011744401843615379,0.46170682521685696,358.66525740237876,1.025,1.725,0.52631,15469.860468532228,1.0,48248.52191334928,-0.49822588404115953,-0.7067144117159031,18.23495771616576,48248.52191334928,-0.49822588404115953,-0.7067144117159031,18.23495771616576,,,,,,,,,,,
4.026185512542725,985.7622055556172,1713.5671671125706,66.34449397162714,-0.010970672579798583,0.12741403913068677,1.5370744037102149,7.05718994140625e-05,1.5796058532111188,985.7622055556172,1713.5671671125706,9.69704122627039,-4.8203125,0.03923779444438276,0.011432832887429413,0.45996550602837283,358.067876130183,1.025,1.725,0.52631,15469.860468532228,1.0,45247.525401970415,5.646004036312226,-1.4415405458773265,-329.6536971867549,45247.525401970415,5.646004036312226,-1.4415405458773265,-329.6536971867549,-1.7509765625,-11.3046875,-0.0016851425170898438,-0.040985107421875,1.2919921875,0.26220703125,0.29736328125,-4.8203125,10.0,-3.0,5.0
4.030729055404663,986.6135835877998,1713.9507622159178,68.74649439443832,-0.02644879337840256,0.1308390136047825,1.532740453458094,6.890296936035156e-05,1.5775820647501622,985.7622055556172,1713.5671671125706,9.69704122627039,-4.8203125,0.03838641641220022,0.011049237784082152,0.45756350560556164,357.81955907211676,1.025,1.725,0.52631,15469.860468532228,1.0,45841.732382027774,2.952048730259608,-1.0848538938379715,-116.86282189460448,45841.732382027774,2.952048730259608,-1.0848538938379715,-116.86282189460448,,,,,,,,,,,
4.033543586730957,987.6519137727844,1714.4069528443583,70.79304073143685,-0.04487238963262652,0.17964508149785594,1.5290798778676196,6.890296936035156e-05,1.576141350139802,987.6519137727844,1714.4069528443583,9.72967792612397,-5.2734375,0.03734808622721562,0.010593047155641671,0.45551695926856306,357.609823540194,1.025,1.725,0.52631,15469.860468532228,1.0,43281.53168726759,6.453790216102535,-2.5407854587246312,-142.41340525360567,43281.53168726759,6.453790216102535,-2.5407854587246312,-142.41340525360567,-20.328125,0.17822265625,-0.004619598388671875,-0.0175323486328125,1.2763671875,0.26025390625,0.353271484375,-5.2734375,10.0,-5.0,-9.0
4.036366701126099,987.9719590842991,1715.2050006952245,74.16685193167903,-0.0552681923899522,0.20496415967677103,1.5471987357227075,6.866455078125e-05,1.5747631360931094,987.6519137727844,1714.4069528443583,9.72967792612397,-5.2734375,0.0370280409157009,0.009794999304775502,0.4521431480683209,358.64795762488797,1.025,1.725,0.52631,15469.860468532228,1.0,33566.79465160408,1.4317714905806456,-5.68560568559203,559.7189128994223,33566.79465160408,1.4317714905806456,-5.68560568559203,360,,,,,,,,,,,
4.042716979980469,989.2639190078437,1715.728599007299,77.791211644989,-0.04706066303184796,0.16610186372977181,1.542880988176027,7.128715515136719e-05,1.5713462764898705,987.6519137727844,1714.4069528443583,9.72967792612397,-5.2734375,0.035736080992156305,0.009271400992701047,0.44851878835501097,358.40056891346023,1.025,1.725,0.52631,15469.860468532228,1.0,45100.60073199649,3.276242507853077,-1.0296787631001234,-82.3986710730992,45100.60073199649,3.276242507853077,-1.0296787631001234,-82.3986710730992,,,,,,,,,,,
4.046015501022339,991.2576576316582,1716.8972096608597,82.339905204714,-0.013044705909211958,0.15471221000376412,1.5178746165297075,7.104873657226562e-05,1.569460553804355,991.2576576316582,1716.8972096608597,9.761129026972688,-5.546875,0.03374234236834184,0.008102790339140256,0.44397009479528593,356.9678093571905,1.025,1.725,0.52631,15469.860468532228,1.0,32201.84254485311,11.594530110762049,-6.733981982411619,-675.3580400523534,32201.84254485311,11.594530110762049,-6.733981982411619,-360,-32.25,4.39453125,-0.0012006759643554688,0.001399993896484375,1.23046875,0.21435546875,0.3935546875,-5.546875,10.0,0.0,4.0
4.052186965942383,992.7890890731321,1717.8393187617128,86.27064628904111,-0.010912563435429968,0.15370108670465435,1.5110844554194591,6.937980651855469e-05,1.5660154457500857,991.2576576316582,1716.8972096608597,9.761129026972688,-5.546875,0.03221091092686788,0.0071606812382872245,0.4400393537109588,356.5787617833594,1.025,1.725,0.52631,15469.860468532228,1.0,43536.19030454813,4.447200023164944,-2.730063252267319,-147.67237762960235,43536.19030454813,4.447200023164944,-2.730063252267319,-147.67237762960235,,,,,,,,,,,
4.054988622665405,995.0128873088352,1718.559814792165,93.2611762114955,-0.03771963374231719,0.0692922440063033,1.534261244818673,7.271766662597656e-05,1.564276913092569,995.0128873088352,1718.559814792165,12.088544973665986,-4.4765625,0.02998711269116484,0.006440185207834929,0.43304882378850446,357.9066939985979,1.025,1.725,0.52631,15469.860468532228,1.0,13703.190339857832,15.559916959050103,-4.820873718826902,651.6702409948705,13703.190339857832,15.559916959050103,-4.820873718826902,360,-37.15625,14.09375,-0.0012264251708984375,-0.001056671142578125,1.201171875,0.191162109375,0.437255859375,-4.4765625,33.0,-11.0,11.0
4.057937145233154,997.1573556148604,1719.6467942437737,97.7612471680281,-0.03600412221862601,0.06904657434493706,1.533472017692706,0.00011920928955078125,1.5625230385145503,995.0128873088352,1718.559814792165,12.088544973665986,-4.4765625,0.02784264438513958,0.005353205756226317,0.42854875283197186,357.8614746152027,1.025,1.725,0.52631,15469.860468532228,1.0,27850.261376070943,15.266083674567499,-7.757841422866871,-55.701210588282606,27850.261376070943,15.266083674567499,-7.757841422866871,-55.701210588282606,,,,,,,,,,,
4.06249213218689,999.5317050744333,1721.0546646171515,102.59090848586558,-0.0279432225335534,0.06304054968689472,1.5296257484276152,9.274482727050781e-05,1.559704983948798,995.0128873088352,1718.559814792165,12.088544973665986,-4.4765625,0.025468294925566737,0.003945335382848498,0.42371909151413434,357.6410996194422,1.025,1.725,0.52631,15469.860468532228,1.0,36154.25321368516,10.457654731434664,-6.331794941722983,-108.19134004789862,36154.25321368516,10.457654731434664,-6.331794941722983,-108.19134004789862,,,,,,,,,,,
4.064637184143066,1002.0584659638812,1722.2766823132154,107.69422144752163,-0.024283569938962878,0.06723830922511005,1.527124775889591,8.249282836914062e-05,1.558385576961661,995.0128873088352,1718.559814792165,12.088544973665986,-4.4765625,0.02294153403611881,0.0027233176867846394,0.41861577855247833,357.4978044483353,1.025,1.725,0.52631,15469.860468532228,1.0,13663.644434591648,24.749073967233493,-12.283582613275366,-138.16193919432902,13663.644434591648,24.749073967233493,-12.283582613275366,-138.16193919432902,,,,,,,,,,,
4.066693544387817,1004.5928791871916,1723.8601164505496,112.8521882938445,-0.01590385918837496,0.06346209950139156,1.5248521405235282,6.270408630371094e-05,1.5571369276708429,995.0128873088352,1718.559814792165,12.088544973665986,-4.4765625,0.020407120812808443,0.0011398835494503602,0.4134578117061554,357.3675920334877,1.025,1.725,0.52631,15469.860468532228,1.0,11114.82038937992,26.05744204219827,-16.86682838195035,-135.3019883476478,11114.82038937992,26.05744204219827,-16.86682838195035,-135.3019883476478,,,,,,,,,,,
4.073925733566284,1007.2384864417421,1725.8306161490343,118.34432549566549,-0.005329897938653388,0.04058826655059947,1.5260058533037133,0.0020630359649658203,1.5527748544740743,1007.2384864417421,1725.8306161490343,14.186783943175927,-4.69921875,0.017761513558257887,-0.0008306161490343129,0.40796567450433446,357.4336949065626,1.025,1.725,0.52631,15469.860468532228,1.0,41068.12680889856,7.052738323379,-5.676839109151455,-25.08979582382367,41068.12680889856,7.052738323379,-5.676839109151455,-25.08979582382367,-43.75,25.859375,0.01003265380859375,-0.041534423828125,1.1865234375,0.1717529296875,0.466064453125,-4.69921875,33.0,4.0,6.0
4.084169387817383,1010.2030603794053,1727.3957685283385,123.64253807366994,0.004656211585857916,0.03509729420046861,1.5141773229686133,0.008102655410766602,1.5471596719881298,1010.2030603794053,1727.3957685283385,16.0745207398717,-4.11328125,0.014796939620594685,-0.0023957685283385217,0.40266746192633,356.7559700405189,1.025,1.725,0.52631,15469.860468532228,1.0,44649.86781022378,5.698228519686272,-3.3355557928081536,-148.28372450483224,44649.86781022378,5.698228519686272,-3.3355557928081536,-148.28372450483224,-52.5625,46.84375,0.0196380615234375,-0.0211181640625,1.107421875,0.1019287109375,0.5146484375,-4.11328125,33.0,15.0,-1.0
4.093730211257935,1013.2300385200491,1729.4264140060961,129.24448156048206,0.011295609623887613,0.021007626449814805,1.511178417137495,0.007465362548828125,1.5422848503388373,1010.2030603794053,1727.3957685283385,16.0745207398717,-4.11328125,0.011769961479950894,-0.004426414006096138,0.3970655184395179,356.58414539323866,1.025,1.725,0.52631,15469.860468532228,1.0,43277.280656719,6.368892626038942,-4.830047792312811,-78.47389801298951,43277.280656719,6.368892626038942,-4.830047792312811,-78.47389801298951,,,,,,,,,,,
4.103800535202026,1016.6622077761714,1730.9758373288369,134.75209485528512,0.01808308851907163,0.023172021365248163,1.5060770733981323,0.008049964904785156,1.5371665676155246,1016.6622077761714,1730.9758373288369,20.87668129228065,-5.484375,0.008337792223828615,-0.00597583732883686,0.39155790514471484,356.2918599271277,1.025,1.725,0.52631,15469.860468532228,1.0,44021.51680783448,6.822934462696967,-3.5990977312778405,-98.46196479667574,44021.51680783448,6.822934462696967,-3.5990977312778405,-98.46196479667574,-65.8125,83.125,-0.0095977783203125,-0.019012451171875,0.95849609375,-0.045654296875,0.5498046875,-5.484375,64.0,6.0,11.0
4.113307952880859,1019.4958570347936,1733.018595996619,139.82136359520825,0.03804510351190239,-0.021914302213841493,1.5037142295575376,0.0072939395904541016,1.532547899079605,1016.6622077761714,1730.9758373288369,20.87668129228065,-5.484375,0.00550414296520637,-0.00801859599661907,0.3864886364047917,356.1564789474131,1.025,1.725,0.52631,15469.860468532228,1.0,43812.35377361531,6.123406132528748,-5.168016093671563,-79.36158288734025,43812.35377361531,6.123406132528748,-5.168016093671563,-79.36158288734025,,,,,,,,,,,
4.124284982681274,1022.7761698292416,1735.1404404434904,145.38020837344217,0.04247881575974285,-0.029072560939334004,1.4990273894707011,0.00893545150756836,1.527157283972034,1022.7761698292416,1735.1404404434904,25.199239679617893,-6.1015625,0.002223830170758447,-0.010140440443490434,0.38092979162655777,355.8879427911847,1.025,1.725,0.52631,15469.860468532228,1.0,44348.5944930024,6.04084727748424,-4.707400306533783,-97.91720446288194,44348.5944930024,6.04084727748424,-4.707400306533783,-97.91720446288194,-77.1875,113.9375,-0.0017642974853515625,-0.0160064697265625,0.90869140625,-0.086669921875,0.5673828125,-6.1015625,64.0,5.0,6.0
4.133631706237793,1026.1987276243008,1737.0013024027703,150.59875897105863,0.05381788361135027,-0.052592832726431386,1.504169172697478,0.0071563720703125,1.5228653479819576,1022.7761698292416,1735.1404404434904,25.199239679617893,-6.1015625,-0.0011987276243007727,-0.012001302402770307,0.3757112410289413,356.1825452692501,1.025,1.725,0.52631,15469.860468532228,1.0,43106.442863819655,7.764557105586313,-5.15927414751859,-9.287742321682941,43106.442863819655,7.764557105586313,-5.15927414751859,-9.287742321682941,,,,,,,,,,,
4.144336700439453,1029.4957706652278,1739.0060684784087,155.71497031992456,0.06303790632663833,-0.07474676512755321,1.5018751323555248,0.008513450622558594,1.5182507606044309,1029.4957706652278,1739.0060684784087,29.085539014921974,-6.66796875,-0.004495770665227838,-0.014006068478408679,0.3705950296800754,356.0511064396235,1.025,1.725,0.52631,15469.860468532228,1.0,44527.97946696307,6.399319252672266,-4.856795955587019,-77.41793585836793,44527.97946696307,6.399319252672266,-4.856795955587019,-77.41793585836793,-70.625,119.125,-0.00647735595703125,-0.00872039794921875,0.91943359375,-0.0771484375,0.560546875,-6.66796875,64.0,19.0,27.0
4.15407133102417,1032.8951562958025,1740.9635162180818,160.920078413099,0.0687674845627706,-0.08800660466784109,1.507015861677968,0.0075457096099853516,1.514727862920513,1032.8951562958025,1740.9635162180818,35.78618994053913,-6.52734375,-0.007895156295802508,-0.015963516218081848,0.365389921586901,356.3456485334186,1.025,1.725,0.52631,15469.860468532228,1.0,43335.03718331573,7.453460067909578,-5.383626149391313,-9.432894430086883,43335.03718331573,7.453460067909578,-5.383626149391313,-9.432894430086883,-51.34375,97.375,-0.0011568069458007812,-0.00498199462890625,0.96484375,-0.032745361328125,0.572265625,-6.52734375,96.0,15.0,28.0
4.164250612258911,1036.2912457188677,1743.117280883987,165.88786087366327,0.07613059715487884,-0.104138258571545,1.5051602832989444,0.007984638214111328,1.5118486967934635,1032.8951562958025,1740.9635162180818,35.78618994053913,-6.52734375,-0.011291245718867686,-0.01811728088398695,0.3604221391263367,356.23933172374484,1.025,1.725,0.52631,15469.860468532228,1.0,43887.80148751774,7.294276516589385,-5.767712214150084,-72.25743530102498,43887.80148751774,7.294276516589385,-5.767712214150084,-72.25743530102498,,,,,,,,,,,
4.173633575439453,1039.2633272767578,1745.5635338959346,171.17945401299423,0.08429202410021233,-0.11366722773651083,1.5097009471637717,0.007207393646240234,1.5098574295016967,1039.2633272767578,1745.5635338959346,41.81749525562715,-6.7890625,-0.014263327276757764,-0.020563533895934596,0.35513054598700566,356.499492599387,1.025,1.725,0.52631,15469.860468532228,1.0,42676.99239727612,6.79059230630079,-6.772633447776275,-11.519187849800502,42676.99239727612,6.79059230630079,-6.772633447776275,-11.519187849800502,-31.078125,52.09375,-0.02020263671875,0.030029296875,0.9833984375,-0.023712158203125,0.5703125,-6.7890625,96.0,9.0,16.0
4.183821201324463,1042.7685269000397,1747.328082632111,176.19876554019748,0.0914468272808319,-0.11854534193616517,1.5153616094609883,0.007964372634887695,1.5085403570900826,1039.2633272767578,1745.5635338959346,41.81749525562715,-6.7890625,-0.01776852690003966,-0.02232808263211109,0.35011123445980247,356.82382465826635,1.025,1.725,0.52631,15469.860468532228,1.0,43462.80497560894,7.843771895609688,-5.138465423702275,0.8742008652177091,43462.80497560894,7.843771895609688,-5.138465423702275,0.8742008652177091,,,,,,,,,,,
4.194248676300049,1046.1307941667603,1749.503270753861,181.21090615722537,0.08782090641483223,-0.12227350484073536,1.5164379174825913,0.008384466171264648,1.5080423174372468,1046.1307941667603,1749.503270753861,48.64535741663966,-7.140625,-0.021130794166760326,-0.024503270753860988,0.34509909384277454,356.88549256536027,1.025,1.725,0.52631,15469.860468532228,1.0,43759.131423844316,7.268526100148823,-5.808593786604004,-37.96688584818195,43759.131423844316,7.268526100148823,-5.808593786604004,-37.96688584818195,-11.5859375,6.6640625,0.0,-0.00665283203125,1.013671875,0.01552581787109375,0.55419921875,-7.140625,110.0,11.0,15.0
4.203947067260742,1049.9262545025554,1750.9304249258128,185.99724473761583,0.08659284211876171,-0.11390548987108556,1.5115401148186771,0.007505655288696289,1.5082961110922521,1049.9262545025554,1750.9304249258128,54.78661343029899,-7.12890625,-0.024926254502555367,-0.025930424925812757,0.34031275526238414,356.60486914383006,1.025,1.725,0.52631,15469.860468532228,1.0,43290.08388129736,9.126993140609033,-4.676836386639429,-94.45795325447178,43290.08388129736,9.126993140609033,-4.676836386639429,-94.45795325447178,-7.06640625,-10.34375,-0.00034809112548828125,0.012359619140625,0.96875,-0.03753662109375,0.55517578125,-7.12890625,110.0,9.0,10.0
4.2138659954071045,1053.356256785615,1752.89715181595,191.06786561883172,0.08767147230686057,-0.10641866178498727,1.5161064200789067,0.0077669620513916016,1.5089769101442914,1053.356256785615,1752.89715181595,60.31228069987979,-7.05078125,-0.02835625678561496,-0.02789715181595011,0.33524213438116823,356.8664991632096,1.025,1.725,0.52631,15469.860468532228,1.0,42853.07786553712,8.195589177151342,-5.759704369868434,-7.435344570184654,42853.07786553712,8.195589177151342,-5.759704369868434,-7.435344570184654,-2.447265625,-18.65625,0.0028095245361328125,-0.0018720626831054688,1.0068359375,-0.0005960464477539062,0.5537109375,-7.05078125,110.0,7.0,6.0
4.224323034286499,1057.0489935217627,1754.5695598241775,195.83527129586267,0.08507532489667667,-0.1091541300782236,1.5102526504528015,0.008301019668579102,1.5098342257340578,1053.356256785615,1752.89715181595,60.31228069987979,-7.05078125,-0.032048993521762666,-0.02956955982417753,0.3304747287041373,356.53110286939193,1.025,1.725,0.52631,15469.860468532228,1.0,43560.45988558536,8.635538140576715,-5.031113689109013,-100.7156815551972,43560.45988558536,8.635538140576715,-5.031113689109013,-100.7156815551972,,,,,,,,,,,
4.234349012374878,1060.3400420690948,1756.2976148241755,200.86857340795845,0.08487468776244345,-0.10533294908551628,1.5189152167446822,0.00796365737915039,1.5106551734877331,1060.3400420690948,1756.2976148241755,67.69102658127437,-7.0,-0.03534004206909481,-0.03129761482417553,0.32544142659204145,357.02743135766895,1.025,1.725,0.52631,15469.860468532228,1.0,42806.106796013366,8.023872098224807,-5.224521540002814,28.74704682208815,42806.106796013366,8.023872098224807,-5.224521540002814,28.74704682208815,0.69873046875,-14.8515625,0.001468658447265625,0.0528564453125,0.984375,-0.0176849365234375,0.533203125,-7.0,134.0,5.0,2.0
