time,x_pos,y_pos,z_pos,x_rot,y_rot,z_rot,delta_time,z_filtered,x_pos_est,y_pos_est,z_pos_est,z_rot_est,x_error,y_error,z_error,yaw_error,x_setpoint,y_setpoint,z_setpoint,yaw_setpoint,vicon_available,thrust_cal,pitch_cal,roll_cal,yaw_cal,thrust_lim,pitch_lim,roll_lim,yaw_lim,gyro_x,gyro_y,acc_x,acc_y,acc_z,stateEstimate_az,stateEstimate_vz,stateEstimate_yaw,range_zrange,motion_deltaX,motion_deltaY
3.748840093612671,970.4239852233636,1707.7841942641958,57.636089361071434,0.08849242514401783,0.032122618489908605,1.6460234619594196,0.0002567768096923828,1.5919212623570889,970.4239852233636,1707.7841942641958,1.4065949065090988,0.06805419921875,0.054576014776636386,0.017215805735804224,-0.05763608936107143,364.31019734978736,1.025,1.725,0.0,15469.860468532228,1.0,12239423.351490043,-634.9058161833153,184.90368203078376,2982.7006281155045,65535,-40,40,360,-0.033721923828125,0.31494140625,-0.002033233642578125,0.01739501953125,1.0,0.0005064010620117188,0.0019626617431640625,0.06805419921875,14.0,0.0,0.0
3.7529890537261963,970.4018875382471,1707.755599348724,57.636602042698584,0.08633204145505947,0.032518672994657376,1.6452713225180895,0.00015401840209960938,1.59471311648183,970.4239852233636,1707.7841942641958,1.4065949065090988,0.06805419921875,0.05459811246175286,0.01724440065127601,0.46867339795730134,364.2671029341938,1.025,1.725,0.52631,15469.860468532228,1.0,3133351.8607761296,-2.3718497219680814,-0.27383413470470175,42.116779799077655,65535,-2.3718497219680814,-0.27383413470470175,42.116779799077655,,,,,,,,,,,
3.756720542907715,970.4232885289445,1707.7676165980754,57.635780532673486,0.08682989495511,0.032757893387481404,1.645821100712299,9.918212890625e-05,1.5978607367154491,970.4239852233636,1707.7841942641958,1.4065949065090988,0.06805419921875,0.05457671147105555,0.01723238340192461,0.46867421946732646,364.29860290439035,1.025,1.725,0.52631,15469.860468532228,1.0,55396.81713463238,-2.0908483954534023,-0.531030060223787,77.24923987314375,55396.81713463238,-2.0908483954534023,-0.531030060223787,77.24923987314375,,,,,,,,,,,
3.759990692138672,970.4721424158098,1707.7682396003265,57.613089602136554,0.0876268571701005,0.03497259580467058,1.6458308850463448,9.72747802734375e-05,1.6007441325267648,970.4721424158098,1707.7682396003265,2.665973338122762,0.0670166015625,0.0545278575841902,0.017231760399673477,0.46869691039786343,364.2991635054365,1.025,1.725,0.52631,15469.860468532228,1.0,55505.03928425629,-1.902353019422459,-0.4583940502535404,64.73387169812456,55505.03928425629,-1.902353019422459,-0.4583940502535404,64.73387169812456,0.10009765625,0.1600341796875,-0.0007257461547851562,0.0172119140625,0.99951171875,-0.001010894775390625,0.0020389556884765625,0.0670166015625,14.0,0.0,0.0
3.7673592567443848,970.4429694964027,1707.7836467114257,57.6578532022457,0.08563155527427505,0.032989776247471465,1.644985875918579,9.34600830078125e-05,1.6066918747788108,970.4721424158098,1707.7682396003265,2.665973338122762,0.0670166015625,0.054557030503597274,0.017216353288574283,0.46865214679775424,364.2507480487655,1.025,1.725,0.52631,15469.860468532228,1.0,55288.7481302241,-2.291661586153888,-0.5001903750829945,53.70264940877182,55288.7481302241,-2.291661586153888,-0.5001903750829945,53.70264940877182,,,,,,,,,,,
3.7694430351257324,970.4254454845346,1707.7938903247048,57.64435125070032,0.08732385199432782,0.032376804481972575,1.6449623113951628,6.67572021484375e-05,1.6083496590225494,970.4721424158098,1707.7682396003265,2.665973338122762,0.0670166015625,0.05457455451546536,0.017206109675295237,0.4686656487492996,364.2493979010275,1.025,1.725,0.52631,15469.860468532228,1.0,55507.048333245635,-2.3769083233211306,-0.5475984950922108,62.7577071324977,55507.048333245635,-2.3769083233211306,-0.5475984950922108,62.7577071324977,,,,,,,,,,,
3.774196147918701,970.3920949489709,1707.794445997496,57.64293646114449,0.0855652162819951,0.034643775582868616,1.6454966869615268,0.00010609626770019531,1.612168973438124,970.3920949489709,1707.794445997496,3.499328530433419,0.06732177734375,0.054607905051029096,0.01720555400250396,0.46866706353885546,364.2800153656551,1.025,1.725,0.52631,15469.860468532228,1.0,55399.72311622072,-2.3332748926342726,-0.4123713815929416,73.4996623442493,55399.72311622072,-2.3332748926342726,-0.4123713815929416,73.4996623442493,0.05865478515625,-0.43603515625,-0.001125335693359375,0.0178375244140625,1.0029296875,0.0017147064208984375,-0.0038204193115234375,0.06732177734375,11.0,0.0,0.0
3.7788703441619873,970.4200850541775,1707.804035037588,57.61449822800585,0.08760207995814158,0.03536639202835109,1.6460856141110032,9.965896606445312e-05,1.6154836881226982,970.3920949489709,1707.794445997496,3.499328530433419,0.06732177734375,0.054579914945822455,0.017195964962412064,0.4686955017719941,364.3137584057607,1.025,1.725,0.52631,15469.860468532228,1.0,55499.87585925281,-2.0351234071806164,-0.40357370004656923,75.89794401991558,55499.87585925281,-2.0351234071806164,-0.40357370004656923,75.89794401991558,,,,,,,,,,,
3.785496473312378,970.4525223669378,1707.7455986645552,57.65344136650699,0.08508769349871843,0.03375908815425813,1.6460270313881549,0.0003368854522705078,1.620073516049608,970.4525223669378,1707.7455986645552,4.24935817506049,0.0670166015625,0.054547477633062155,0.017254401335444754,0.468656558633493,364.3104018629891,1.025,1.725,0.52631,15469.860468532228,1.0,55293.704556627046,-2.057119753590879,-0.11354312698537328,63.91121994710718,55293.704556627046,-2.057119753590879,-0.11354312698537328,63.91121994710718,-1.576171875,-0.369140625,-0.00020444393157958984,0.017578125,1.0205078125,0.0104217529296875,-0.0037136077880859375,0.0670166015625,11.0,0.0,0.0
3.7877426147460938,970.4115593694797,1707.8021196798907,57.59645654970316,0.08771425139290923,0.0339104845651984,1.6461992653405628,7.772445678710938e-05,1.6213966224363237,970.4525223669378,1707.7455986645552,4.24935817506049,0.0670166015625,0.05458844063052027,0.017197880320109334,0.4687135434502968,364.32027014155096,1.025,1.725,0.52631,15469.860468532228,1.0,55863.642129142776,-2.533422819480498,-0.8645946830414375,71.89066784835926,55863.642129142776,-2.533422819480498,-0.8645946830414375,71.89066784835926,,,,,,,,,,,
3.7906408309936523,970.4253195682347,1707.7563719396148,57.64041378610894,0.0840270432977905,0.03466493824267085,1.6458787551512768,7.510185241699219e-05,1.6232269234461376,970.4253195682347,1707.7563719396148,4.924402541579557,0.04925537109375,0.05457468043176527,0.017243628060385163,0.46866958621389104,364.30190626041394,1.025,1.725,0.52631,15469.860468532228,1.0,55144.409751918836,-2.0465246535512662,0.10734097847811791,55.40400457097047,55144.409751918836,-2.0465246535512662,0.10734097847811791,55.40400457097047,-2.958984375,-2.970703125,0.005702972412109375,0.024871826171875,0.974609375,-0.02239990234375,-0.004192352294921875,0.04925537109375,11.0,0.0,0.0
3.7949771881103516,970.422228502996,1707.770829882488,57.63708759240073,0.08471413079974194,0.03246553471386,1.6462413081615892,8.726119995117188e-05,1.6256185967450612,970.4253195682347,1707.7563719396148,4.924402541579557,0.04925537109375,0.05457777149700405,0.017229170117512013,0.4686729124075992,364.32267901775464,1.025,1.725,0.52631,15469.860468532228,1.0,55406.26728787877,-2.1278316571301836,-0.25843099375558337,72.21676644866727,55406.26728787877,-2.1278316571301836,-0.25843099375558337,72.21676644866727,,,,,,,,,,,
3.797065019607544,970.4431988539981,1707.7012579398627,57.62555471000035,0.08499105039155877,0.03328174368820411,1.6442507976733964,7.534027099609375e-05,1.626728512157917,970.4253195682347,1707.7563719396148,4.924402541579557,0.04925537109375,0.05455680114600193,0.017298742060137328,0.4686844452899996,364.20863116770465,1.025,1.725,0.52631,15469.860468532228,1.0,55486.476373706115,-1.926693480439877,0.592728894756038,-19.193505233865764,55486.476373706115,-1.926693480439877,0.592728894756038,-19.193505233865764,,,,,,,,,,,
3.7999749183654785,970.4342497713823,1707.7430859214714,57.66373423418847,0.08583899784910257,0.03079426423341543,1.6439609807308346,7.700920104980469e-05,1.6282671229289583,970.4342497713823,1707.7430859214714,5.531931271785078,0.0616455078125,0.05456575022861773,0.017256914078528553,0.4686462657658115,364.1920258800645,1.025,1.725,0.52631,15469.860468532228,1.0,55179.12384336832,-2.143418553176181,-0.41656762681164883,54.69489603176675,55179.12384336832,-2.143418553176181,-0.41656762681164883,54.69489603176675,2.7109375,1.8232421875,0.013336181640625,0.021942138671875,1.0068359375,0.0216064453125,-0.0036907196044921875,0.0616455078125,11.0,0.0,0.0
3.804827928543091,970.4160045227999,1707.7700149526534,57.637888281912176,0.08608201413575245,0.03339903544758801,1.645831354086885,8.630752563476562e-05,1.630455651867373,970.4342497713823,1707.7430859214714,5.531931271785078,0.0616455078125,0.054583995477200116,0.017229985047346644,0.46867211171808776,364.2991903794799,1.025,1.725,0.52631,15469.860468532228,1.0,55485.97279130119,-2.160111029460532,-0.1972425543143022,98.4673301823821,55485.97279130119,-2.160111029460532,-0.1972425543143022,98.4673301823821,,,,,,,,,,,
3.8069193363189697,970.4021841006198,1707.7840939031507,57.68414748668458,0.08555325526438082,0.03165226423370785,1.6454629678078807,7.390975952148438e-05,1.6313449985981763,970.4342497713823,1707.7430859214714,5.531931271785078,0.0616455078125,0.05459781589938018,0.017215906096849268,0.46862585251331534,364.2780834004624,1.025,1.725,0.52631,15469.860468532228,1.0,55013.71200175191,-2.2079538616869088,-0.18474012327592287,48.94436994034663,55013.71200175191,-2.2079538616869088,-0.18474012327592287,48.94436994034663,,,,,,,,,,,
3.8097987174987793,970.4193652304714,1707.8007530911916,57.624758501057784,0.08668056387721157,0.03642291740019079,1.646353205468976,7.390975952148438e-05,1.6325508250345195,970.4193652304714,1707.8007530911916,6.278723970348898,0.06298828125,0.05458063476952862,0.01719924690880839,0.46868524149894214,364.3290902612068,1.025,1.725,0.52631,15469.860468532228,1.0,55727.32866233296,-1.9331540640556752,-0.11298038166452079,90.38903634762909,55727.32866233296,-1.9331540640556752,-0.11298038166452079,90.38903634762909,-0.26513671875,0.318359375,-0.0198516845703125,0.0406494140625,1.0244140625,0.01323699951171875,-0.0016031265258789062,0.06298828125,13.0,0.0,0.0
3.814462184906006,970.4378465924485,1707.7733815000233,57.58811097354575,0.08785959847411082,0.038458409346086735,1.6456814180724415,7.939338684082031e-05,1.6342145559315073,970.4193652304714,1707.8007530911916,6.278723970348898,0.06298828125,0.05456215340755148,0.017226618499976667,0.4687218890264542,364.29059967865527,1.025,1.725,0.52631,15469.860468532228,1.0,55529.37444059569,-1.9733745122546875,0.17690102534605961,51.716770876140636,55529.37444059569,-1.9733745122546875,0.17690102534605961,51.716770876140636,,,,,,,,,,,
3.816596508026123,970.3973940272837,1707.8046209835297,57.639956547003194,0.08988044918459205,0.03208531673646402,1.6461170828155722,7.891654968261719e-05,1.634919156932884,970.4193652304714,1707.8007530911916,6.278723970348898,0.06298828125,0.05460260597271633,0.01719537901647027,0.4686700434529968,364.3155614297193,1.025,1.725,0.52631,15469.860468532228,1.0,54976.59901217051,-2.4410940017764853,-0.2739576917039921,82.53300871796058,54976.59901217051,-2.4410940017764853,-0.2739576917039921,82.53300871796058,,,,,,,,,,,
3.8198750019073486,970.4316752696201,1707.7638324944583,57.66671253313809,0.0843416261388123,0.0330226426030196,1.6452872675650283,7.414817810058594e-05,1.6359819540552583,970.4316752696201,1707.7638324944583,6.95083325916458,0.042449951171875,0.05456832473037991,0.017236167505541744,0.46864328746686185,364.26801651808756,1.025,1.725,0.52631,15469.860468532228,1.0,55256.17524189388,-1.8364478153398236,0.37465910740450253,43.08326173120564,55256.17524189388,-1.8364478153398236,0.37465910740450253,43.08326173120564,0.06585693359375,-2.712890625,-0.005764007568359375,0.0308685302734375,0.97802734375,-0.0323486328125,-0.0020198822021484375,0.042449951171875,13.0,0.0,0.0
3.8242006301879883,970.4425569287267,1707.7738618931223,57.68219556505554,0.08556150457502193,0.02985876084259167,1.6445315664734332,7.724761962890625e-05,1.6371646460862066,970.4316752696201,1707.7638324944583,6.95083325916458,0.042449951171875,0.05455744307127327,0.01722613810687767,0.46862780443494445,364.2247180349657,1.025,1.725,0.52631,15469.860468532228,1.0,55327.37233206219,-1.9689337281326529,0.08745832031699247,47.91310148811197,55327.37233206219,-1.9689337281326529,0.08745832031699247,47.91310148811197,,,,,,,,,,,
3.8262903690338135,970.4195997563759,1707.750130855565,57.6907250037123,0.08615696474580023,0.030832556770880842,1.6450007993551636,7.557868957519531e-05,1.6377032540203602,970.4316752696201,1707.7638324944583,6.95083325916458,0.042449951171875,0.05458040024362413,0.017249869144435024,0.46861927499628764,364.2516030986976,1.025,1.725,0.52631,15469.860468532228,1.0,55323.38963634266,-2.27677382293216,0.3936633049640848,83.08958782185967,55323.38963634266,-2.27677382293216,0.3936633049640848,83.08958782185967,,,,,,,,,,,
3.828425168991089,970.4514236439868,1707.7651232765263,57.645678418056775,0.08560386113449457,0.03255351897398939,1.6458762423552147,0.0001289844512939453,1.6382268271670133,970.4316752696201,1707.7638324944583,6.95083325916458,0.042449951171875,0.0545485763560132,0.01723487672347369,0.46866432158194316,364.3017622878048,1.025,1.725,0.52631,15469.860468532228,1.0,55741.29435505889,-1.6888304914377472,0.05431334515912373,99.14406609237523,55741.29435505889,-1.6888304914377472,0.05431334515912373,99.14406609237523,,,,,,,,,,,
3.8336641788482666,970.4805068434137,1707.7421847160224,57.59744375499168,0.08714565727558059,0.03246535634571657,1.6446424979477101,0.0002834796905517578,1.6393911663794556,970.4805068434137,1707.7421847160224,7.5557140837704955,0.0015773773193359375,0.05451949315658635,0.017257815283977608,0.4687125562450083,364.2310739402569,1.025,1.725,0.52631,15469.860468532228,1.0,55545.447476694106,-1.8975216835011528,0.3102398680952899,43.65089665017697,55545.447476694106,-1.8975216835011528,0.3102398680952899,43.65089665017697,-5.3984375,-6.84765625,-0.0083465576171875,0.05291748046875,0.9892578125,0.00726318359375,-0.0029659271240234375,0.0015773773193359375,13.0,0.0,0.0
3.8359017372131348,970.4399149084497,1707.7474258042,57.62694474721372,0.08589077518836256,0.03428935496896982,1.646022906179349,7.915496826171875e-05,1.6397952302685457,970.4805068434137,1707.7421847160224,7.5557140837704955,0.0015773773193359375,0.05456008509155026,0.01725257419579998,0.46868305525278625,364.31016550593495,1.025,1.725,0.52631,15469.860468532228,1.0,55155.71400610558,-2.420067170721304,0.15409290129942382,121.44329580911295,55155.71400610558,-2.420067170721304,0.15409290129942382,121.44329580911295,,,,,,,,,,,
3.8387928009033203,970.4604631688005,1707.7294236687412,57.60790356034585,0.08592223997743066,0.03401962183342981,1.6454398639157868,7.510185241699219e-05,1.640335349500187,970.4604631688005,1707.7294236687412,8.100128425065705,-0.0101318359375,0.054539536831199484,0.01727057633125878,0.4687020964396541,364.2767596449551,1.025,1.725,0.52631,15469.860468532228,1.0,55498.93641724897,-1.860068510042104,0.39375298140472204,47.54885857379014,55498.93641724897,-1.860068510042104,0.39375298140472204,47.54885857379014,-8.5625,-13.8359375,-0.0234222412109375,0.0102081298828125,0.96630859375,-0.036651611328125,-0.0028858184814453125,-0.0101318359375,13.0,0.0,0.0
3.8430898189544678,970.4621242021725,1707.7404593490169,57.66857223589525,0.08570213086087196,0.032697524693835,1.6462747818560246,7.939338684082031e-05,1.6410035394081872,970.4604631688005,1707.7294236687412,8.100128425065705,-0.0101318359375,0.0545378757978275,0.017259540650983125,0.4686414277641047,364.3245969191705,1.025,1.725,0.52631,15469.860468532228,1.0,55143.344078542104,-1.9805049741338874,0.21875112100638847,82.06898269863912,55143.344078542104,-1.9805049741338874,0.21875112100638847,82.06898269863912,,,,,,,,,,,
3.845191717147827,970.43595618492,1707.7799696483485,57.618615122798964,0.08685872080445624,0.03414337421623216,1.6456185517722415,7.295608520507812e-05,1.6413087380895166,970.4604631688005,1707.7294236687412,8.100128425065705,-0.0101318359375,0.054564043815080024,0.01722003035165153,0.46869138487720097,364.2869977049802,1.025,1.725,0.52631,15469.860468532228,1.0,55795.6906094549,-2.228398893755108,-0.13017721010672434,37.660022827125786,55795.6906094549,-2.228398893755108,-0.13017721010672434,37.660022827125786,,,,,,,,,,,
3.847262144088745,970.439593658628,1707.7509988911986,57.61640416337874,0.08724119264539403,0.03401116555336276,1.6457375919253,6.747245788574219e-05,1.6415918089351114,970.4604631688005,1707.7294236687412,8.100128425065705,-0.0101318359375,0.05456040634137196,0.017249001108801395,0.46869359583662124,364.29381820334305,1.025,1.725,0.52631,15469.860468532228,1.0,55411.11151609155,-1.9707377791463125,0.6090196138967435,69.396908555725,55411.11151609155,-1.9707377791463125,0.6090196138967435,69.396908555725,,,,,,,,,,,
3.850385904312134,970.4076592857456,1707.7950637467695,57.61442373944813,0.08639803199412774,0.034982531644666554,1.6467249751765791,7.319450378417969e-05,1.6420030613469332,970.4076592857456,1707.7950637467695,8.790049769950906,-0.0731201171875,0.05459234071425442,0.017204936253230472,0.4686955762605518,364.35039109640326,1.025,1.725,0.52631,15469.860468532228,1.0,55404.21496098945,-2.1768397161889093,0.003651877292947525,91.35013825550584,55404.21496098945,-2.1768397161889093,0.003651877292947525,91.35013825550584,-7.78515625,-28.5,-0.05841064453125,0.00383758544921875,0.99853515625,0.002277374267578125,-0.006305694580078125,-0.0731201171875,15.0,0.0,0.0
3.8556785583496094,970.4560824291569,1707.7722321683354,57.63200416858997,0.08602308693571285,0.0345201516409692,1.6460934757817383,0.0005249977111816406,1.6425840026574812,970.4076592857456,1707.7950637467695,8.790049769950906,-0.0731201171875,0.054543917570843065,0.01722776783166455,0.46867799583141,364.3142088463138,1.025,1.725,0.52631,15469.860468532228,1.0,55332.95650812401,-1.7845795689885462,0.43900694262839646,54.27097515256497,55332.95650812401,-1.7845795689885462,0.43900694262839646,54.27097515256497,,,,,,,,,,,
3.8578293323516846,970.4139995658473,1707.7385504526567,57.653899594055744,0.08579322556399123,0.03187465667530233,1.6448447303365383,8.440017700195312e-05,1.6427992309055925,970.4076592857456,1707.7950637467695,8.790049769950906,-0.0731201171875,0.054586000434152654,0.017261449547343318,0.4686561004059442,364.24266100261764,1.025,1.725,0.52631,15469.860468532228,1.0,55220.445654767944,-2.4319221888124063,0.6552695843968646,13.028254311875806,55220.445654767944,-2.4319221888124063,0.6552695843968646,13.028254311875806,,,,,,,,,,,
3.863464593887329,970.435227105209,1707.7529833932215,57.606401230777344,0.08563778748224907,0.03532272933727051,1.6447523779986297,0.0003204345703125,1.6433188647345214,970.435227105209,1707.7529833932215,9.411032098119811,-0.2320556640625,0.05456477289479096,0.017247016606778517,0.4687035987692226,364.23736960342734,1.025,1.725,0.52631,15469.860468532228,1.0,55531.34575919122,-1.8910582478324065,0.30699204076959463,62.18943181153376,55531.34575919122,-1.8910582478324065,0.30699204076959463,62.18943181153376,-31.859375,-28.75,0.011322021484375,-0.00811004638671875,0.95458984375,-0.030853271484375,-0.0011272430419921875,-0.2320556640625,15.0,0.0,0.0
3.8657114505767822,970.430847887762,1707.7516277779596,57.67937303470709,0.08554634522768095,0.03291051972449352,1.6464320995076223,8.058547973632812e-05,1.643483712792037,970.435227105209,1707.7529833932215,9.411032098119811,-0.2320556640625,0.05456915211223804,0.017248372222040415,0.46863062696529284,364.33361055664994,1.025,1.725,0.52631,15469.860468532228,1.0,54798.97760730019,-2.0175613725471826,0.3791203919209513,133.84178029132215,54798.97760730019,-2.0175613725471826,0.3791203919209513,133.84178029132215,,,,,,,,,,,
3.868692398071289,970.4193221115323,1707.788520439019,57.632887537978306,0.08668556304689598,0.03391643601331037,1.6465937124219854,7.343292236328125e-05,1.6437073267482847,970.4193221115323,1707.788520439019,9.96991300735327,-0.436767578125,0.054580677888467675,0.017211479560980934,0.46867711246202165,364.34287029455777,1.025,1.725,0.52631,15469.860468532228,1.0,55647.05005740604,-2.031476091949854,0.11101059737945923,69.6243800813371,55647.05005740604,-2.031476091949854,0.11101059737945923,69.6243800813371,-20.84375,-43.90625,-0.0308074951171875,-0.047882080078125,1.0634765625,0.03607177734375,-0.003086090087890625,-0.436767578125,15.0,0.0,0.0
3.872919797897339,970.4746191588399,1707.7849535764922,57.58179116939864,0.08726460121442364,0.037583455343200046,1.64633764527482,7.915496826171875e-05,1.6439715245916018,970.4193221115323,1707.788520439019,9.96991300735327,-0.436767578125,0.054525380841160084,0.017215046423507827,0.46872820883060135,364.3281987277532,1.025,1.725,0.52631,15469.860468532228,1.0,55602.49078238024,-1.6758956947789767,0.42383335861822496,59.568522014854445,55602.49078238024,-1.6758956947789767,0.42383335861822496,59.568522014854445,,,,,,,,,,,
3.875034809112549,970.460919356789,1707.6955208389977,57.635675924210126,0.08414519676757032,0.032559080029878326,1.6446916721165377,7.390975952148438e-05,1.6440953794482625,970.4193221115323,1707.788520439019,9.96991300735327,-0.436767578125,0.05453908064321104,0.017304479161002292,0.4686743240757898,364.23389141259184,1.025,1.725,0.52631,15469.860468532228,1.0,54962.26267743606,-2.1728572946740994,1.3006189305647167,-3.5649188649119026,54962.26267743606,-2.1728572946740994,1.3006189305647167,-3.5649188649119026,,,,,,,,,,,
3.8770973682403564,970.4670194432579,1707.7631666331674,57.59221235645888,0.08828256108791957,0.032533726741355094,1.6459537758331202,7.128715515136719e-05,1.6442091630529883,970.4193221115323,1707.788520439019,9.96991300735327,-0.436767578125,0.05453298055674213,0.01723683336683257,0.46871778764354105,364.3062046288598,1.025,1.725,0.52631,15469.860468532228,1.0,55750.63256826256,-1.847361398143592,-0.31074685088734716,117.23166926725311,55750.63256826256,-1.847361398143592,-0.31074685088734716,117.23166926725311,,,,,,,,,,,
3.884063482284546,970.4381127253756,1707.7374106274585,57.634631734236706,0.08666084877677396,0.034194199623103126,1.6447325361809157,8.0108642578125e-05,1.6445418428414469,970.4193221115323,1707.788520439019,9.96991300735327,-0.436767578125,0.05456188727462438,0.017262589372541468,0.4686753682657633,364.2362327510144,1.025,1.725,0.52631,15469.860468532228,1.0,55289.19016854331,-2.058327691690878,0.4775467213699544,48.482251034570254,55289.19016854331,-2.058327691690878,0.4775467213699544,48.482251034570254,,,,,,,,,,,
3.886300802230835,970.4568731093176,1707.7492818856442,57.627270880454624,0.08651905354647904,0.03486883360066371,1.6454318094949334,0.00024008750915527344,1.644631874966948,970.4193221115323,1707.788520439019,9.96991300735327,-0.436767578125,0.0545431268906824,0.017250718114355777,0.46868272911954534,364.2762981606338,1.025,1.725,0.52631,15469.860468532228,1.0,55446.28284297917,-1.7697591999689786,0.31114652089742223,91.03191366202492,55446.28284297917,-1.7697591999689786,0.31114652089742223,91.03191366202492,,,,,,,,,,,
3.8890738487243652,970.436320977745,1707.7873609509006,57.62947263442145,0.08684090256140602,0.03281503972996868,1.6451221172677348,7.343292236328125e-05,1.6447373177945777,970.436320977745,1707.7873609509006,10.473166438998941,-0.79541015625,0.05456367902225497,0.01721263904909938,0.46868052736557847,364.2585541030673,1.025,1.725,0.52631,15469.860468532228,1.0,55379.78116452321,-2.091488923439691,0.12079292903171113,54.71355024224041,55379.78116452321,-2.091488923439691,0.12079292903171113,54.71355024224041,35.84375,-16.25,0.0107879638671875,-0.037933349609375,1.30859375,0.294189453125,0.01334381103515625,-0.79541015625,15.0,0.0,0.0
3.893641948699951,970.4156383092435,1707.7933133032825,57.65380918705725,0.08697117677033732,0.03165252128807934,1.6445254977437798,7.486343383789062e-05,1.6448739497602034,970.436320977745,1707.7873609509006,10.473166438998941,-0.79541015625,0.05458436169075651,0.0172066866967175,0.4686561908129427,364.22437032236957,1.025,1.725,0.52631,15469.860468532228,1.0,55298.730638314155,-2.0572226230951225,0.3855000692555534,51.81591989792339,55298.730638314155,-2.0572226230951225,0.3855000692555534,51.81591989792339,,,,,,,,,,,
3.895707607269287,970.4046447513557,1707.8167237985142,57.63818027368274,0.08830874061346343,0.0348594350610734,1.646092774341646,7.128715515136719e-05,1.6449277975927112,970.436320977745,1707.7873609509006,10.473166438998941,-0.79541015625,0.0545953552486443,0.017183276201485798,0.4686718197263172,364.3141686567569,1.025,1.725,0.52631,15469.860468532228,1.0,55520.98828654121,-2.054642698417035,0.17262141648113272,130.00344279152725,55520.98828654121,-2.054642698417035,0.17262141648113272,130.00344279152725,,,,,,,,,,,
3.898641347885132,970.4088218112953,1707.7347377763326,57.65467695119513,0.08399781873180841,0.035225406223643965,1.644188924946129,7.081031799316406e-05,1.6449973835117162,970.4088218112953,1707.7347377763326,10.726187413810685,-0.90625,0.0545911781887047,0.017265262223667376,0.4686553230488048,364.2050861215653,1.025,1.725,0.52631,15469.860468532228,1.0,55301.3535884384,-1.970262264812149,1.0157218442814648,9.589582250827299,55301.3535884384,-1.970262264812149,1.0157218442814648,9.589582250827299,37.5,-41.40625,-0.033416748046875,-0.0095977783203125,1.2431640625,0.254150390625,0.0391845703125,-0.90625,13.0,0.0,0.0
3.9029290676116943,970.4210197911492,1707.7425817989802,57.62076686903246,0.08612415418109332,0.03285846241845372,1.6450488599729487,8.058547973632812e-05,1.6450736974443725,970.4088218112953,1707.7347377763326,10.726187413810685,-0.90625,0.0545789802088508,0.017257418201019847,0.46868923313096744,364.25435676925747,1.025,1.725,0.52631,15469.860468532228,1.0,55529.84580064085,-1.8887009861653752,0.4024434652620495,81.54392529047526,55529.84580064085,-1.8887009861653752,0.4024434652620495,81.54392529047526,,,,,,,,,,,
3.905094623565674,970.4185929168918,1707.7787033600057,57.62213847454531,0.08870630793588549,0.032269800178690744,1.645850496945556,7.2479248046875e-05,1.645105391419543,970.4088218112953,1707.7347377763326,10.726187413810685,-0.90625,0.05458140708310816,0.017221296639994308,0.46868786152545466,364.30028718448955,1.025,1.725,0.52631,15469.860468532228,1.0,55380.88248336415,-1.951387953313462,0.07783434643188791,96.39584142746357,55380.88248336415,-1.951387953313462,0.07783434643188791,96.39584142746357,,,,,,,,,,,
3.907200813293457,970.444586452604,1707.694167488115,57.64080812985665,0.08481013562876695,0.03314561660171329,1.6445792346175654,8.916854858398438e-05,1.6451318433392947,970.4088218112953,1707.7347377763326,10.726187413810685,-0.90625,0.05455541354739603,0.017305832511885,0.46866919187014333,364.22744921844173,1.025,1.725,0.52631,15469.860468532228,1.0,55243.22705517428,-1.7512357352327121,1.3315583219334155,11.753880253932323,55243.22705517428,-1.7512357352327121,1.3315583219334155,11.753880253932323,,,,,,,,,,,
3.9127120971679688,970.4654231036875,1707.751280765147,57.613251132310566,0.08757718758755399,0.03510093900393608,1.6448112799374572,8.511543273925781e-05,1.6451835863535185,970.4654231036875,1707.751280765147,10.954374238808018,-1.0380859375,0.0545345768963125,0.01724871923485307,0.4686967488676894,364.2407444359273,1.025,1.725,0.52631,15469.860468532228,1.0,55474.22211193837,-1.854775389571688,0.23623091563266832,67.14203508347896,55474.22211193837,-1.854775389571688,0.23623091563266832,67.14203508347896,38.71875,-53.34375,-0.01218414306640625,0.06427001953125,1.2783203125,0.26123046875,0.0640869140625,-1.0380859375,13.0,0.0,0.0
3.9149417877197266,970.4395355777925,1707.7861818795557,57.64356820803286,0.08789028346883329,0.03142661151897706,1.6453804754187942,7.200241088867188e-05,1.6451961876837182,970.4654231036875,1707.751280765147,10.954374238808018,-1.0380859375,0.05456046442220747,0.01721381812044433,0.46866643179196704,364.2733569347258,1.025,1.725,0.52631,15469.860468532228,1.0,55148.124556074974,-2.190185040099873,0.07301151686806029,87.33969043962026,55148.124556074974,-2.190185040099873,0.07301151686806029,87.33969043962026,,,,,,,,,,,
3.917056083679199,970.4428159920351,1707.7563259128344,57.611676049728864,0.08655344689087813,0.033996535919678245,1.6440592397354954,7.295608520507812e-05,1.6452055336971116,970.4654231036875,1707.751280765147,10.954374238808018,-1.0380859375,0.05455718400796491,0.017243674087165574,0.46869832395027106,364.1976557063307,1.025,1.725,0.52631,15469.860468532228,1.0,55652.280500024004,-1.9394410417671786,0.7659571310196368,8.676570737565271,55652.280500024004,-1.9394410417671786,0.7659571310196368,8.676570737565271,,,,,,,,,,,
3.920212984085083,970.4456242950063,1707.7292824382928,57.64074534940774,0.08622442902557667,0.03381884387926632,1.6445957270414477,7.724761962890625e-05,1.6452141599790777,970.4456242950063,1707.7292824382928,11.159540288852948,-1.248046875,0.05455437570499373,0.017270717561707217,0.4686692546505922,364.22839416472414,1.025,1.725,0.52631,15469.860468532228,1.0,55241.64315565665,-1.9445993772702126,0.6369297324762375,77.44168711140277,55241.64315565665,-1.9445993772702126,0.6369297324762375,77.44168711140277,28.4375,-61.28125,0.006206512451171875,-0.06402587890625,1.3330078125,0.345947265625,0.0882568359375,-1.248046875,13.0,0.0,0.0
3.927046060562134,970.4774701161717,1707.767817746483,57.56488662765824,0.08721408216295982,0.035926218841006295,1.6461295078289508,7.843971252441406e-05,1.6452140609977857,970.4456242950063,1707.7292824382928,11.159540288852948,-1.248046875,0.05452252988382827,0.017232182253517067,0.46874511337234176,364.3162733305463,1.025,1.725,0.52631,15469.860468532228,1.0,55585.09452425821,-1.8357487842087796,0.3428640434791351,84.40653123551603,55585.09452425821,-1.8357487842087796,0.3428640434791351,84.40653123551603,,,,,,,,,,,
3.929978847503662,970.422585462395,1707.7938202382854,57.64162127602212,0.08707250380309596,0.03268872311445021,1.6461230015843644,7.104873657226562e-05,1.6452093945020596,970.422585462395,1707.7938202382854,11.344650673333039,-1.486328125,0.05457741453760502,0.017206179761714565,0.4686683787239778,364.31590055019103,1.025,1.725,0.52631,15469.860468532228,1.0,54966.76659309871,-2.3246403528761337,0.24688659252347236,64.55516466288863,54966.76659309871,-2.3246403528761337,0.24688659252347236,64.55516466288863,24.328125,-51.03125,-0.0193328857421875,0.0007610321044921875,1.3671875,0.367431640625,0.12103271484375,-1.486328125,13.0,0.0,0.0
3.9341988563537598,970.4229833130901,1707.7492772393466,57.628131085770065,0.08911882562462692,0.03166019140980361,1.6444605349370294,7.748603820800781e-05,1.645204343193332,970.422585462395,1707.7938202382854,11.344650673333039,-1.486328125,0.05457701668690993,0.01725072276065339,0.46868186891422986,364.22064822771745,1.025,1.725,0.52631,15469.860468532228,1.0,55448.53955562186,-1.9648669357890889,0.6967186713423837,28.482281343328047,55448.53955562186,-1.9648669357890889,0.6967186713423837,28.482281343328047,,,,,,,,,,,
3.936258554458618,970.4618291362673,1707.7139575055523,57.6097726535478,0.08733699530076425,0.033369962597674746,1.6451307893674303,6.771087646484375e-05,1.6452026356825353,970.422585462395,1707.7938202382854,11.344650673333039,-1.486328125,0.054538170863732714,0.017286042494447658,0.46870022734645217,364.25905097777934,1.025,1.725,0.52631,15469.860468532228,1.0,55542.83227269841,-1.5665440397362733,0.8653497283999366,91.95374936620058,55542.83227269841,-1.5665440397362733,0.8653497283999366,91.95374936620058,,,,,,,,,,,
3.9431939125061035,970.4151607047006,1707.7597228947088,57.650772039304464,0.0851274667366783,0.033346441226102794,1.6457860861517042,7.176399230957031e-05,1.6451998170540783,970.422585462395,1707.7938202382854,11.344650673333039,-1.486328125,0.05458483929529939,0.01724027710529117,0.4686592279606955,364.29659671784674,1.025,1.725,0.52631,15469.860468532228,1.0,55291.69295515861,-2.0848152887167366,0.30665293668565274,72.56443404050452,55291.69295515861,-2.0848152887167366,0.30665293668565274,72.56443404050452,,,,,,,,,,,
3.945417642593384,970.4444258265751,1707.7497078285628,57.62166424998519,0.08515238785059516,0.03500088796561488,1.644724682705569,0.00023221969604492188,1.645199994910976,970.422585462395,1707.7938202382854,11.344650673333039,-1.486328125,0.05455557417342493,0.017250292171437195,0.46868833575001473,364.23578278002253,1.025,1.725,0.52631,15469.860468532228,1.0,55613.03683139668,-1.6713021846764902,0.578858015716962,22.471139681690858,55613.03683139668,-1.6713021846764902,0.578858015716962,22.471139681690858,,,,,,,,,,,
3.9482288360595703,970.2268295986864,1707.887398366537,57.677972231723025,0.0915766097741382,0.02046960090297127,1.639924564323557,7.724761962890625e-05,1.6451994886065657,970.2268295986864,1707.887398366537,11.612991474279855,-2.12109375,0.05477317040131356,0.0171126016334631,0.46863202776827695,363.9607562555701,1.025,1.725,0.52631,15469.860468532228,1.0,55083.1735582408,-3.4802391808939186,-0.6765207436350951,-80.71801131912795,55083.1735582408,-3.4802391808939186,-0.6765207436350951,-80.71801131912795,19.671875,-31.015625,0.04217529296875,0.0721435546875,1.455078125,0.463134765625,0.1708984375,-2.12109375,14.0,7.0,0.0
3.9527101516723633,970.4481512213969,1707.548662281545,57.878418071803466,0.1033709016803863,0.04718423054857054,1.6512043701319135,7.605552673339844e-05,1.6451929053222731,970.2268295986864,1707.887398366537,11.612991474279855,-2.12109375,0.05455184877860313,0.017451337718455077,0.46843158192819645,364.6070415221161,1.025,1.725,0.52631,15469.860468532228,1.0,54605.418301498714,-0.9739029773917798,2.2352554191231415,291.8310455926067,54605.418301498714,-0.9739029773917798,2.2352554191231415,291.8310455926067,,,,,,,,,,,
3.9552175998687744,970.487783088124,1707.7495036869502,57.58401316211608,0.089072340634703,0.03112569623626781,1.6472793049474388,0.0002932548522949219,1.6451872507980299,970.2268295986864,1707.887398366537,11.612991474279855,-2.12109375,0.05451221691187595,0.01725049631304978,0.46872598683788386,364.38215185273197,1.025,1.725,0.52631,15469.860468532228,1.0,56914.91818728639,-1.5870502172528793,-0.841333411630565,-36.966674069720625,56914.91818728639,-1.5870502172528793,-0.841333411630565,-36.966674069720625,,,,,,,,,,,
3.95815372467041,970.6863120222956,1707.6030314933173,57.44265298092965,0.09437792952729268,0.026029507652918917,1.6510458463175597,9.560585021972656e-05,1.6451882056596763,970.2268295986864,1707.887398366537,11.612991474279855,-2.12109375,0.054313687977704375,0.017396968506682698,0.4688673470190703,364.59795877660133,1.025,1.725,0.52631,15469.860468532228,1.0,56509.61726620271,-0.06694621906422293,2.0783349090101435,218.6155588803066,56509.61726620271,-0.06694621906422293,2.0783349090101435,218.6155588803066,,,,,,,,,,,
3.9632084369659424,970.375212778317,1707.6632781219894,57.50808165875078,0.09001457306946477,0.03226873960510085,1.6369555956544435,0.00036334991455078125,1.6452130884225258,970.375212778317,1707.6632781219894,11.854704896007414,-2.482421875,0.05462478722168305,0.017336721878010622,0.4688019183412492,363.79064688132337,1.025,1.725,0.52631,15469.860468532228,1.0,55217.346328292544,-3.085100000374868,0.14978996586064025,-149.7280811866372,55217.346328292544,-3.085100000374868,0.14978996586064025,-149.7280811866372,29.140625,-32.03125,0.0008769035339355469,-0.104248046875,1.4501953125,0.4462890625,0.22265625,-2.482421875,14.0,-4.0,-5.0
3.9668617248535156,970.5046170138824,1707.7957341680135,57.54230400445516,0.08838788004295998,0.03925723192816454,1.6477884583615399,8.606910705566406e-05,1.6452302108339554,970.375212778317,1707.6632781219894,11.854704896007414,-2.482421875,0.05449538298611765,0.017204265831986504,0.4687676959955448,364.4113241944846,1.025,1.725,0.52631,15469.860468532228,1.0,55183.93493043458,-0.8903147214117528,-0.4816209106882848,393.0271497635269,55183.93493043458,-0.8903147214117528,-0.4816209106882848,360,,,,,,,,,,,
3.969888687133789,970.2184943696429,1707.750001030337,57.642365827059216,0.08524377595085961,0.040528509108494586,1.6418629695796476,7.772445678710938e-05,1.6452433221966862,970.2184943696429,1707.750001030337,12.070827201026173,-2.81640625,0.05478150563035706,0.017249998969663012,0.4686676341729407,364.0718186957301,1.025,1.725,0.52631,15469.860468532228,1.0,54876.504272569546,-3.9453742634534716,0.6219444547935848,-100.5437779154563,54876.504272569546,-3.9453742634534716,0.6219444547935848,-100.5437779154563,15.6953125,-19.171875,-0.01294708251953125,-0.0175323486328125,1.396484375,0.426513671875,0.26708984375,-2.81640625,14.0,0.0,0.0
3.9744162559509277,970.5759056487718,1707.804819543361,57.585619669454914,0.09506777916056429,0.03792524609230164,1.6459958813051898,8.177757263183594e-05,1.6452482412090659,970.2184943696429,1707.750001030337,12.070827201026173,-2.81640625,0.05442409435122818,0.017195180456639036,0.46872438033054503,364.3086170947038,1.025,1.725,0.52631,15469.860468532228,1.0,55604.16828729055,-0.16722425637610394,0.31868116931081264,145.32510237513446,55604.16828729055,-0.16722425637610394,0.31868116931081264,145.32510237513446,,,,,,,,,,,
3.97652268409729,970.6758435103932,1707.6099833530748,57.669780468265046,0.08746481292226237,0.05649551634788966,1.6324675161423776,7.581710815429688e-05,1.6452438743422315,970.2184943696429,1707.750001030337,12.070827201026173,-2.81640625,0.05432415648960682,0.017390016646925233,0.4686402195317349,363.53349886716285,1.025,1.725,0.52631,15469.860468532228,1.0,54717.642264377566,-1.0617697270043325,2.5495258082759764,-499.9652257318411,54717.642264377566,-1.0617697270043325,2.5495258082759764,-360,,,,,,,,,,,
3.9785878658294678,970.6543999486759,1707.5012769483837,57.51264948579034,0.0932655950610824,0.06335905696489844,1.630387881670184,7.200241088867188e-05,1.6452305550940747,970.2184943696429,1707.750001030337,12.070827201026173,-2.81640625,0.05434560005132414,0.017498723051616254,0.4687973505142096,363.41434458897623,1.025,1.725,0.52631,15469.860468532228,1.0,56702.123411175875,-2.2512928935034506,1.6041073630676568,-35.67100390791991,56702.123411175875,-2.2512928935034506,1.6041073630676568,-35.67100390791991,,,,,,,,,,,
3.984130620956421,971.0896376429763,1707.4954006191058,57.7818683209218,0.08092744696657482,0.07186678392586143,1.63238740656946,8.130073547363281e-05,1.6450885021148156,971.0896376429763,1707.4954006191058,12.268004846192703,-3.09375,0.0539103623570237,0.017504599380894204,0.46852813167907814,363.52890892673605,1.025,1.725,0.52631,15469.860468532228,1.0,54575.123779805515,-0.26529176496439155,0.6466214222593916,83.15106945149657,54575.123779805515,-0.26529176496439155,0.6466214222593916,83.15106945149657,1.708984375,-20.703125,0.005588531494140625,-0.02099609375,1.337890625,0.321044921875,0.33251953125,-3.09375,14.0,-5.0,-4.0
3.9864325523376465,970.7798106071907,1707.9759903046966,58.435055492757265,0.09321119078079165,0.04504452396340306,1.6222021615451374,7.700920104980469e-05,1.6449831834822701,971.0896376429763,1707.4954006191058,12.268004846192703,-3.09375,0.05422018939280929,0.017024009695303446,0.46787494450724265,362.9453373735357,1.025,1.725,0.52631,15469.860468532228,1.0,50311.29395912557,-4.662798245142871,-4.523711119271088,-360.171784089864,50311.29395912557,-4.662798245142871,-4.523711119271088,-360,,,,,,,,,,,
3.9885060787200928,971.281273245263,1707.9635162502143,58.97967581842401,0.07868590215905306,0.07114468698966427,1.6222213133792018,8.511543273925781e-05,1.6448466182254868,971.0896376429763,1707.4954006191058,12.268004846192703,-3.09375,0.05371872675473696,0.017036483749785704,0.46733032418157594,362.94643469279754,1.025,1.725,0.52631,15469.860468532228,1.0,50880.4670937977,3.3444899934911794,1.0556890410310704,44.99399478882943,50880.4670937977,3.3444899934911794,1.0556890410310704,44.99399478882943,,,,,,,,,,,
3.9938910007476807,971.768369281154,1708.0107496008836,59.67955774350517,0.06223860466810677,0.08794144130111244,1.6240743124205952,0.000316619873046875,1.6442770405942697,971.768369281154,1708.0107496008836,11.34358724020083,-3.546875,0.053231630718845964,0.016989250399116373,0.4666304422564948,363.0526037173112,1.025,1.725,0.52631,15469.860468532228,1.0,53170.63519297977,0.04760877840033184,0.5342701844986907,74.59151129373015,53170.63519297977,0.04760877840033184,0.5342701844986907,74.59151129373015,-27.9375,-14.5703125,-0.0224609375,-0.06402587890625,1.4521484375,0.439208984375,0.284912109375,-3.546875,3.0,20.0,20.0
3.9962825775146484,972.0699180946199,1708.4192851832538,61.04326697873066,0.08531749625949361,0.05977924301290987,1.6160818073562118,0.00025391578674316406,1.6439545363259565,971.768369281154,1708.0107496008836,11.34358724020083,-3.546875,0.05293008190538012,0.016580714816746195,0.46526673302126925,362.59466690938507,1.025,1.725,0.52631,15469.860468532228,1.0,45041.186780902084,1.326154543948219,-3.0904642807739298,-265.05649750371947,45041.186780902084,1.326154543948219,-3.0904642807739298,-265.05649750371947,,,,,,,,,,,
3.9991023540496826,972.4939088352966,1708.8746014405463,62.72141848730786,0.07013079025286595,0.08719134535768151,1.6165105643445858,7.605552673339844e-05,1.6434502192766927,972.4939088352966,1708.8746014405463,10.510907763635487,-3.625,0.052506091164703436,0.016125398559453743,0.4635885815126921,362.61923287525565,1.025,1.725,0.52631,15469.860468532228,1.0,45543.31155954661,1.5377601511772583,-2.4930132005499703,51.81834261178969,45543.31155954661,1.5377601511772583,-2.4930132005499703,51.81834261178969,-36.40625,-15.8671875,-0.01404571533203125,-0.0960693359375,1.2939453125,0.2958984375,0.327880859375,-3.625,3.0,-1.0,6.0
4.0032947063446045,973.5740613558406,1708.8320394780287,66.09962696161567,0.03993196351826724,-0.04430192091399073,1.6273410184807124,8.153915405273438e-05,1.6426021467300158,972.4939088352966,1708.8746014405463,10.510907763635487,-3.625,0.051425938644159376,0.01616796052197128,0.46021037303838425,363.23977218746575,1.025,1.725,0.52631,15469.860468532228,1.0,41066.634692561674,3.9411529631191504,1.3157730826879832,276.99977587581924,41066.634692561674,3.9411529631191504,1.3157730826879832,276.99977587581924,,,,,,,,,,,
4.005390644073486,973.9564772824999,1709.4995311678038,68.86842590347896,0.023736101298878542,-0.018679967942144948,1.6132021810211983,7.843971252441406e-05,1.6421039798319144,972.4939088352966,1708.8746014405463,10.510907763635487,-3.625,0.05104352271750008,0.015500468832196248,0.457441574096521,362.4296764738141,1.025,1.725,0.52631,15469.860468532228,1.0,32585.18927075881,2.6959684595393223,-5.9426633310201,-544.8369626359497,32585.18927075881,2.6959684595393223,-5.9426633310201,-360,,,,,,,,,,,
4.0074546337127686,974.6554848442562,1709.9070496757279,71.64291556357182,0.011791608198826208,-0.0034403028257651426,1.6110480934699105,7.176399230957031e-05,1.6415774923287383,972.4939088352966,1708.8746014405463,10.510907763635487,-3.625,0.050344515155743806,0.015092950324272124,0.4546670844364281,362.30625634842363,1.025,1.725,0.52631,15469.860468532228,1.0,32088.593063738717,5.924737431563052,-3.0734258961073593,-55.36123915832091,32088.593063738717,5.924737431563052,-3.0734258961073593,-55.36123915832091,,,,,,,,,,,
4.012949705123901,975.302963715871,1710.3683396788686,74.67173663164492,0.01589455273127981,0.0018791972410772543,1.6000807262143275,8.130073547363281e-05,1.6399322601760085,975.302963715871,1710.3683396788686,9.764322915953404,-3.927734375,0.04969703628412901,0.014631660321131449,0.451638263368355,361.6778724923088,1.025,1.725,0.52631,15469.860468532228,1.0,45746.343108679546,0.909785179209101,-0.8831193241718446,-141.96145739900467,45746.343108679546,0.909785179209101,-0.8831193241718446,-141.96145739900467,-64.0,-18.65625,0.0207061767578125,0.01016998291015625,1.291015625,0.293212890625,0.362060546875,-3.927734375,3.0,0.0,0.0
4.015199422836304,975.9627847493083,1711.3712160010346,78.39017154897417,0.019507042247022145,-0.00580852432743035,1.5995610877516642,7.43865966796875e-05,1.6392327334053505,975.302963715871,1710.3683396788686,9.764322915953404,-3.927734375,0.0490372152506917,0.013628783998965445,0.44791982845102574,361.6480994015255,1.025,1.725,0.52631,15469.860468532228,1.0,24992.96469574897,5.79373453062988,-9.078771795964071,3.6178305173503453,24992.96469574897,5.79373453062988,-9.078771795964071,3.6178305173503453,,,,,,,,,,,
4.0172951221466064,976.8739094709655,1711.9731122352102,82.42115844517967,0.021956568082869294,-0.008617763356472392,1.6009780853698645,7.271766662597656e-05,1.6384893095650117,975.302963715871,1710.3683396788686,9.764322915953404,-3.927734375,0.048126090529034514,0.013026887764789762,0.4438888415548203,361.72928738462844,1.025,1.725,0.52631,15469.860468532228,1.0,21867.741013501447,8.243738177369968,-4.877797153807261,84.30204196469089,21867.741013501447,8.243738177369968,-4.877797153807261,84.30204196469089,,,,,,,,,,,
4.025576114654541,977.932844578035,1712.7709028632262,86.88503039316748,0.02334216901338036,0.0018931986878070886,1.590449508787988,0.00020360946655273438,1.635027702793886,975.302963715871,1710.3683396788686,9.764322915953404,-3.927734375,0.047067155421965025,0.012229097136773816,0.43942496960683247,361.12604438220666,1.025,1.725,0.52631,15469.860468532228,1.0,45385.19007570757,1.3095694609763402,-1.1375271688781297,-91.93759621117111,45385.19007570757,1.3095694609763402,-1.1375271688781297,-91.93759621117111,,,,,,,,,,,
4.027688026428223,980.09265883616,1713.0236197973961,90.08731853473267,-0.013274413293609197,0.1972718828639068,1.5843883127027274,7.271766662597656e-05,1.6340343449146386,975.302963715871,1710.3683396788686,9.764322915953404,-3.927734375,0.04490734116383999,0.011976380202603878,0.43622268146526727,360.77876342772,1.025,1.725,0.52631,15469.860468532228,1.0,28677.249184039865,21.181064984745397,-0.39456914644669033,-239.19727688721275,28677.249184039865,21.181064984745397,-0.39456914644669033,-239.19727688721275,,,,,,,,,,,
4.035473346710205,981.5517190855094,1713.895134582482,94.75685994936524,-0.046073284559118716,0.18586419326696396,1.5686170075956047,8.225440979003906e-05,1.6297408309046721,981.5517190855094,1713.895134582482,11.196361393724313,-2.400390625,0.04344828091449062,0.011104865417518112,0.4315531400506347,359.87513420766874,1.025,1.725,0.52631,15469.860468532228,1.0,44267.21157115613,2.696520252878864,-1.3130732376502268,-172.9319150711196,44267.21157115613,2.696520252878864,-1.3130732376502268,-172.9319150711196,-70.4375,3.08203125,-0.00995635986328125,-0.06439208984375,1.3564453125,0.33935546875,0.417724609375,-2.400390625,24.0,-15.0,0.0
4.038646936416626,982.9943674020302,1714.77693352789,100.0364716572457,-0.037132969677347236,0.19119136621460928,1.5641912230356647,7.843971252441406e-05,1.627785817454166,982.9943674020302,1714.77693352789,12.478015443617156,-5.4296875,0.04200563259796979,0.010223066472110076,0.4262735283427543,359.62155543135003,1.025,1.725,0.52631,15469.860468532228,1.0,25769.87480393427,8.87341390450091,-4.622376828509408,-126.18272742717164,25769.87480393427,8.87341390450091,-4.622376828509408,-126.18272742717164,-45.34375,15.1171875,0.04779052734375,0.034912109375,1.2451171875,0.262451171875,0.45849609375,-5.4296875,24.0,46.0,-20.0
4.04576849937439,984.208611409924,1716.2284658316505,106.26317360200204,-0.004375136530920454,0.18001337658112496,1.5388903395776765,0.00036835670471191406,1.6228294607358833,982.9943674020302,1714.77693352789,12.478015443617156,-5.4296875,0.040791388590076055,0.00877153416834949,0.4200468263979979,358.17192159125494,1.025,1.725,0.52631,15469.860468532228,1.0,38896.5592452743,2.657416343985,-3.397483451127741,-336.7309340186237,38896.5592452743,2.657416343985,-3.397483451127741,-336.7309340186237,,,,,,,,,,,
4.047933101654053,985.9905063754068,1717.018039779866,111.96191086675027,-0.0023949916492321463,0.17748584493877412,1.5457267555185297,7.796287536621094e-05,1.6211281635515742,982.9943674020302,1714.77693352789,12.478015443617156,-5.4296875,0.03900949362459323,0.007981960220133942,0.41434808913324966,358.5636193716618,1.025,1.725,0.52631,15469.860468532228,1.0,8556.837301658303,17.16921548489979,-6.166248662170126,253.09480664840498,10000,17.16921548489979,-6.166248662170126,253.09480664840498,,,,,,,,,,,
4.0555479526519775,987.6855484076249,1717.9911147860482,117.93616218321358,-0.002751053606359319,0.16450176794699303,1.555059197096692,0.002692699432373047,1.6136376638475503,987.6855484076249,1717.9911147860482,13.636378099102703,-4.34765625,0.03731445159237512,0.0070088852139517715,0.4083738378167864,359.0983288866429,1.025,1.725,0.52631,15469.860468532228,1.0,41653.012027077464,3.2303462122516144,-1.354244209388124,80.77614388115782,41653.012027077464,3.2303462122516144,-1.354244209388124,80.77614388115782,-34.75,29.296875,-0.0672607421875,0.006961822509765625,1.2568359375,0.256591796875,0.484619140625,-4.34765625,24.0,-9.0,20.0
4.065278768539429,989.4501538941998,1719.0656061375462,124.03618737090716,-0.020980670811085688,0.15859301131159242,1.5609582029495344,0.006595611572265625,1.6049084836609315,989.4501538941998,1719.0656061375462,14.677614915739532,-4.53515625,0.035549846105800156,0.005934393862453817,0.4022738126290928,359.4363170253337,1.025,1.725,0.52631,15469.860468532228,1.0,41886.51963010799,3.2071027944539825,-1.4887146612462072,47.89064433030311,41886.51963010799,3.2071027944539825,-1.4887146612462072,47.89064433030311,-16.875,45.59375,-0.0305633544921875,0.005786895751953125,1.173828125,0.1602783203125,0.51220703125,-4.53515625,24.0,5.0,5.0
4.076085805892944,991.1452345041163,1720.1760139015548,130.37906037165322,-0.017924607317457455,0.15291724191595316,1.5614266944468338,0.008632659912109375,1.5947558490513367,991.1452345041163,1720.1760139015548,19.11722971667647,-3.1875,0.033854765495883725,0.004823986098445175,0.39593093962834675,359.46315961086674,1.025,1.725,0.52631,15469.860468532228,1.0,43211.437475728126,2.3754420800994716,-1.2824637212255534,-4.318246201255623,43211.437475728126,2.3754420800994716,-1.2824637212255534,-4.318246201255623,12.890625,93.6875,0.0211944580078125,-0.0002613067626953125,1.0712890625,0.06732177734375,0.5634765625,-3.1875,59.0,-15.0,-4.0
4.085542440414429,992.9329093562854,1721.311896400548,137.0385454778201,-0.017555319402190954,0.1277688894007668,1.5575560197281377,0.007317781448364258,1.5870476056479936,991.1452345041163,1720.1760139015548,19.11722971667647,-3.1875,0.03206709064371455,0.003688103599452006,0.38927145452217987,359.24138628561747,1.025,1.725,0.52631,15469.860468532228,1.0,40894.37428321486,3.148962218477392,-1.8537009028837874,-47.015737214716204,40894.37428321486,3.148962218477392,-1.8537009028837874,-47.015737214716204,,,,,,,,,,,
4.095304489135742,995.039255454516,1722.0954452608125,143.61038807216124,-0.01285414984818788,0.09063754906874745,1.552042377336472,0.007733345031738281,1.5802036066117915,995.039255454516,1722.0954452608125,23.111436105198297,-2.685546875,0.029960744545483975,0.0029045547391874605,0.3826996119278387,358.92547784683063,1.025,1.725,0.52631,15469.860468532228,1.0,41548.65447236156,3.6295339098786625,-1.0998112093162045,-63.956951410236435,41548.65447236156,3.6295339098786625,-1.0998112093162045,-63.956951410236435,28.0625,132.875,-0.013031005859375,-0.08221435546875,0.98388671875,-0.006626129150390625,0.5830078125,-2.685546875,59.0,-9.0,-7.0
4.105638027191162,996.8109591211798,1723.4112109218433,149.84225544392154,-0.024024802749611066,0.08339168304774512,1.5623984678111285,0.008157968521118164,1.5743929482729364,996.8109591211798,1723.4112109218433,26.705117285886843,-4.484375,0.02818904087882015,0.0015887890781566512,0.3764677445560784,359.51883812328407,1.025,1.725,0.52631,15469.860468532228,1.0,42369.74571926221,2.7823240731712247,-2.3353682857517457,79.04716044440013,42369.74571926221,2.7823240731712247,-2.3353682857517457,79.04716044440013,29.1875,137.75,-0.028564453125,0.05804443359375,0.958984375,-0.054229736328125,0.59033203125,-4.484375,59.0,21.0,-3.0
4.11497163772583,997.8344999037854,1724.3373708690401,155.62640724240632,0.15412275246676943,-0.09252962861035058,1.585646500839972,0.007183551788330078,1.5703818003980743,997.8344999037854,1724.3373708690401,29.940129765939304,-4.81640625,0.0271655000962146,0.0006626291309598855,0.3706835927575936,360.85085229781754,1.025,1.725,0.52631,15469.860468532228,1.0,41933.11244442006,1.4387829247569979,-1.8648597450554827,226.49164369841952,41933.11244442006,1.4387829247569979,-1.8648597450554827,226.49164369841952,34.59375,144.25,-0.001346588134765625,-0.0440673828125,0.9833984375,-0.0080413818359375,0.58642578125,-4.81640625,59.0,5.0,9.0
4.125482082366943,999.0194161521873,1725.7137798093092,162.7305000445464,0.11444548219313815,-0.09468979429413263,1.5608586809707048,0.008212089538574219,1.567634669769919,999.0194161521873,1725.7137798093092,36.15176876291746,-4.7109375,0.025980583847812683,-0.0007137798093092442,0.3635794999554536,359.430614835978,1.025,1.725,0.52631,15469.860468532228,1.0,40733.955709757196,1.5365296006401885,-2.7225331636830146,-211.6125599360693,40733.955709757196,1.5365296006401885,-2.7225331636830146,-211.6125599360693,25.578125,118.5625,-0.01502227783203125,-0.04791259765625,1.021484375,0.004543304443359375,0.57666015625,-4.7109375,92.0,2.0,32.0
4.135401487350464,1000.9524918744021,1726.6834524967821,169.0313344094693,0.1000185154540692,-0.10989469825085543,1.5629915101036425,0.007778167724609375,1.5664743123693532,1000.9524918744021,1726.6834524967821,41.741535213556226,-4.37890625,0.024047508125597916,-0.001683452496782138,0.3572786655905306,359.55281694371786,1.025,1.725,0.52631,15469.860468532228,1.0,41283.93235880342,3.3701001373322463,-2.1257843853145904,11.744892676167499,41283.93235880342,3.3701001373322463,-2.1257843853145904,11.744892676167499,20.203125,81.375,0.0014619827270507812,0.00437164306640625,0.9609375,-0.0276641845703125,0.57373046875,-4.37890625,92.0,-2.0,14.0
4.14578914642334,1004.0563684603385,1727.6454300133746,176.59348145618176,-0.05232344419795576,-0.062219481649148985,1.589596192278956,0.008222103118896484,1.566126185194216,1004.0563684603385,1727.6454300133746,46.77680141957261,-4.17578125,0.02094363153966151,-0.0026454300133746072,0.3497165185438182,361.0771529476503,1.025,1.725,0.52631,15469.860468532228,1.0,39474.5122032957,5.749522203837852,-2.1146804297356905,236.61872953708556,39474.5122032957,5.749522203837852,-2.1146804297356905,236.61872953708556,-7.97265625,-9.78125,0.028289794921875,0.024505615234375,0.9970703125,-0.016387939453125,0.56884765625,-4.17578125,92.0,0.0,0.0
4.155395269393921,1004.9226927260484,1729.3300629583957,182.9278639923571,0.052102517325703486,-0.14819059462087097,1.5990678814431252,0.00748133659362793,1.566678525672304,1004.0563684603385,1727.6454300133746,46.77680141957261,-4.17578125,0.020077307273951645,-0.004330062958395729,0.3433821360076429,361.61984076161696,1.025,1.725,0.52631,15469.860468532228,1.0,40340.43778505978,1.2597930025138593,-4.024059639578036,109.81536980390273,40340.43778505978,1.2597930025138593,-4.024059639578036,109.81536980390273,,,,,,,,,,,
4.165417671203613,1006.8110350878499,1730.3338991639343,188.9838831984206,0.0602590731489128,-0.13186033764609942,1.6021310398280246,0.00790715217590332,1.5686999167142988,1006.8110350878499,1730.3338991639343,53.90731984017083,-4.0390625,0.018188964912150142,-0.0053338991639343475,0.33732611680157937,361.7953468090518,1.025,1.725,0.52631,15469.860468532228,1.0,41343.32656119247,3.4060223303218455,-2.422834468798187,52.82398482391534,41343.32656119247,3.4060223303218455,-2.422834468798187,52.82398482391534,-38.4375,-48.40625,-0.01482391357421875,-0.0157318115234375,0.9931640625,-0.005741119384765625,0.56787109375,-4.0390625,118.0,3.0,4.0
4.174845218658447,1008.682330446202,1731.4489116624086,195.0087751414953,0.06722961614299501,-0.11846615927959032,1.5994487832912496,0.006918668746948242,1.571861935462227,1008.682330446202,1731.4489116624086,60.319964781506236,-3.876953125,0.016317669553798056,-0.0064489116624085905,0.3313012248585046,361.64166482992323,1.025,1.725,0.52631,15469.860468532228,1.0,40377.44569308491,3.8004422657661237,-2.9346014453980223,0.04735654441614301,40377.44569308491,3.8004422657661237,-2.9346014453980223,0.04735654441614301,-28.875,-74.375,-0.041290283203125,0.016998291015625,0.9853515625,-0.0364990234375,0.56591796875,-3.876953125,118.0,8.0,8.0
4.185399055480957,1010.9915956888409,1732.065201077983,200.5917211517842,0.07431777587682381,-0.12131156379518111,1.6102013142370712,0.008409500122070312,1.576362547316008,1010.9915956888409,1732.065201077983,66.09212887630494,-3.6015625,0.014008404311159097,-0.00706520107798292,0.32571827884821575,362.2577394722026,1.025,1.725,0.52631,15469.860468532228,1.0,42129.086935300584,4.3299757328902375,-1.6425347861308843,121.49312404145262,42129.086935300584,4.3299757328902375,-1.6425347861308843,121.49312404145262,-32.25,-80.1875,-0.0428466796875,0.054595947265625,0.9931640625,-0.00392913818359375,0.56396484375,-3.6015625,118.0,-4.0,9.0
4.194950580596924,1012.2446083927166,1733.690556571866,207.3278316442856,0.06945945205812458,-0.09016345754346819,1.606506045655411,0.007390737533569336,1.58085678057758,1012.2446083927166,1733.690556571866,71.28827619092127,-3.46875,0.0127553916072834,-0.008690556571865954,0.31898216835571436,362.0460161783062,1.025,1.725,0.52631,15469.860468532228,1.0,38947.68949747766,2.5115424278682084,-4.112251140479724,-2.534535029793062,38947.68949747766,2.5115424278682084,-4.112251140479724,-2.534535029793062,-29.328125,-78.0,0.028350830078125,-0.1810302734375,1.0322265625,0.0172882080078125,0.56298828125,-3.46875,118.0,4.0,3.0
4.204914808273315,1013.6110792418292,1735.4513853533344,213.60131496686085,0.0674808550883872,-0.09180716408098892,1.6117644590001319,0.007812023162841797,1.5856056363958977,1013.6110792418292,1735.4513853533344,75.96706789133606,-3.330078125,0.011388920758170797,-0.010451385353334444,0.3127086850331391,362.347301069894,1.025,1.725,0.52631,15469.860468532228,1.0,40036.16431162489,2.731530349269972,-4.293802408781452,80.5796933836577,40036.16431162489,2.731530349269972,-4.293802408781452,80.5796933836577,-4.921875,-64.1875,0.0289764404296875,0.024383544921875,0.9765625,-0.00656890869140625,0.5634765625,-3.330078125,118.0,5.0,-1.0
4.215160608291626,1015.4971672236047,1736.4245021812596,219.74471191888756,0.07305271357862451,-0.07964481961374618,1.6097974142248128,0.008101463317871094,1.5902731907316159,1015.4971672236047,1736.4245021812596,82.57536193370355,-3.228515625,0.00950283277639528,-0.01142450218125964,0.3065652880811124,362.23459770615494,1.025,1.725,0.52631,15469.860468532228,1.0,40358.22173908778,3.814970822707245,-2.50006813908837,17.01749354167765,40358.22173908778,3.814970822707245,-2.50006813908837,17.01749354167765,-7.91796875,-41.25,-0.017730712890625,-0.0222625732421875,1.0302734375,0.036529541015625,0.55615234375,-3.228515625,142.0,-1.0,7.0
4.225327253341675,1017.2427758168451,1737.5980422342861,225.73876584905355,0.0611863419307422,-0.08627239602170264,1.6097852069470249,0.008028268814086914,1.594468596315123,1017.2427758168451,1737.5980422342861,88.52016146996945,-2.958984375,0.007757224183154904,-0.01259804223428614,0.3005712341509464,362.2338982806583,1.025,1.725,0.52631,15469.860468532228,1.0,40347.7677902264,3.6280734660755884,-2.9466360845904234,33.405251016411036,40347.7677902264,3.6280734660755884,-2.9466360845904234,33.405251016411036,10.5625,-5.1484375,0.0130767822265625,-0.08746337890625,1.001953125,-0.01165008544921875,0.55810546875,-2.958984375,142.0,22.0,-1.0
