time,x_pos,y_pos,z_pos,x_rot,y_rot,z_rot,delta_time,z_filtered,x_pos_est,y_pos_est,z_pos_est,z_rot_est,x_error,y_error,z_error,yaw_error,x_setpoint,y_setpoint,z_setpoint,yaw_setpoint,vicon_available,thrust_cal,pitch_cal,roll_cal,yaw_cal,thrust_lim,pitch_lim,roll_lim,yaw_lim,gyro_x,gyro_y,acc_x,acc_y,acc_z,stateEstimate_az,stateEstimate_vz,stateEstimate_yaw,range_zrange,motion_deltaX,motion_deltaY
3.73537278175354,985.4895789339213,1706.6747214613044,58.85877177104115,-0.05418492301585296,0.04405193278895133,1.5687583998553625,0.00041174888610839844,1.517007247406293,985.4895789339213,1706.6747214613044,1.0973529341799573,-0.042327880859375,0.03951042106607872,0.018325278538695557,-0.058858771771041145,359.8832353874087,1.025,1.725,0.0,15469.860468532228,1.0,-1707111.5007603683,-397.63654500715126,210.49090247485455,-84.36723869798975,10000,-40,40,-84.36723869798975,0.07049560546875,-0.0888671875,0.037017822265625,-0.0003325939178466797,0.9990234375,-0.0004367828369140625,-0.0007891654968261719,-0.042327880859375,11.0,0.0,0.0
3.7390079498291016,985.4955856173887,1706.6812242786823,58.87838926551035,-0.05193182942001567,0.04363386647570279,1.5682680145284202,0.0007083415985107422,1.5198012965771461,985.4895789339213,1706.6747214613044,1.0973529341799573,-0.042327880859375,0.03950441438261135,0.018318775721317706,0.4674316107344896,359.85513837783975,1.025,1.725,0.52631,15469.860468532228,1.0,2653673.8243424417,-1.6711999587950572,-0.009879307003991422,-14.411300089447035,65535,-1.6711999587950572,-0.009879307003991422,-14.411300089447035,,,,,,,,,,,
3.741211414337158,985.5353535057134,1706.632483592887,58.78428146906376,-0.05728377858997039,0.043472388730972124,1.5677093711713805,9.894371032714844e-05,1.5215724301860145,985.4895789339213,1706.6747214613044,1.0973529341799573,-0.042327880859375,0.039464646494286625,0.018367516407113045,0.46752571853093616,359.82313047122835,1.025,1.725,0.52631,15469.860468532228,1.0,56087.949191942644,-1.2860937116071989,0.4954665313722547,-24.70959672102895,56087.949191942644,-1.2860937116071989,0.4954665313722547,-24.70959672102895,,,,,,,,,,,
3.744854688644409,985.4965253893034,1706.6918538045445,58.80293345591159,-0.0557242496925487,0.045503034168509614,1.5661381909049967,9.799003601074219e-05,1.5246335714754664,985.4965253893034,1706.6918538045445,2.087564449538401,-0.041748046875,0.03950347461069657,0.018308146195455493,0.46750706654408836,359.7331084731103,1.025,1.725,0.52631,15469.860468532228,1.0,55273.346580522055,-1.9393082076490447,-0.2926475185815205,-39.33741995505596,55273.346580522055,-1.9393082076490447,-0.2926475185815205,-39.33741995505596,-0.06939697265625,-0.042266845703125,0.032073974609375,-0.0029449462890625,0.99853515625,-0.0008935928344726562,-0.004364013671875,-0.041748046875,11.0,0.0,0.0
3.7481038570404053,985.5054237581991,1706.6688534837203,58.8107462659526,-0.055488209605118875,0.043990563903864265,1.5674054606503671,0.0001919269561767578,1.5271152548236815,985.4965253893034,1706.6918538045445,2.087564449538401,-0.041748046875,0.03949457624180093,0.01833114651627966,0.4674992537340473,359.80571768102465,1.025,1.725,0.52631,15469.860468532228,1.0,55310.40232545445,-1.6348877396588786,0.18300138858917236,32.57225917854926,55310.40232545445,-1.6348877396588786,0.18300138858917236,32.57225917854926,,,,,,,,,,,
3.750182628631592,985.5477358660079,1706.6501668095398,58.79917762071953,-0.05446836311785234,0.04434470718750915,1.5670410146827245,6.246566772460938e-05,1.5287416601216675,985.4965253893034,1706.6918538045445,2.087564449538401,-0.041748046875,0.03945226413399212,0.01834983319046023,0.4675108223792804,359.7848364652182,1.025,1.725,0.52631,15469.860468532228,1.0,55447.92412728608,-1.2411681998482946,0.21198075604799965,-18.547948703698566,55447.92412728608,-1.2411681998482946,0.21198075604799965,-18.547948703698566,,,,,,,,,,,
3.7546136379241943,985.39335957308,1706.7656675354926,58.799614351693364,-0.05630165390813688,0.044165491857011796,1.5678821842880286,7.939338684082031e-05,1.532262689905824,985.39335957308,1706.7656675354926,2.9787696031112763,-0.041748046875,0.03960664042691996,0.018234332464507362,0.46751038564830655,359.8330319334568,1.025,1.725,0.52631,15469.860468532228,1.0,55359.77288240819,-2.4458762614511524,-0.4736095150501133,13.286525133653086,55359.77288240819,-2.4458762614511524,-0.4736095150501133,13.286525133653086,0.040740966796875,0.15185546875,0.0310516357421875,-0.00312042236328125,0.99755859375,-0.0020542144775390625,-0.004364013671875,-0.041748046875,11.0,0.0,0.0
3.7573206424713135,985.4916932880014,1706.6843405054187,58.75442708112859,-0.058742747161852224,0.04341395632549853,1.5680503423097845,7.605552673339844e-05,1.534187337011991,985.39335957308,1706.7656675354926,2.9787696031112763,-0.041748046875,0.03950830671199856,0.01831565949458127,0.46755557291887134,359.84266667839466,1.025,1.725,0.52631,15469.860468532228,1.0,55649.83991708911,-0.8260324532375499,0.7149037363627283,3.237615269432892,55649.83991708911,-0.8260324532375499,0.7149037363627283,3.237615269432892,,,,,,,,,,,
3.7598958015441895,985.5359709596923,1706.6679333072104,58.79744211022408,-0.057266666723498554,0.04342127852262663,1.5672093921804675,6.937980651855469e-05,1.5361405049908607,985.5359709596923,1706.6679333072104,3.780871142178961,-0.04248046875,0.03946402904030765,0.018332066692789566,0.46751255788977586,359.79448378520385,1.025,1.725,0.52631,15469.860468532228,1.0,55079.578254999775,-1.3071016157119075,0.19605491482094373,-30.014206660348144,55079.578254999775,-1.3071016157119075,0.19605491482094373,-30.014206660348144,-0.371337890625,-0.2027587890625,0.02252197265625,-0.006938934326171875,1.0087890625,0.002933502197265625,-0.00453948974609375,-0.04248046875,11.0,0.0,0.0
3.764234781265259,985.544393652183,1706.6495165569806,58.76969250218315,-0.05741351567553582,0.04553810716069742,1.5669620638061301,7.462501525878906e-05,1.5390805376803407,985.5359709596923,1706.6679333072104,3.780871142178961,-0.04248046875,0.03945560634781702,0.018350483443019358,0.4675403074978168,359.7803129132005,1.025,1.725,0.52631,15469.860468532228,1.0,55466.46234387145,-1.6102414655400183,0.19230709010394764,-8.328354607901929,55466.46234387145,-1.6102414655400183,0.19230709010394764,-8.328354607901929,,,,,,,,,,,
3.7666866779327393,985.495935475421,1706.6730984848869,58.85056523995452,-0.0544859250360872,0.0433353859806242,1.5690133710644683,0.0002951622009277344,1.5407128589485573,985.5359709596923,1706.6679333072104,3.780871142178961,-0.04248046875,0.03950406452457901,0.01832690151511315,0.4674594347600454,359.8978441615878,1.025,1.725,0.52631,15469.860468532228,1.0,54795.476193153525,-2.079701539509922,-0.07399158003259054,70.32099813986211,54795.476193153525,-2.079701539509922,-0.07399158003259054,70.32099813986211,,,,,,,,,,,
3.7687342166900635,985.4979694224176,1706.6408177597325,58.829825577988956,-0.05411339119478432,0.04458723000810427,1.5681703703630783,6.651878356933594e-05,1.5420279513773545,985.5359709596923,1706.6679333072104,3.780871142178961,-0.04248046875,0.03950203057758245,0.018359182240267502,0.46748017442201095,359.8495437792716,1.025,1.725,0.52631,15469.860468532228,1.0,55526.09181609386,-1.6044045820410826,0.47988742790822225,-37.7651081070873,55526.09181609386,-1.6044045820410826,0.47988742790822225,-37.7651081070873,,,,,,,,,,,
3.7737677097320557,985.5038252976457,1706.6561301151794,58.75897335822485,-0.05872404988341132,0.04515484197654006,1.5669659104474136,7.390975952148438e-05,1.5451609792225227,985.5038252976457,1706.6561301151794,4.502724730606173,-0.04046630859375,0.03949617470235432,0.018343869884820604,0.46755102664177506,359.7805333095113,1.025,1.725,0.52631,15469.860468532228,1.0,55588.50206840426,-1.5985093110032829,0.09838056223711933,-23.360238584091945,55588.50206840426,-1.5985093110032829,0.09838056223711933,-23.360238584091945,0.85009765625,0.68310546875,0.051849365234375,0.01259613037109375,1.0009765625,0.002437591552734375,-0.00482177734375,-0.04046630859375,11.0,0.0,0.0
3.7761270999908447,985.4880283427896,1706.7070664990458,58.823678618981056,-0.05650580837108826,0.04326037886138398,1.56859862450463,7.486343383789062e-05,1.5464346081243394,985.5038252976457,1706.6561301151794,4.502724730606173,-0.04046630859375,0.03951197165721044,0.018292933500954178,0.4674863213810189,359.8740809341415,1.025,1.725,0.52631,15469.860468532228,1.0,54862.98444342188,-1.7707162892905697,-0.29818009457670513,60.81638812944384,54862.98444342188,-1.7707162892905697,-0.29818009457670513,60.81638812944384,,,,,,,,,,,
3.7782704830169678,985.5168707730172,1706.6436638180064,58.77567670595295,-0.05674702575998356,0.04469335123358799,1.5679312488763468,7.367134094238281e-05,1.547606184272763,985.5038252976457,1706.6561301151794,4.502724730606173,-0.04046630859375,0.039483129226982785,0.018356336181993584,0.467534323294047,359.83584312729096,1.025,1.725,0.52631,15469.860468532228,1.0,55734.91700921302,-1.2878595989893196,0.8459480012504516,-29.21927438266316,55734.91700921302,-1.2878595989893196,0.8459480012504516,-29.21927438266316,,,,,,,,,,,
3.7803080081939697,985.487849990562,1706.6683465962856,58.80728305304601,-0.055448521758962054,0.0447695170564534,1.567857509710198,6.341934204101562e-05,1.5486740087314093,985.5038252976457,1706.6561301151794,4.502724730606173,-0.04046630859375,0.03951215000943796,0.018331653403714426,0.4675027169469539,359.83161818428584,1.025,1.725,0.52631,15469.860468532228,1.0,55090.682682045706,-1.904407038133333,-0.031155328460090947,-5.651437844740505,55090.682682045706,-1.904407038133333,-0.031155328460090947,-5.651437844740505,,,,,,,,,,,
3.7848408222198486,985.5228706754019,1706.6390546827615,58.831030580091586,-0.05424218102135092,0.044581077178128745,1.5682161771503305,7.581710815429688e-05,1.550964167145631,985.5228706754019,1706.6390546827615,5.252403153246304,-0.056304931640625,0.039477129324598084,0.018360945317238475,0.46747896941990835,359.85216831485417,1.025,1.725,0.52631,15469.860468532228,1.0,55265.32136720751,-1.4071843231674195,0.3861494567323202,4.389752966111116,55265.32136720751,-1.4071843231674195,0.3861494567323202,4.389752966111116,1.8935546875,-4.140625,-0.0099334716796875,-0.007160186767578125,0.9794921875,-0.0157623291015625,-0.00484466552734375,-0.056304931640625,12.0,0.0,0.0
3.7875001430511475,985.5052219049049,1706.6775080982384,58.85067590718207,-0.05449935789885844,0.04504425904276249,1.5676684403232244,7.343292236328125e-05,1.5521204109033448,985.5228706754019,1706.6390546827615,5.252403153246304,-0.056304931640625,0.03949477809509506,0.018322491901761623,0.4674593240928179,359.8207853063771,1.025,1.725,0.52631,15469.860468532228,1.0,55221.60502262647,-1.7156244029190915,-0.04455417684451468,-21.20851090064559,55221.60502262647,-1.7156244029190915,-0.04455417684451468,-21.20851090064559,,,,,,,,,,,
3.790135145187378,985.4972686361541,1706.6914880590143,58.81238533452184,-0.055861351208317214,0.04440515897611952,1.5687424027236285,6.747245788574219e-05,1.5532996654717994,985.4972686361541,1706.6914880590143,5.927141789797201,-0.07635498046875,0.0395027313638459,0.01830851194098568,0.4674976146654781,359.882318819276,1.025,1.725,0.52631,15469.860468532228,1.0,55591.093753758585,-1.613669183400307,0.18969843918923668,31.913372017621228,55591.093753758585,-1.613669183400307,0.18969843918923668,31.913372017621228,-4.28515625,5.46875,0.035308837890625,0.007709503173828125,0.99462890625,-0.004199981689453125,-0.0044097900390625,-0.07635498046875,12.0,0.0,0.0
3.795057773590088,985.4743974593662,1706.6706813228866,58.86882690708442,-0.05316692461817408,0.04340664071339037,1.5683695041420702,0.0003390312194824219,1.5552122420936365,985.4972686361541,1706.6914880590143,5.927141789797201,-0.07635498046875,0.03952560254063383,0.018329318677113408,0.4674411730929155,359.8609533043663,1.025,1.725,0.52631,15469.860468532228,1.0,55154.94399371483,-1.635969868457905,0.42277612519321783,-8.67783407050418,55154.94399371483,-1.635969868457905,0.42277612519321783,-8.67783407050418,,,,,,,,,,,
3.7973291873931885,985.5136707468296,1706.685850425473,58.77272927910803,-0.05766016753497393,0.04456290326707519,1.5680311882157025,0.0001919269561767578,1.556025541563666,985.4972686361541,1706.6914880590143,5.927141789797201,-0.07635498046875,0.03948632925317042,0.018314149574526938,0.4675372707208919,359.84156922964337,1.025,1.725,0.52631,15469.860468532228,1.0,56082.17920714325,-1.143101829923469,0.19923960969509552,-15.366880517871072,56082.17920714325,-1.143101829923469,0.19923960969509552,-15.366880517871072,,,,,,,,,,,
3.7994019985198975,985.487032773193,1706.669181628506,58.834656823934154,-0.05429239674594575,0.04375790791165526,1.5679476008007933,7.176399230957031e-05,1.5567389158314875,985.4972686361541,1706.6914880590143,5.927141789797201,-0.07635498046875,0.03951296722680695,0.01833081837149393,0.4674753431760658,359.83678002354867,1.025,1.725,0.52631,15469.860468532228,1.0,54844.29414677113,-1.7927884718599725,0.5459816422325583,-5.930051370797235,54844.29414677113,-1.7927884718599725,0.5459816422325583,-5.930051370797235,,,,,,,,,,,
3.8026490211486816,985.4778064590442,1706.6875916297327,58.852870743144074,-0.05382375152295876,0.0432903181364109,1.5687917681673988,0.00032401084899902344,1.5578401806822404,985.4778064590442,1706.6875916297327,6.534373706441299,-0.051422119140625,0.039522193540955756,0.01831240837026735,0.46745712925685584,359.8851472508578,1.025,1.725,0.52631,15469.860468532228,1.0,55261.339993329755,-1.5671072709077933,0.267636536782221,19.52722848755091,55261.339993329755,-1.5671072709077933,0.267636536782221,19.52722848755091,-1.0537109375,0.77099609375,0.0191802978515625,-0.0121612548828125,0.990234375,0.0006685256958007812,-0.0049896240234375,-0.051422119140625,12.0,0.0,0.0
3.8048994541168213,985.5379460484289,1706.6552647844992,58.77777049752516,-0.05618891509064346,0.042682073221249714,1.568211145162687,7.987022399902344e-05,1.5584686649714712,985.4778064590442,1706.6875916297327,6.534373706441299,-0.051422119140625,0.039462053951571076,0.018344735215500806,0.46753222950247475,359.85188000319965,1.025,1.725,0.52631,15469.860468532228,1.0,55962.92478424043,-0.8670407715503163,0.7306205478015906,-26.11442836323944,55962.92478424043,-0.8670407715503163,0.7306205478015906,-26.11442836323944,,,,,,,,,,,
3.8088231086730957,985.5263305676593,1706.674344626326,58.85100787124173,-0.05514339733940097,0.04232748766029124,1.5683437313914392,7.677078247070312e-05,1.55956437311541,985.4778064590442,1706.6875916297327,6.534373706441299,-0.051422119140625,0.03947366943234067,0.018325655373673953,0.4674589921287582,359.85947663452873,1.025,1.725,0.52631,15469.860468532228,1.0,55034.854538050815,-1.5536082793466353,0.31437592074089143,0.7949051665871161,55034.854538050815,-1.5536082793466353,0.31437592074089143,0.7949051665871161,,,,,,,,,,,
3.8145103454589844,985.4028909762648,1706.754956677639,58.80531619894561,-0.05655918968887222,0.04421254932366101,1.5681947292276224,0.00012302398681640625,1.560994530054073,985.4028909762648,1706.754956677639,7.080881969406228,-0.04681396484375,0.03959710902373524,0.01824504332236097,0.46750468380105437,359.8509394394037,1.025,1.725,0.52631,15469.860468532228,1.0,55489.785855603426,-1.9432686780842223,0.14604464824787244,-4.439090963296048,55489.785855603426,-1.9432686780842223,0.14604464824787244,-4.439090963296048,-2.23046875,-1.875,0.0024166107177734375,0.0028553009033203125,1.009765625,0.002796173095703125,-0.00499725341796875,-0.04681396484375,12.0,0.0,0.0
3.817202091217041,985.4889341504347,1706.6828134464133,58.81598232930791,-0.056606191460508846,0.04379909039056795,1.5688521943154397,0.00031566619873046875,1.5615565847073987,985.4028909762648,1706.754956677639,7.080881969406228,-0.04681396484375,0.039511065849565284,0.01831718655358668,0.46749401767069204,359.8886094141128,1.025,1.725,0.52631,15469.860468532228,1.0,55280.70259815011,-0.7321881457427728,1.0696901451441536,20.342794230774356,55280.70259815011,-0.7321881457427728,1.0696901451441536,20.342794230774356,,,,,,,,,,,
3.8192787170410156,985.5209930335242,1706.6874314416389,58.80255553373243,-0.05558325316233603,0.04405397530770615,1.5670247051503918,7.2479248046875e-05,1.561982260217627,985.4028909762648,1706.754956677639,7.080881969406228,-0.04681396484375,0.03947900696647582,0.018312568558361136,0.4675074444662675,359.7839019978497,1.025,1.725,0.52631,15469.860468532228,1.0,55461.68329611118,-1.12357206153749,0.4259127168796403,-79.21449532266345,55461.68329611118,-1.12357206153749,0.4259127168796403,-79.21449532266345,,,,,,,,,,,
3.824695348739624,985.4392145908781,1706.7055389859765,58.803175340777514,-0.056599997779453154,0.04429600522432037,1.5687545396843532,0.0003597736358642578,1.5630127759416745,985.4392145908781,1706.7055389859765,7.572739631439811,-0.0640869140625,0.039560785409121876,0.018294461014023454,0.46750682465922244,359.88301421590165,1.025,1.725,0.52631,15469.860468532228,1.0,55353.322778641494,-1.772819899151761,0.4255596199748417,24.88056238791531,55353.322778641494,-1.772819899151761,0.4255596199748417,24.88056238791531,-4.03515625,-2.216796875,0.01464080810546875,0.01434326171875,0.9990234375,0.005283355712890625,-0.006053924560546875,-0.0640869140625,12.0,0.0,0.0
3.8270390033721924,985.5445210820839,1706.6483854547614,58.80388852770955,-0.056389592371711525,0.04423935916169795,1.56783557581554,8.106231689453125e-05,1.563371604750385,985.4392145908781,1706.7055389859765,7.572739631439811,-0.0640869140625,0.03945547891791614,0.01835161454523859,0.4675061114722904,359.8303614646936,1.025,1.725,0.52631,15469.860468532228,1.0,55345.38736056693,-0.39307037435357495,1.0714143572660952,-38.64554440974635,55345.38736056693,-0.39307037435357495,1.0714143572660952,-38.64554440974635,,,,,,,,,,,
3.8291096687316895,985.5208919417685,1706.6550240618171,58.81261303368687,-0.05552505239736583,0.04463734540971271,1.568083246447516,6.985664367675781e-05,1.5636898263059478,985.4392145908781,1706.7055389859765,7.572739631439811,-0.0640869140625,0.03947910805823153,0.01834497593818287,0.46749738696631304,359.8445519466152,1.025,1.725,0.52631,15469.860468532228,1.0,55282.434655187695,-1.68830049695705,0.45224765509321874,7.987141037911096,55282.434655187695,-1.68830049695705,0.45224765509321874,7.987141037911096,,,,,,,,,,,
3.831876277923584,985.5117291180934,1706.6664796875114,58.831226730538496,-0.05497928036871748,0.044043711375570616,1.5686030505966377,7.319450378417969e-05,1.56410325529518,985.5117291180934,1706.6664796875114,8.015435074003008,-0.054840087890625,0.0394882708819066,0.018333520312488645,0.46747877326946147,359.87433453053325,1.025,1.725,0.52631,15469.860468532228,1.0,55243.25887250575,-1.5047269912584187,0.44354644104811347,13.545785996111384,55243.25887250575,-1.5047269912584187,0.44354644104811347,13.545785996111384,-4.015625,1.9951171875,0.0379638671875,0.00848388671875,0.96240234375,-0.0300140380859375,-0.004390716552734375,-0.054840087890625,12.0,0.0,0.0
3.8359031677246094,985.5219446345761,1706.6745352616645,58.792596621322325,-0.0555894008782135,0.044966928614402255,1.5678172123284286,7.700920104980469e-05,1.5646051940044874,985.5117291180934,1706.6664796875114,8.015435074003008,-0.054840087890625,0.03947805536542387,0.01832546473833554,0.4675174033786776,359.829309314385,1.025,1.725,0.52631,15469.860468532228,1.0,55521.17493808488,-1.3730900765252516,0.4950184774614512,-19.852154099826496,55521.17493808488,-1.3730900765252516,0.4950184774614512,-19.852154099826496,,,,,,,,,,,
3.8398399353027344,985.5241779587406,1706.6735467104745,58.80319536687523,-0.056065408396713604,0.04458296046444534,1.5674046363836347,0.0001423358917236328,1.5650566064211324,985.5117291180934,1706.6664796875114,8.015435074003008,-0.054840087890625,0.03947582204125945,0.01832645328952549,0.4675068046331247,359.8056704540197,1.025,1.725,0.52631,15469.860468532228,1.0,55307.91256320546,-1.4113664241634243,0.5579673465057207,-11.801346743618604,55307.91256320546,-1.4113664241634243,0.5579673465057207,-11.801346743618604,,,,,,,,,,,
3.8454267978668213,985.4938787843654,1706.664575715473,58.74487196666221,-0.05763935789383375,0.04440540855622049,1.5681306027416295,0.0003371238708496094,1.5656098945428596,985.4938787843654,1706.664575715473,8.413840780451666,-0.040374755859375,0.039506121215634606,0.018335424284527106,0.4675651280333377,359.84726526240127,1.025,1.725,0.52631,15469.860468532228,1.0,55529.52299851626,-1.5334043809841063,0.6007594508836086,8.646075386093415,55529.52299851626,-1.5334043809841063,0.6007594508836086,8.646075386093415,-2.123046875,3.9609375,0.0004181861877441406,0.035614013671875,1.015625,0.0024471282958984375,-0.00452423095703125,-0.040374755859375,12.0,0.0,0.0
3.8477261066436768,985.50377835938,1706.6717016915102,58.827969708766375,-0.05609158874160012,0.04249976144780111,1.5675733040478121,8.320808410644531e-05,1.5657895513129667,985.4938787843654,1706.664575715473,8.413840780451666,-0.040374755859375,0.03949622164061998,0.01832829830848982,0.4674820302912336,359.8153343993174,1.025,1.725,0.52631,15469.860468532228,1.0,54691.028737080684,-1.3128368245592352,0.5037825306303174,-25.168425322995628,54691.028737080684,-1.3128368245592352,0.5037825306303174,-25.168425322995628,,,,,,,,,,,
3.849827766418457,985.489222751774,1706.6936787723778,58.85976122490199,-0.05456346187992915,0.04346097474333545,1.568683054513155,7.486343383789062e-05,1.5659526181870773,985.4938787843654,1706.664575715473,8.413840780451666,-0.040374755859375,0.039510777248225964,0.01830632122762222,0.46745023877509795,359.87891841729424,1.025,1.725,0.52631,15469.860468532228,1.0,55093.09479271722,-1.5632881632145035,0.35324347910231674,43.83435841215544,55093.09479271722,-1.5632881632145035,0.35324347910231674,43.83435841215544,,,,,,,,,,,
3.8548882007598877,985.48066505444,1706.7011496857926,58.845285511852644,-0.054801975485744045,0.043391588538925704,1.568764543750035,8.392333984375e-05,1.5663112353691218,985.48066505444,1706.7011496857926,8.772406102493324,-0.0203094482421875,0.03951933494555999,0.018298850314207356,0.4674647144881473,359.8835874066432,1.025,1.725,0.52631,15469.860468532228,1.0,55399.32625927879,-1.4438347963970948,0.5565928503238398,-0.3987855219134615,55399.32625927879,-1.4438347963970948,0.5565928503238398,-0.3987855219134615,-1.4541015625,1.2177734375,0.0036334991455078125,-0.00937652587890625,0.9658203125,-0.0218353271484375,-0.005634307861328125,-0.0203094482421875,12.0,0.0,0.0
3.8572120666503906,985.5001459274445,1706.6684147833341,58.879279699787425,-0.05431392423047594,0.0432644760258811,1.5682729306286252,8.082389831542969e-05,1.5664444697123534,985.48066505444,1706.7011496857926,8.772406102493324,-0.0203094482421875,0.03949985407255554,0.01833158521666587,0.4674307203002125,359.85542004963315,1.025,1.725,0.52631,15469.860468532228,1.0,55086.74996927836,-1.2094060276399516,0.9192304086783635,-21.466715945573405,55086.74996927836,-1.2094060276399516,0.9192304086783635,-21.466715945573405,,,,,,,,,,,
3.8592922687530518,985.4810527817965,1706.709435830407,58.79112388339727,-0.058050467632835986,0.0426863095128529,1.5682468614886464,7.557868957519531e-05,1.5665632406362857,985.48066505444,1706.7011496857926,8.772406102493324,-0.0203094482421875,0.039518947218203496,0.018290564169592925,0.46751887611660264,359.85392639793685,1.025,1.725,0.52631,15469.860468532228,1.0,56076.463422336215,-1.604603312159101,0.1691769268934747,-3.2705025982163622,56076.463422336215,-1.604603312159101,0.1691769268934747,-3.2705025982163622,,,,,,,,,,,
3.8649439811706543,985.5245805265354,1706.6460409461638,58.82843084433267,-0.054294372948308765,0.04303529125514007,1.568975996931388,8.249282836914062e-05,1.5668591195690418,985.5245805265354,1706.6460409461638,9.095119155511652,0.036895751953125,0.039475419473464626,0.018353959053836206,0.4674815691556673,359.8957027814993,1.025,1.725,0.52631,15469.860468532228,1.0,55242.604276795224,-1.2355036000795283,0.8410337291073585,9.25978515476295,55242.604276795224,-1.2355036000795283,0.8410337291073585,9.25978515476295,-16.328125,-11.3671875,-0.004932403564453125,-0.0179901123046875,0.9814453125,-0.03179931640625,-0.00518798828125,0.036895751953125,12.0,0.0,0.0
3.867372751235962,985.4551415882726,1706.6889197680782,58.81093300441394,-0.05643316227016709,0.04338858261821307,1.5699624555084237,8.58306884765625e-05,1.5669635967808777,985.5245805265354,1706.6460409461638,9.095119155511652,0.036895751953125,0.03954485841172743,0.018311080231921777,0.467499066995586,359.95222269462795,1.025,1.725,0.52631,15469.860468532228,1.0,55486.222776059614,-2.056876379155335,0.20540430346183786,36.12085689849994,55486.222776059614,-2.056876379155335,0.20540430346183786,36.12085689849994,,,,,,,,,,,
3.869450092315674,985.5056853114963,1706.660387675381,58.8290106240079,-0.05620390013890165,0.04345197828069132,1.5691232930342036,7.033348083496094e-05,1.5670533322536992,985.5245805265354,1706.6460409461638,9.095119155511652,0.036895751953125,0.039494314688503666,0.01833961232461911,0.4674809893759921,359.9041422265294,1.025,1.725,0.52631,15469.860468532228,1.0,55201.85676122174,-0.8655019521620482,0.9075568888883151,-36.36007273243555,55201.85676122174,-0.8655019521620482,0.9075568888883151,-36.36007273243555,,,,,,,,,,,
3.87491774559021,985.4930740141345,1706.667825892869,58.82397477291339,-0.05463911077767297,0.044715380101697434,1.5682797222135063,7.867813110351562e-05,1.5672795255915377,985.4930740141345,1706.667825892869,9.48554601075945,0.1385498046875,0.03950692598586545,0.018332174107131095,0.46748602522708654,359.85580917878303,1.025,1.725,0.52631,15469.860468532228,1.0,55366.934299088585,-1.441256453742907,0.5875533220461417,-14.230215913328262,55366.934299088585,-1.441256453742907,0.5875533220461417,-14.230215913328262,-4.6796875,-16.53125,-0.00165557861328125,-0.01140594482421875,1.115234375,0.1109619140625,-0.006732940673828125,0.1385498046875,13.0,0.0,0.0
3.877758026123047,985.4839136734288,1706.662301059197,58.77601145680973,-0.056869131754334244,0.044032294249183666,1.5690777487341843,9.751319885253906e-05,1.5673796567016556,985.4930740141345,1706.667825892869,9.48554601075945,0.1385498046875,0.03951608632657121,0.018337698940802966,0.4675339885431902,359.9015327303574,1.025,1.725,0.52631,15469.860468532228,1.0,55707.007435149404,-1.4838409703323352,0.6615976273053411,28.161123336770984,55707.007435149404,-1.4838409703323352,0.6615976273053411,28.161123336770984,,,,,,,,,,,
3.8798420429229736,985.5133427411528,1706.6928411739336,58.78880369726408,-0.05789086364214592,0.04381779894063601,1.566744021078968,6.628036499023438e-05,1.5674526149714638,985.4930740141345,1706.667825892869,9.48554601075945,0.1385498046875,0.03948665725884723,0.01830715882606637,0.46752119630273586,359.76781998518055,1.025,1.725,0.52631,15469.860468532228,1.0,55245.73802922622,-1.0857885033636678,0.2926997253426523,-100.79303601401635,55245.73802922622,-1.0857885033636678,0.2926997253426523,-100.79303601401635,,,,,,,,,,,
3.8861725330352783,985.4702013447575,1706.670469444796,58.78748829499915,-0.05769387783209294,0.04384281245531767,1.5685300409496996,8.392333984375e-05,1.5676538825749562,985.4702013447575,1706.670469444796,9.836976456387688,0.290283203125,0.03952979865524253,0.018329530555203973,0.4675225117050008,359.8701513859,1.025,1.725,0.52631,15469.860468532228,1.0,55358.102630280184,-1.5373089165868281,0.6943972971048286,21.59723513331764,55358.102630280184,-1.5373089165868281,0.6943972971048286,21.59723513331764,0.41552734375,-24.671875,0.006092071533203125,-0.00922393798828125,1.1875,0.1829833984375,-0.0014753341674804688,0.290283203125,13.0,0.0,0.0
3.888540744781494,985.5046183742219,1706.7006993471814,58.82464050748952,-0.05680314607954191,0.044092049104291695,1.5675040575906363,7.939338684082031e-05,1.567711345472194,985.4702013447575,1706.670469444796,9.836976456387688,0.290283203125,0.03949538162577812,0.018299300652818602,0.46748535949251047,359.811366869575,1.025,1.725,0.52631,15469.860468532228,1.0,55062.123436492526,-1.0515654055405625,0.3224616106440505,-43.012047797299736,55062.123436492526,-1.0515654055405625,0.3224616106440505,-43.012047797299736,,,,,,,,,,,
3.8906009197235107,985.4990244067175,1706.6604291509548,58.77830589636909,-0.057770100526747005,0.0435596501963958,1.5682195593443833,6.222724914550781e-05,1.5677598432084634,985.4702013447575,1706.670469444796,9.836976456387688,0.290283203125,0.039500975593282535,0.01833957084904523,0.4675316941036309,359.85236210029893,1.025,1.725,0.52631,15469.860468532228,1.0,55741.808130183555,-1.4481850658680593,1.053913915680352,27.919756812277583,55741.808130183555,-1.4481850658680593,1.053913915680352,27.919756812277583,,,,,,,,,,,
3.8954553604125977,985.5082357702597,1706.7019606079134,58.8100725443126,-0.05562628161659602,0.044194821902972824,1.567689116721202,7.915496826171875e-05,1.5678591416743537,985.5082357702597,1706.7019606079134,10.153384300325264,0.465576171875,0.03949176422974028,0.018298039392086594,0.4674999274556873,359.8219699767168,1.025,1.725,0.52631,15469.860468532228,1.0,55244.27736124295,-1.348835064209573,0.44715852663615685,-11.786140102472629,55244.27736124295,-1.348835064209573,0.44715852663615685,-11.786140102472629,5.203125,-33.875,-0.0033359527587890625,0.00696563720703125,1.2353515625,0.2286376953125,0.01248931884765625,0.465576171875,13.0,0.0,0.0
3.89884877204895,985.5170736952124,1706.6519908484338,58.78196374949839,-0.05571021678000013,0.04339581717553471,1.5680125943372636,8.797645568847656e-05,1.5679122528563811,985.5170736952124,1706.6519908484338,10.43814215124996,0.65576171875,0.03948292630478761,0.018348009151566202,0.46752803625050154,359.8405038788841,1.025,1.725,0.52631,15469.860468532228,1.0,55495.50456236827,-1.328781340617656,0.9526218211738837,5.811683279568795,55495.50456236827,-1.328781340617656,0.9526218211738837,5.811683279568795,5.02734375,-47.65625,-0.0168914794921875,-0.032440185546875,1.2978515625,0.295654296875,0.03277587890625,0.65576171875,13.0,0.0,0.0
3.9015707969665527,985.5019123776983,1706.6734287526417,58.818463420289994,-0.05516501374827019,0.04418054302059601,1.568588564521354,7.43865966796875e-05,1.567946032463207,985.5170736952124,1706.6519908484338,10.43814215124996,0.65576171875,0.039498087622301684,0.018326571247358286,0.46749153657970993,359.8735045395578,1.025,1.725,0.52631,15469.860468532228,1.0,55113.803770074664,-1.5131582987409027,0.4553017847790951,17.178478108043628,55113.803770074664,-1.5131582987409027,0.4553017847790951,17.178478108043628,,,,,,,,,,,
3.9056575298309326,985.4988857041575,1706.6643812084685,58.7783301017872,-0.0567911236233782,0.04370055107684435,1.5680870834971823,7.390975952148438e-05,1.5679899190611848,985.5170736952124,1706.6519908484338,10.43814215124996,0.65576171875,0.039501114295842514,0.018335618791531488,0.4675316698982127,359.8447717933669,1.025,1.725,0.52631,15469.860468532228,1.0,55520.92938900194,-1.400959688834759,0.6845044366071272,-12.869609665446275,55520.92938900194,-1.400959688834759,0.6845044366071272,-12.869609665446275,,,,,,,,,,,
3.9086954593658447,985.5157580102283,1706.6518224352267,58.82204968409382,-0.05554526498717793,0.04379919680018422,1.5681505764491965,7.62939453125e-05,1.5680176187289494,985.5157580102283,1706.6518224352267,10.69485824617287,0.83837890625,0.039484241989771705,0.018348177564773322,0.4674879503159061,359.8484096715461,1.025,1.725,0.52631,15469.860468532228,1.0,55117.284424809135,-1.2677850068631722,0.7243097677370207,-0.5494858694732871,55117.284424809135,-1.2677850068631722,0.7243097677370207,-0.5494858694732871,10.1171875,-52.6875,0.002414703369140625,-0.015869140625,1.3388671875,0.33544921875,0.059051513671875,0.83837890625,13.0,0.0,0.0
3.915670156478882,985.5030839783166,1706.7044400582495,58.864505212132194,-0.0548025499481139,0.04350436443092873,1.5674468660753622,7.772445678710938e-05,1.5680617396418284,985.5157580102283,1706.6518224352267,10.69485824617287,0.83837890625,0.03949691602168343,0.018295559941750524,0.46744549478786773,359.80809003712585,1.025,1.725,0.52631,15469.860468532228,1.0,55245.689995118424,-1.4238450996950414,0.47196897870288446,-11.710527651145535,55245.689995118424,-1.4238450996950414,0.47196897870288446,-11.710527651145535,,,,,,,,,,,
3.917823314666748,985.4756271517402,1706.6940336504263,58.83132083292215,-0.055739779586076135,0.042629369338032366,1.5682850268261155,7.677078247070312e-05,1.5680712136542914,985.5157580102283,1706.6518224352267,10.69485824617287,0.83837890625,0.039524372848259756,0.018305966349573738,0.4674786791670778,359.8561131106975,1.025,1.725,0.52631,15469.860468532228,1.0,55616.231819962355,-1.659757363702475,0.7463189989827833,31.28591343716677,55616.231819962355,-1.659757363702475,0.7463189989827833,31.28591343716677,,,,,,,,,,,
3.919891834259033,985.478856727683,1706.6951751031543,58.839825847962565,-0.05542392039966077,0.04369821212120247,1.5690096613073985,7.43865966796875e-05,1.5680785404415902,985.5157580102283,1706.6518224352267,10.69485824617287,0.83837890625,0.039521143272316976,0.01830482489684573,0.4674701741520374,359.89763160816466,1.025,1.725,0.52631,15469.860468532228,1.0,55281.661222123774,-1.3489903263260652,0.629285065212329,28.662370076318062,55281.661222123774,-1.3489903263260652,0.629285065212329,28.662370076318062,,,,,,,,,,,
3.9254066944122314,985.529603411877,1706.6891665110693,58.79731704475397,-0.05738770839446023,0.044989337537115946,1.5668054191866667,8.153915405273438e-05,1.5680924101294325,985.529603411877,1706.6891665110693,10.926695318866766,1.0478515625,0.03947039658812298,0.01831083348893071,0.46751268295524595,359.7713378376218,1.025,1.725,0.52631,15469.860468532228,1.0,55480.13818552704,-1.185776089093709,0.6650569868464716,-36.95050704099632,55480.13818552704,-1.185776089093709,0.6650569868464716,-36.95050704099632,21.03125,-45.4375,0.01220703125,-0.00998687744140625,1.376953125,0.3671875,0.08843994140625,1.0478515625,13.0,0.0,0.0
3.927704334259033,984.8211235095814,1707.1349741707018,59.21194586521757,-0.0481115855525828,0.03681322918673068,1.5806079041641743,7.700920104980469e-05,1.5680969314334368,985.529603411877,1706.6891665110693,10.926695318866766,1.0478515625,0.04017887649041859,0.017865025829298248,0.4670980541347824,360.5621619736257,1.025,1.725,0.52631,15469.860468532228,1.0,52257.148625942034,-8.509732887276707,-3.8144016854108416,555.4841344319277,52257.148625942034,-8.509732887276707,-3.8144016854108416,360,,,,,,,,,,,
3.9297702312469482,985.1209491519504,1706.8481949463846,59.556419480995025,-0.020991383867372142,0.036004832369740225,1.5796636820661054,7.033348083496094e-05,1.5681061107386105,985.529603411877,1706.6891665110693,10.926695318866766,1.0478515625,0.03987905084804959,0.018151805053615362,0.4667535805190049,360.50806203248334,1.025,1.725,0.52631,15469.860468532228,1.0,52513.68372273674,1.7711463486033152,3.648393881851474,-31.787127785254462,52513.68372273674,1.7711463486033152,3.648393881851474,-31.787127785254462,,,,,,,,,,,
3.935197591781616,984.7538613239035,1706.1546922726166,59.430695116095514,0.08169064814827122,-0.061513374324701366,1.5964575269260974,7.987022399902344e-05,1.5682361610452187,984.7538613239035,1706.1546922726166,11.135107616905625,1.2509765625,0.040246138676096506,0.018845307727383444,0.4668793048839044,361.4702784647584,1.025,1.725,0.52631,15469.860468532228,1.0,55754.63109053553,-2.8412349901691147,3.352288191044768,281.57071772395864,55754.63109053553,-2.8412349901691147,3.352288191044768,281.57071772395864,35.75,-40.125,0.0015783309936523438,0.005725860595703125,1.40625,0.40625,0.12255859375,1.2509765625,13.0,0.0,0.0
3.9375052452087402,984.2854010333492,1706.6377880553214,59.59168574804555,0.0760844108079109,-0.05769700150637338,1.5920831399816382,7.748603820800781e-05,1.568348171133964,984.7538613239035,1706.1546922726166,11.135107616905625,1.2509765625,0.040714598966650785,0.01836221194467862,0.46671831425195437,361.2196445548837,1.025,1.725,0.52631,15469.860468532228,1.0,54182.29653165636,-6.123842129389055,-4.198981354531488,-154.2085825338279,54182.29653165636,-6.123842129389055,-4.198981354531488,-154.2085825338279,,,,,,,,,,,
3.9400529861450195,984.243565973901,1706.448688975419,59.58834554092284,0.06498613870818569,-0.03400845119212087,1.5974967110714187,0.0004527568817138672,1.5685496950130664,984.7538613239035,1706.1546922726166,11.135107616905625,1.2509765625,0.040756434026098985,0.01855131102458108,0.4667216544590771,361.5298193304222,1.025,1.725,0.52631,15469.860468532228,1.0,55363.34847428161,-1.8036937059075981,2.170106959476347,202.63890621878713,55363.34847428161,-1.8036937059075981,2.170106959476347,202.63890621878713,,,,,,,,,,,
3.947106122970581,983.9895919136741,1706.7359925014473,59.543814533669114,0.056895386420920235,-0.034947435557555445,1.6014313301069043,0.0004124641418457031,1.569583862943226,983.9895919136741,1706.7359925014473,11.322679774054592,1.443359375,0.041010408086325924,0.0182640074985527,0.46676618546633086,361.75525639514734,1.025,1.725,0.52631,15469.860468532228,1.0,55442.56467690896,-2.261620501980481,-0.35425243056322264,73.45405353884826,55442.56467690896,-2.261620501980481,-0.35425243056322264,73.45405353884826,42.53125,-32.40625,-0.0019092559814453125,0.005504608154296875,1.390625,0.385498046875,0.0999755859375,1.443359375,13.0,5.0,-4.0
3.949385166168213,984.0017198841088,1706.9000305743016,59.6439477801445,0.05397080734483749,-0.03620660338301356,1.5983494017429318,7.677078247070312e-05,1.5700276838477771,983.9895919136741,1706.7359925014473,11.322679774054592,1.443359375,0.040998280115891246,0.018099969425698418,0.4666660522198554,361.57867490713005,1.025,1.725,0.52631,15469.860468532228,1.0,54524.254909061514,-1.3946247454111564,-1.2366619907467635,-101.738104240793,54524.254909061514,-1.3946247454111564,-1.2366619907467635,-101.738104240793,,,,,,,,,,,
3.9536468982696533,984.332449358102,1706.6147144634156,59.69087776752066,0.06746201464247326,-0.04712192333723493,1.595401713013776,8.058547973632812e-05,1.5711058273903211,983.9895919136741,1706.7359925014473,11.322679774054592,1.443359375,0.04066755064189795,0.018385285536584434,0.4666191222324793,361.40978478363115,1.025,1.725,0.52631,15469.860468532228,1.0,55141.905795593186,0.15952579020183077,1.8704754200609248,-38.24425059352219,55141.905795593186,0.15952579020183077,1.8704754200609248,-38.24425059352219,,,,,,,,,,,
3.9572396278381348,984.2523594806587,1706.5158933534842,59.64826585158212,0.05414299337418746,-0.03065876993323867,1.5987247030326348,8.106231689453125e-05,1.5722283278214102,984.2523594806587,1706.5158933534842,11.491693616479317,1.62109375,0.0407476405193413,0.018484106646515782,0.46666173414841783,361.60017808707585,1.025,1.725,0.52631,15469.860468532228,1.0,55526.59647470203,-2.0108028438609047,0.9519495861490749,100.20669772747101,55526.59647470203,-2.0108028438609047,0.9519495861490749,100.20669772747101,43.0,-27.09375,-0.006195068359375,-0.020751953125,1.4189453125,0.411376953125,0.1385498046875,1.62109375,13.0,0.0,0.0
3.9609808921813965,984.2015621493596,1706.711574288906,59.757534841872456,0.07564686385269698,-0.056771736475559206,1.5966593116926815,7.486343383789062e-05,1.5734571348793291,984.2015621493596,1706.711574288906,10.542974681779759,2.4765625,0.040798437850640426,0.018288425711094076,0.4665524651581275,361.4818398802537,1.025,1.725,0.52631,15469.860468532228,1.0,54826.46545002089,-1.85662069810044,-0.8047622916838221,-25.70696407668099,54826.46545002089,-1.85662069810044,-0.8047622916838221,-25.70696407668099,35.375,-21.140625,-0.00786590576171875,-0.0103607177734375,1.423828125,0.41845703125,0.1334228515625,2.4765625,2.0,-24.0,19.0
3.9655001163482666,984.4950493714871,1706.6074877150402,59.933219290740624,0.07673561531406675,-0.048882872304136064,1.5985557237496897,7.700920104980469e-05,1.5750259462815865,984.2015621493596,1706.711574288906,10.542974681779759,2.4765625,0.04050495062851291,0.01839251228495982,0.4663767807092593,361.59049628733794,1.025,1.725,0.52631,15469.860468532228,1.0,54637.61200376544,-0.1163344415287344,0.8408658028301876,60.86718954793786,54637.61200376544,-0.1163344415287344,0.8408658028301876,60.86718954793786,,,,,,,,,,,
3.9683120250701904,984.6091362451282,1706.7476766578125,60.422158925626846,0.08159093816684519,-0.052236016133624615,1.6063159726744227,7.653236389160156e-05,1.5760718146213837,984.2015621493596,1706.711574288906,10.542974681779759,2.4765625,0.04039086375487182,0.018252323342187536,0.4658878410743731,362.0351257986961,1.025,1.725,0.52631,15469.860468532228,1.0,52342.49399817998,-0.6769845617066126,-0.7750122903852678,267.93391464836736,52342.49399817998,-0.6769845617066126,-0.7750122903852678,267.93391464836736,,,,,,,,,,,
3.9742672443389893,984.497215028972,1707.12618955181,61.070496925791566,0.08061848663801478,-0.04468216557695401,1.6112835959602618,7.605552673339844e-05,1.5784489248285387,984.497215028972,1707.12618955181,9.69139786006011,3.353515625,0.04050278497102795,0.017873810448189944,0.46523950307420836,362.3197496471856,1.025,1.725,0.52631,15469.860468532228,1.0,53486.54209205058,-1.9614083462686143,-1.074725972956352,104.6744316789212,53486.54209205058,-1.9614083462686143,-1.074725972956352,104.6744316789212,16.375,-21.671875,-0.01085662841796875,0.0241241455078125,1.3876953125,0.38525390625,0.2276611328125,3.353515625,2.0,-32.0,16.0
3.9772562980651855,985.0910410240853,1706.7718320335214,61.627427287314816,0.0828539847885128,-0.036433873357308647,1.605956714610524,7.796287536621094e-05,1.5796021594299066,984.497215028972,1707.12618955181,9.69139786006011,3.353515625,0.039908958975914746,0.018228167966478623,0.4646825727126851,362.01454182787865,1.025,1.725,0.52631,15469.860468532228,1.0,51960.40042742924,2.962545456845615,3.0178967155852727,-131.1976061078371,51960.40042742924,2.962545456845615,3.0178967155852727,-131.1976061078371,,,,,,,,,,,
3.9809861183166504,985.1845682138425,1707.0646428323719,62.678506652580886,0.09236891249990035,-0.03804542076637089,1.6138876574879455,7.390975952148438e-05,1.581219066021655,985.1845682138425,1707.0646428323719,8.92369638875751,3.59375,0.03981543178615755,0.017935357167628126,0.46363149334741904,362.46895138231423,1.025,1.725,0.52631,15469.860468532228,1.0,50591.38290144011,-1.0179657678026284,-1.3991664660366228,214.2862837368271,50591.38290144011,-1.0179657678026284,-1.3991664660366228,214.2862837368271,-6.89453125,-27.890625,0.00457000732421875,0.0185394287109375,1.34765625,0.3427734375,0.2376708984375,3.59375,2.0,-7.0,7.0
3.9854836463928223,985.5868187183939,1707.0421720832228,64.30402329180791,0.08391636132033921,-0.014251481254657543,1.6079123923155958,7.843971252441406e-05,1.583113670564007,985.1845682138425,1707.0646428323719,8.92369638875751,3.59375,0.039413181281606056,0.017957827916777205,0.46200597670819205,362.12659390646706,1.025,1.725,0.52631,15469.860468532228,1.0,48879.15754362547,0.4397813038265477,0.37190207280559423,-85.25147732508188,48879.15754362547,0.4397813038265477,0.37190207280559423,-85.25147732508188,,,,,,,,,,,
3.9882991313934326,985.9042000630261,1707.3308985494214,66.45216260457016,0.07634860675805054,-0.013411151232893133,1.6159052781323318,7.462501525878906e-05,1.584356644891202,985.1845682138425,1707.0646428323719,8.92369638875751,3.59375,0.03909579993697389,0.017669101450578636,0.4598578373954298,362.58455252989603,1.025,1.725,0.52631,15469.860468532228,1.0,42144.85886880775,0.9341381463971699,-1.9749695888799899,283.0228258531456,42144.85886880775,0.9341381463971699,-1.9749695888799899,283.0228258531456,,,,,,,,,,,
3.996168613433838,986.5920902690768,1707.1549161171245,68.56278764439227,0.07058549584923275,-0.009551360016445689,1.6179642827100282,7.486343383789062e-05,1.5879050812642883,985.1845682138425,1707.0646428323719,8.92369638875751,3.59375,0.038407909730923166,0.01784508388287554,0.45774721235560767,362.7025248021962,1.025,1.725,0.52631,15469.860468532228,1.0,50496.00240458634,0.36660642412102984,0.7340050437959558,63.029307196473354,50496.00240458634,0.36660642412102984,0.7340050437959558,63.029307196473354,,,,,,,,,,,
3.9993956089019775,987.3673583504268,1707.2820045098006,71.24467993614712,0.05812049630043663,-0.002855499371794064,1.6204063389632475,7.534027099609375e-05,1.5894505014851785,987.3673583504268,1707.2820045098006,9.536585660705372,4.609375,0.0376326416495732,0.017717995490199426,0.4550653200638528,362.84244431883917,1.025,1.725,0.52631,15469.860468532228,1.0,41415.430290238175,3.526447158807885,-0.5191929925683153,105.15779280109275,41415.430290238175,3.526447158807885,-0.5191929925683153,105.15779280109275,-36.0625,-18.3125,-0.00860595703125,-0.0034770965576171875,1.3857421875,0.376220703125,0.3173828125,4.609375,15.0,-4.0,2.0
4.0039756298065186,988.919983065628,1707.3136816459555,72.64107963315047,-0.11056055148762933,0.07572173234536035,1.6041177069334742,7.510185241699219e-05,1.5915075008969297,987.3673583504268,1707.2820045098006,9.536585660705372,4.609375,0.036080016934371996,0.017686318354044488,0.45366892036684947,361.90917444949156,1.025,1.725,0.52631,15469.860468532228,1.0,49669.11278842012,6.1274496897436785,0.21415428358049676,-285.9587355468598,49669.11278842012,6.1274496897436785,0.21415428358049676,-285.9587355468598,,,,,,,,,,,
4.007054090499878,990.1176289579512,1707.2233800612978,76.18208276323699,-0.1295956917402225,0.1078396881410713,1.6150866615393988,8.344650268554688e-05,1.5929164850033577,987.3673583504268,1707.2820045098006,9.536585660705372,4.609375,0.03488237104204882,0.017776619938702196,0.450127917236763,362.5376492540816,1.025,1.725,0.52631,15469.860468532228,1.0,35367.4966416731,7.01288538150824,1.0554665224952333,343.890524269252,35367.4966416731,7.01288538150824,1.0554665224952333,343.890524269252,,,,,,,,,,,
4.010202169418335,991.1033672860974,1707.5033875201382,80.21443412245172,-0.11957951745656831,0.11032305778993354,1.6152140492312568,7.200241088867188e-05,1.594375006063677,991.1033672860974,1707.5033875201382,10.086406564347891,5.42578125,0.03389663271390259,0.017496612479861826,0.44609556587754823,362.544948031187,1.025,1.725,0.52631,15469.860468532228,1.0,33801.09394032594,5.213676001446634,-1.4589051552687369,41.519204078852546,33801.09394032594,5.213676001446634,-1.4589051552687369,41.519204078852546,-45.5,-18.8125,-0.011749267578125,-0.0176849365234375,1.3642578125,0.354248046875,0.357666015625,5.42578125,15.0,-12.0,-17.0
4.014869928359985,992.3488052187919,1707.8341496198393,85.19190041865667,-0.08738591753245138,0.11878646826911893,1.6115649307215851,7.700920104980469e-05,1.5963103535309098,991.1033672860974,1707.5033875201382,10.086406564347891,5.42578125,0.03265119478120812,0.01716585038016069,0.44111809958134324,362.3358689416397,1.025,1.725,0.52631,15469.860468532228,1.0,35953.09526328763,4.678221938701595,-1.1742038399325205,-34.02696075132681,35953.09526328763,4.678221938701595,-1.1742038399325205,-34.02696075132681,,,,,,,,,,,
4.017658948898315,993.2775366212934,1708.132681466375,90.1753996600618,-0.05185900918110034,0.12580180887433032,1.6218857387710828,7.534027099609375e-05,1.597445358318693,991.1033672860974,1707.5033875201382,10.086406564347891,5.42578125,0.03172246337870661,0.01686731853362494,0.43613460033993817,362.9272076840406,1.025,1.725,0.52631,15469.860468532228,1.0,24033.528988544815,6.022408568109615,-1.8634816144376871,362.21592488675304,24033.528988544815,6.022408568109615,-1.8634816144376871,360,,,,,,,,,,,
4.021495342254639,994.5404350576515,1708.6370873268247,95.56346505369933,-0.035111331635628955,0.1124636545493491,1.6309145600590258,7.486343383789062e-05,1.5990029041752984,994.5404350576515,1708.6370873268247,10.581482039981177,5.796875,0.030459564942348492,0.016362912673175287,0.4307465349463006,363.4445210378176,1.025,1.725,0.52631,15469.860468532228,1.0,31151.671332741964,5.776277550262833,-2.3002052326319413,247.68408896527097,31151.671332741964,5.776277550262833,-2.3002052326319413,247.68408896527097,-50.40625,-17.8125,-0.002872467041015625,0.0172576904296875,1.3310546875,0.324951171875,0.36572265625,5.796875,15.0,0.0,4.0
4.025986433029175,996.5242026865976,1708.6178761614785,100.16195772887589,-0.056359015584954805,0.12950508237879343,1.6147613575504123,7.653236389160156e-05,1.6006737260327097,994.5404350576515,1708.6370873268247,10.581482039981177,5.796875,0.02847579731340238,0.016382123838521466,0.426148042271124,362.5190107084539,1.025,1.725,0.52631,15469.860468532228,1.0,36333.62189950753,8.704507731470684,0.6763907081919366,-279.7936511941487,36333.62189950753,8.704507731470684,0.6763907081919366,-279.7936511941487,,,,,,,,,,,
4.028785467147827,998.2073266153187,1708.664620403486,105.54351581136213,-0.05555111351852083,0.1298748051120487,1.6221903221425757,7.82012939453125e-05,1.6017281178990055,994.5404350576515,1708.6370873268247,10.581482039981177,5.796875,0.02679267338468128,0.01633537959651403,0.4207664841886378,362.944659025737,1.025,1.725,0.52631,15469.860468532228,1.0,21366.3894006415,11.96972343621152,0.34703148321600985,272.3327600269936,21366.3894006415,11.96972343621152,0.34703148321600985,272.3327600269936,,,,,,,,,,,
4.037087917327881,1000.3351547454574,1708.3838053448733,110.87583705998014,-0.0690596152678522,0.132746368984655,1.618173413267804,0.002370119094848633,1.6047683693549233,1000.3351547454574,1708.3838053448733,11.028258004292722,7.03515625,0.02466484525454257,0.016616194655126718,0.4154341629400198,362.714507100524,1.025,1.725,0.52631,15469.860468532228,1.0,43070.81896936897,4.44506229812054,1.2465345766742582,-0.2242520267353001,43070.81896936897,4.44506229812054,1.2465345766742582,-0.2242520267353001,-49.03125,-18.875,0.0072784423828125,-0.00396728515625,1.29296875,0.2841796875,0.41162109375,7.03515625,15.0,-16.0,31.0
4.046769618988037,1002.403815312479,1708.7536719510254,117.46018640458277,-0.03885688253016673,0.1536617428306581,1.603931765185604,0.006533622741699219,1.60777274032115,1000.3351547454574,1708.3838053448733,11.028258004292722,7.03515625,0.02259618468752103,0.016246328048974648,0.40884981359541717,361.8985207721033,1.025,1.725,0.52631,15469.860468532228,1.0,41966.490208798525,3.792808272264532,-0.29417860851505595,-98.8724087463938,41966.490208798525,3.792808272264532,-0.29417860851505595,-98.8724087463938,,,,,,,,,,,
4.057424068450928,1004.5047820615858,1708.7749667798043,123.1694107738752,-0.04815376840253542,0.13694134895890334,1.6005126601796729,0.008554220199584961,1.610086995424319,1004.5047820615858,1708.7749667798043,14.333827256145588,8.875,0.02049521793841416,0.016225033220195657,0.4031405892261247,361.7026204855514,1.025,1.725,0.52631,15469.860468532228,1.0,44411.98785571501,3.4168996769871134,0.5545135477524331,-1.7839620531854905,44411.98785571501,3.4168996769871134,0.5545135477524331,-1.7839620531854905,-21.765625,12.1796875,0.0047607421875,-0.0288238525390625,1.173828125,0.1641845703125,0.4443359375,8.875,44.0,-22.0,27.0
4.066946268081665,1006.5973724846541,1709.2944362167427,129.5785614451102,-0.05379525105665427,0.12724911702649805,1.5926035393680877,0.0073320865631103516,1.6108436583534973,1006.5973724846541,1709.2944362167427,17.30439966963437,8.5390625,0.0184026275153459,0.015705563783257277,0.39673143855488974,361.2494612433885,1.025,1.725,0.52631,15469.860468532228,1.0,41788.963420862,4.12861082455607,-0.5068012707965318,-52.77523757797263,41788.963420862,4.12861082455607,-0.5068012707965318,-52.77523757797263,4.25,43.0625,-0.007366180419921875,-0.0120849609375,1.1220703125,0.10968017578125,0.4755859375,8.5390625,44.0,4.0,3.0
4.076943874359131,1008.8337286109394,1709.6153307834213,136.26637220486873,-0.04040501089667418,0.10753634148955603,1.5880504226642107,0.007835865020751953,1.6102682389385004,1008.8337286109394,1709.6153307834213,19.97926935376449,6.39453125,0.016166271389060627,0.015384669216578686,0.39004362779513124,360.9885868726258,1.025,1.725,0.52631,15469.860468532228,1.0,41713.54089652228,4.29665889756353,0.036382572189015916,-24.202817010053025,41713.54089652228,4.29665889756353,0.036382572189015916,-24.202817010053025,32.71875,66.8125,0.0016841888427734375,-0.005245208740234375,1.0537109375,0.04608154296875,0.50927734375,6.39453125,44.0,27.0,1.0
4.086882829666138,1011.3016672863613,1709.911638593881,142.63982481639889,-0.05080966683360446,0.09299374280819797,1.577917529847697,0.0077474117279052734,1.6084274042458881,1011.3016672863613,1709.911638593881,22.385657095875167,6.125,0.013698332713638706,0.01508836140611902,0.383670175183601,360.4080148799811,1.025,1.725,0.52631,15469.860468532228,1.0,41940.442670006654,4.9845472282047805,0.1321814529096913,-81.74706442491963,41940.442670006654,4.9845472282047805,0.1321814529096913,-81.74706442491963,52.0625,87.1875,-0.007579803466796875,0.0133514404296875,1.0498046875,0.03875732421875,0.53271484375,6.125,44.0,0.0,6.0
4.096966981887817,1013.4280769581113,1710.221707039784,149.2997308317789,-0.053212509613109235,0.06789855941964691,1.5820810654578825,0.007925033569335938,1.6054760389151082,1013.4280769581113,1710.221707039784,27.648791875790053,3.359375,0.011571923041888681,0.01477829296021605,0.37701026916822106,360.6465678982972,1.025,1.725,0.52631,15469.860468532228,1.0,41429.910892436084,4.267871552045813,0.08493695779959892,45.198809848080394,41429.910892436084,4.267871552045813,0.08493695779959892,45.198809848080394,64.5625,96.0,-0.006450653076171875,0.00865936279296875,1.044921875,0.043731689453125,0.5576171875,3.359375,75.0,25.0,26.0
4.106948375701904,1015.9296623717862,1710.9808596098633,155.36670344468038,-0.07406647851292278,0.04669095142579626,1.5642197365074102,0.007472038269042969,1.601767272828249,1015.9296623717862,1710.9808596098633,32.3903833550601,3.201171875,0.009070337628213793,0.014019140390136726,0.37094329655531955,359.6231891329403,1.025,1.725,0.52631,15469.860468532228,1.0,42159.47008472322,5.273264215235418,-0.9040561957359867,-159.5112801129078,42159.47008472322,5.273264215235418,-0.9040561957359867,-159.5112801129078,68.5625,95.25,-0.004566192626953125,-0.01236724853515625,1.0439453125,0.0360107421875,0.5712890625,3.201171875,75.0,0.0,6.0
4.116763353347778,1018.7270034871547,1711.2285688564843,161.84549425194913,-0.08018159937753908,0.04317450174760464,1.5534456236193952,0.007658958435058594,1.597445883760511,1018.7270034871547,1711.2285688564843,36.65986261337467,2.126953125,0.0062729965128453385,0.013771431143515657,0.3644645057480508,359.00587793645957,1.025,1.725,0.52631,15469.860468532228,1.0,41096.255079823015,6.0945895437564115,0.18385586594233905,-109.2311410282905,41096.255079823015,6.0945895437564115,0.18385586594233905,-109.2311410282905,46.46875,75.375,-0.0121612548828125,-0.0134735107421875,1.03125,0.037506103515625,0.5849609375,2.126953125,75.0,0.0,7.0
4.12727952003479,1021.3975734768621,1711.4015049857264,168.05589516468973,-0.09564428593242914,0.031138865828287583,1.5494651902925587,0.008368492126464844,1.5920315069690356,1018.7270034871547,1711.2285688564843,36.65986261337467,2.126953125,0.0036024265231378648,0.013598495014273567,0.3582541048353102,358.7778159061986,1.025,1.725,0.52631,15469.860468532228,1.0,41965.1175588194,5.599847780864746,0.305205692527604,-51.24047730669249,41965.1175588194,5.599847780864746,0.305205692527604,-51.24047730669249,,,,,,,,,,,
4.136678218841553,1023.8820991653969,1712.0163694630135,174.5857263822594,-0.09068325047529673,0.03554492620517409,1.5349170368140819,0.007347822189331055,1.5863765109681291,1018.7270034871547,1711.2285688564843,36.65986261337467,2.126953125,0.0011179008346031197,0.012983630536986538,0.35172427361774056,357.9442681121733,1.025,1.725,0.52631,15469.860468532228,1.0,40125.2417195884,5.884457850860594,-0.8251749593574345,-163.78302668751098,40125.2417195884,5.884457850860594,-0.8251749593574345,-163.78302668751098,,,,,,,,,,,
4.147148609161377,1026.3145275009967,1712.3421419539934,181.11592603898268,-0.0891420663597496,0.023969920581514197,1.5414207803934885,0.008429765701293945,1.5793241677514944,1026.3145275009967,1712.3421419539934,43.4096229809028,2.28125,-0.0013145275009967463,0.012657858046006595,0.34519407396101726,358.3169051703086,1.025,1.725,0.52631,15469.860468532228,1.0,41270.399272945244,5.203844684809373,-0.16140779712237058,27.37707995025766,41270.399272945244,5.203844684809373,-0.16140779712237058,27.37707995025766,3.09375,36.5,0.0079345703125,-0.0052642822265625,1.0205078125,0.01390838623046875,0.6015625,2.28125,104.0,0.0,6.0
4.156491756439209,1028.9253575857979,1712.8830931109544,187.0735883739721,-0.11123332150386439,0.017463495207055535,1.5376965225478425,0.007098197937011719,1.5729935497774372,1026.3145275009967,1712.3421419539934,43.4096229809028,2.28125,-0.003925357585797883,0.012116906889045594,0.33923641162602786,358.10352091393463,1.025,1.725,0.52631,15469.860468532228,1.0,40552.20522435628,6.4895687623086244,-0.8571452963189422,-63.25397032181968,40552.20522435628,6.4895687623086244,-0.8571452963189422,-63.25397032181968,,,,,,,,,,,
4.1677565574646,1031.54263294339,1713.5184524748006,193.86812999238816,-0.09550270258993526,0.0057409923712834635,1.5321223113139626,0.009202957153320312,1.5654482245607837,1031.54263294339,1713.5184524748006,49.475462228432484,1.75390625,-0.00654263294338989,0.011481547525199403,0.3324418700076118,357.7841421361189,1.025,1.725,0.52631,15469.860468532228,1.0,41199.52443629141,5.385188198577923,-0.8933953756109045,-75.30808126506359,41199.52443629141,5.385188198577923,-0.8933953756109045,-75.30808126506359,-21.328125,19.671875,-0.0058135986328125,-0.0128631591796875,0.990234375,-0.00634002685546875,0.60546875,1.75390625,104.0,3.0,5.0
4.176629066467285,1034.3536320253627,1713.587996590404,200.39557090544363,-0.08651508240004654,0.007314317400219151,1.5407990665830928,0.0067138671875,1.560145692386153,1031.54263294339,1713.5184524748006,49.475462228432484,1.75390625,-0.009353632025362685,0.011412003409596081,0.3259144290945563,358.2812835929079,1.025,1.725,0.52631,15469.860468532228,1.0,38471.71942370814,7.465755063060935,0.061276316970770184,59.62539231217117,38471.71942370814,7.465755063060935,0.061276316970770184,59.62539231217117,,,,,,,,,,,
4.187147855758667,1036.9191509109219,1714.104025436005,206.44232661740463,-0.09408923099509413,0.01392609112962415,1.5413389599785343,0.008345603942871094,1.5545659931959268,1036.9191509109219,1714.104025436005,58.039088508461305,1.125,-0.01191915091092187,0.010895974563994968,0.3198676733825953,358.3122172058537,1.025,1.725,0.52631,15469.860468532228,1.0,41318.988672316824,5.762723269395573,-0.8700197134932384,-20.958984080368197,41318.988672316824,5.762723269395573,-0.8700197134932384,-20.958984080368197,-25.25,24.1875,-0.01151275634765625,-0.004917144775390625,0.99169921875,-0.0127410888671875,0.61865234375,1.125,135.0,0.0,11.0
4.19700288772583,1039.015950136217,1715.0323955092629,213.58565812647393,-0.07086149413158634,-0.004527879067793994,1.5538125965747016,0.00770258903503418,1.5505876393958868,1039.015950136217,1715.0323955092629,65.74570151881586,1.08984375,-0.014015950136217044,0.009967604490737131,0.312724341873526,359.026903937994,1.025,1.725,0.52631,15469.860468532228,1.0,38418.15787512015,5.168372947689053,-1.9056858841794833,94.25726737708644,38418.15787512015,5.168372947689053,-1.9056858841794833,94.25726737708644,-7.6875,36.6875,0.0009493827819824219,-0.01446533203125,0.98486328125,-0.01441192626953125,0.61767578125,1.08984375,135.0,0.0,9.0
4.207080125808716,1040.399177447014,1716.1554121671136,218.0326501797249,0.03482829655848544,-0.01084865757793923,1.5254375671798157,0.007884740829467773,1.547783806328423,1039.015950136217,1715.0323955092629,65.74570151881586,1.08984375,-0.015399177447013926,0.008844587832886419,0.30827734982027505,357.40113451010745,1.025,1.725,0.52631,15469.860468532228,1.0,43006.70729222348,3.5633613936186843,-2.3067203335439967,-283.9583570925604,43006.70729222348,3.5633613936186843,-2.3067203335439967,-283.9583570925604,,,,,,,,,,,
